time,x,y,z,vx,vy,vz,ax,ay,az,jx,jy,jz,sx,sy,sz,roll,pitch,yaw,p,q,r
0.000000,-2.189608,-2.272850,-1.503592,-0.022815,-0.009902,0.007934,0.457073,0.322180,-0.006641,-7.932414,-7.919346,-0.006283,132.926848,220.259988,-4.028656,0.032773,-0.046527,0.000000,-0.803780,0.805907,0.000000
0.010000,-2.189814,-2.272935,-1.503513,-0.018619,-0.007040,0.007866,0.384163,0.253604,-0.006902,-6.672346,-5.834604,-0.045378,119.258175,196.971688,-3.786191,0.025808,-0.039113,0.000000,-0.592927,0.678595,-0.000000
0.020000,-2.189982,-2.272993,-1.503434,-0.015092,-0.004764,0.007794,0.323188,0.204739,-0.007540,-5.543889,-3.974360,-0.081930,106.597779,175.349054,-3.520582,0.020840,-0.032908,0.000000,-0.404214,0.564233,0.000000
0.030000,-2.190118,-2.273031,-1.503357,-0.012120,-0.002887,0.007714,0.272880,0.173423,-0.008531,-4.537167,-2.322295,-0.115720,94.904399,155.324702,-3.234071,0.017654,-0.027785,0.000000,-0.236338,0.462001,-0.000000
0.040000,-2.190226,-2.273052,-1.503280,-0.009603,-0.001244,0.007623,0.232070,0.157652,-0.009845,-3.642716,-0.862763,-0.146549,84.136778,136.831244,-2.928899,0.016049,-0.023628,0.000000,-0.087911,0.371052,0.000000
0.050000,-2.190311,-2.273056,-1.503204,-0.007451,0.000311,0.007516,0.199682,0.155576,-0.011452,-2.851483,0.419208,-0.174243,74.253656,119.801295,-2.607308,0.015836,-0.020328,0.000000,0.042476,0.290536,0.000000
0.060000,-2.190376,-2.273045,-1.503130,-0.005584,0.001908,0.007393,0.174725,0.165492,-0.013319,-2.154832,1.537916,-0.198648,65.213775,104.167467,-2.271539,0.016843,-0.017785,0.000000,0.156214,0.219618,0.000000
0.070000,-2.190424,-2.273018,-1.503057,-0.003934,0.003656,0.007249,0.156297,0.185836,-0.015413,-1.544535,2.506986,-0.219634,56.975875,89.862376,-1.923833,0.018909,-0.015906,0.000000,0.254655,0.157485,-0.000000
0.080000,-2.190455,-2.272971,-1.502985,-0.002440,0.005654,0.007084,0.143573,0.215176,-0.017700,-1.012778,3.339368,-0.237092,49.498700,76.818634,-1.566433,0.021889,-0.014608,0.000000,0.339098,0.103359,0.000000
0.090000,-2.190473,-2.272904,-1.502915,-0.001046,0.007985,0.006895,0.135804,0.252208,-0.020143,-0.552162,4.047339,-0.250938,42.740988,64.968855,-1.201579,0.025649,-0.013814,0.000000,0.410783,0.056494,0.000000
0.100000,-2.190477,-2.272810,-1.502847,0.000291,0.010720,0.006681,0.132316,0.295747,-0.022706,-0.155698,4.642501,-0.261107,36.661483,54.245653,-0.831512,0.030066,-0.013456,0.000000,0.470888,0.016182,0.000000
0.110000,-2.190467,-2.272688,-1.502781,0.001612,0.013918,0.006440,0.132499,0.344719,-0.025353,0.183190,5.135783,-0.267558,31.218925,44.581641,-0.458474,0.035031,-0.013471,0.000000,0.520527,-0.018245,0.000000
0.120000,-2.190444,-2.272530,-1.502718,0.002951,0.017629,0.006173,0.135808,0.398157,-0.028045,0.470666,5.537440,-0.270274,26.372055,35.909434,-0.084706,0.040445,-0.013804,0.000000,0.560750,-0.047414,0.000000
0.130000,-2.190408,-2.272333,-1.502658,0.004337,0.021893,0.005880,0.141760,0.455194,-0.030746,0.712480,5.857053,-0.269257,22.079615,28.161644,0.287550,0.046218,-0.014404,0.000000,0.592541,-0.071915,0.000000
0.140000,-2.190357,-2.272090,-1.502601,0.005794,0.026743,0.005559,0.149924,0.515055,-0.033418,0.913969,6.103529,-0.264535,18.300346,21.270887,0.656053,0.052271,-0.015230,0.000000,0.616822,-0.092294,0.000000
0.150000,-2.190292,-2.271796,-1.502547,0.007342,0.032202,0.005211,0.159921,0.577049,-0.036024,1.080060,6.285103,-0.256156,14.992989,15.169775,1.018561,0.058533,-0.016241,0.000000,0.634448,-0.109057,0.000000
0.160000,-2.190210,-2.271444,-1.502497,0.008997,0.038289,0.004839,0.171422,0.640566,-0.038529,1.215264,6.409332,-0.244191,12.116285,9.790922,1.372834,0.064940,-0.017404,0.000000,0.646208,-0.122668,0.000000
0.170000,-2.190111,-2.271028,-1.502450,0.010774,0.045016,0.004441,0.184137,0.705067,-0.040896,1.323683,6.483104,-0.228734,9.628976,5.066941,1.716630,0.071440,-0.018690,0.000000,0.652824,-0.133550,0.000000
0.180000,-2.189994,-2.270542,-1.502408,0.012683,0.052392,0.004021,0.197819,0.770080,-0.043092,1.409004,6.512629,-0.209901,7.489804,0.930447,2.047707,0.077982,-0.020074,0.000000,0.654953,-0.142083,-0.000000
0.190000,-2.189857,-2.269978,-1.502370,0.014733,0.060418,0.003580,0.212251,0.835191,-0.045084,1.474502,6.503447,-0.187830,5.657508,-2.685946,2.363825,0.084526,-0.021534,0.000000,0.653179,-0.148606,0.000000
0.200000,-2.189699,-2.269331,-1.502336,0.016930,0.069095,0.003120,0.227252,0.900036,-0.046839,1.523040,6.460420,-0.162682,4.090831,-5.849626,2.662741,0.091034,-0.023051,0.000000,0.648020,-0.153416,-0.000000
0.210000,-2.189518,-2.268594,-1.502308,0.019277,0.078414,0.002644,0.242735,0.964424,-0.048329,1.563606,6.399102,-0.134716,2.583336,-8.914999,2.944120,0.097489,-0.024617,0.000000,0.641061,-0.157424,-0.000000
0.220000,-2.189313,-2.267761,-1.502284,0.021783,0.088376,0.002155,0.258477,1.027922,-0.049524,1.582758,6.296110,-0.103958,1.279167,-11.627286,3.203582,0.103846,-0.026210,0.000000,0.629983,-0.159282,-0.000000
0.230000,-2.189082,-2.266825,-1.502264,0.024447,0.098968,0.001655,0.274350,1.090261,-0.050399,1.589797,6.167626,-0.070725,0.157293,-14.018727,3.438652,0.110080,-0.027816,0.000000,0.616434,-0.159932,0.000000
0.240000,-2.188823,-2.265780,-1.502250,0.027270,0.110177,0.001148,0.290239,1.151200,-0.050931,1.586442,6.016697,-0.035274,-0.803320,-16.121563,3.646856,0.116168,-0.029425,0.000000,0.600741,-0.159554,-0.000000
0.250000,-2.188536,-2.264619,-1.502242,0.030252,0.121987,0.000637,0.306049,1.210529,-0.051098,1.574199,5.846049,0.002114,-1.623704,-17.968034,3.825718,0.122089,-0.031026,0.000000,0.583193,-0.158303,0.000000
0.260000,-2.188218,-2.263338,-1.502238,0.033390,0.134380,0.000127,0.321734,1.268120,-0.050880,1.557709,5.663333,0.041482,-2.409367,-19.722955,3.963985,0.127832,-0.032616,0.000000,0.564569,-0.156649,-0.000000
0.270000,-2.187868,-2.261930,-1.502239,0.036685,0.147341,-0.000379,0.337179,1.323741,-0.050265,1.530144,5.458202,0.081675,-3.086524,-21.269759,4.069037,0.133375,-0.034182,0.000000,0.543841,-0.153905,0.000000
0.280000,-2.187484,-2.260389,-1.502245,0.040132,0.160848,-0.000877,0.352316,1.377236,-0.049243,1.496305,5.238578,0.122747,-3.665862,-22.624455,4.139473,0.138704,-0.035719,0.000000,0.521808,-0.150558,0.000000
0.290000,-2.187064,-2.258711,-1.502256,0.043730,0.174878,-0.001362,0.367087,1.428470,-0.047808,1.457117,5.006300,0.164344,-4.158072,-23.803050,4.173894,0.143808,-0.037221,0.000000,0.498658,-0.146699,-0.000000
0.300000,-2.186609,-2.256890,-1.502272,0.047473,0.189409,-0.001832,0.381443,1.477325,-0.045956,1.413398,4.763050,0.206100,-4.573841,-24.821551,4.170901,0.148674,-0.038682,0.000000,0.474556,-0.142411,0.000000
0.310000,-2.186115,-2.254921,-1.502293,0.051357,0.204416,-0.002280,0.395361,1.523726,-0.043680,1.367558,4.512780,0.248215,-4.966763,-25.757368,4.114403,0.153299,-0.040102,0.000000,0.449897,-0.137936,-0.000000
0.320000,-2.185581,-2.252800,-1.502318,0.055378,0.219874,-0.002704,0.408782,1.567552,-0.040994,1.316180,4.251096,0.288916,-5.299369,-26.557587,4.019490,0.157670,-0.041473,0.000000,0.424220,-0.132925,0.000000
0.330000,-2.185007,-2.250522,-1.502347,0.059531,0.235758,-0.003099,0.421674,1.608723,-0.037906,1.261754,3.982052,0.328478,-5.577095,-27.230698,3.886561,0.161781,-0.042793,0.000000,0.397926,-0.127627,-0.000000
0.340000,-2.184390,-2.248084,-1.502380,0.063809,0.252039,-0.003461,0.434009,1.647173,-0.034430,1.204803,3.706878,0.366522,-5.805376,-27.785189,3.716014,0.165627,-0.044058,0.000000,0.371122,-0.122091,-0.000000
0.350000,-2.183730,-2.245480,-1.502416,0.068209,0.268692,-0.003786,0.445763,1.682844,-0.030582,1.145793,3.426716,0.402674,-5.989647,-28.229549,3.508249,0.169202,-0.045268,0.000000,0.343906,-0.116361,0.000000
0.360000,-2.183025,-2.242709,-1.502455,0.072722,0.285687,-0.004072,0.456928,1.715706,-0.026377,1.085991,3.143749,0.437163,-6.156874,-28.600635,3.248542,0.172505,-0.046420,0.000000,0.316487,-0.110562,0.000000
0.370000,-2.182275,-2.239766,-1.502497,0.077345,0.302996,-0.004313,0.467478,1.745709,-0.021848,1.023736,2.856292,0.468205,-6.288325,-28.875095,2.954266,0.175531,-0.047512,0.000000,0.288657,-0.104518,0.000000
0.380000,-2.181478,-2.236648,-1.502542,0.082070,0.320591,-0.004508,0.477399,1.772824,-0.017023,0.960334,2.566552,0.496140,-6.386802,-29.057943,2.627674,0.178277,-0.048542,0.000000,0.260626,-0.098357,0.000000
0.390000,-2.180633,-2.233353,-1.502587,0.086891,0.338443,-0.004653,0.486682,1.797035,-0.011936,0.896100,2.275421,0.520658,-6.455101,-29.154194,2.271014,0.180743,-0.049510,0.000000,0.232460,-0.092106,0.000000
0.400000,-2.179740,-2.229878,-1.502634,0.091801,0.356522,-0.004746,0.495319,1.818331,-0.006623,0.831323,1.983740,0.541468,-6.496023,-29.168865,1.886539,0.182926,-0.050414,0.000000,0.204223,-0.085791,0.000000
0.410000,-2.178797,-2.226222,-1.502682,0.096795,0.374800,-0.004784,0.503312,1.836716,-0.001116,0.766676,1.692792,0.558745,-6.522818,-29.119414,1.465348,0.184828,-0.051255,0.000000,0.176031,-0.079475,0.000000
0.420000,-2.177804,-2.222382,-1.502730,0.101865,0.393247,-0.004767,0.510652,1.852190,0.004538,0.701410,1.402151,0.571200,-6.526553,-28.996888,1.022209,0.186447,-0.052031,0.000000,0.147802,-0.073076,-0.000000
0.430000,-2.176760,-2.218356,-1.502777,0.107006,0.411834,-0.004693,0.517340,1.864764,0.010293,0.636216,1.113086,0.579128,-6.508750,-28.804779,0.560737,0.187784,-0.052742,0.000000,0.119654,-0.066660,0.000000
0.440000,-2.175664,-2.214145,-1.502824,0.112210,0.430532,-0.004561,0.523378,1.874459,0.016105,0.571302,0.826276,0.582365,-6.470928,-28.546578,0.084550,0.188841,-0.053388,0.000000,0.091637,-0.060245,-0.000000
0.450000,-2.174515,-2.209745,-1.502868,0.117471,0.449313,-0.004371,0.528768,1.881299,0.021925,0.506859,0.542363,0.580782,-6.414605,-28.225775,-0.402736,0.189618,-0.053969,0.000000,0.063799,-0.053846,-0.000000
0.460000,-2.173314,-2.205158,-1.502911,0.122783,0.468149,-0.004123,0.533519,1.885320,0.027706,0.443251,0.262134,0.574466,-6.345957,-27.850330,-0.902067,0.190118,-0.054485,0.000000,0.036210,-0.047499,-0.000000
0.470000,-2.172059,-2.200382,-1.502951,0.128139,0.487011,-0.003818,0.537636,1.886556,0.033397,0.380202,-0.014257,0.562933,-6.261278,-27.418719,-1.404706,0.190343,-0.054937,0.000000,0.008865,-0.041171,-0.000000
0.480000,-2.170751,-2.195418,-1.502987,0.133534,0.505871,-0.003456,0.541126,1.885050,0.038948,0.318075,-0.286063,0.546375,-6.161518,-26.933888,-1.906478,0.190296,-0.055324,0.000000,-0.018166,-0.034899,-0.000000
0.490000,-2.169389,-2.190265,-1.503020,0.138960,0.524703,-0.003039,0.544001,1.880851,0.044308,0.257018,-0.552767,0.524821,-6.047627,-26.398780,-2.403208,0.189981,-0.055648,0.000000,-0.044836,-0.028696,-0.000000
0.500000,-2.167972,-2.184924,-1.503048,0.144412,0.543479,-0.002570,0.546271,1.874013,0.049428,0.197167,-0.813881,0.498342,-5.920555,-25.816339,-2.890721,0.189401,-0.055909,0.000000,-0.071101,-0.022575,0.000000
0.510000,-2.166500,-2.179396,-1.503071,0.149883,0.562174,-0.002052,0.547949,1.864594,0.054258,0.138715,-1.068914,0.466942,-5.782956,-25.190313,-3.362084,0.188560,-0.056108,0.000000,-0.096913,-0.016555,0.000000
0.520000,-2.164974,-2.173681,-1.503089,0.155369,0.580763,-0.001486,0.549050,1.852657,0.058751,0.081622,-1.317513,0.431034,-5.633867,-24.522745,-3.816218,0.187464,-0.056246,0.000000,-0.122231,-0.010635,0.000000
0.530000,-2.163393,-2.167781,-1.503100,0.160862,0.599219,-0.000878,0.549587,1.838267,0.062864,0.026074,-1.559240,0.390687,-5.474027,-23.816481,-4.249286,0.186117,-0.056325,0.000000,-0.147008,-0.004834,0.000000
0.540000,-2.161757,-2.161697,-1.503106,0.166359,0.617520,-0.000230,0.549577,1.821496,0.066551,-0.027825,-1.793723,0.346131,-5.304180,-23.074367,-4.657451,0.184526,-0.056345,0.000000,-0.171199,0.000835,-0.000000
0.550000,-2.160066,-2.155431,-1.503105,0.171852,0.635641,0.000452,0.549036,1.802418,0.069773,-0.079979,-2.020617,0.297634,-5.125065,-22.299250,-5.036876,0.182695,-0.056308,0.000000,-0.194761,0.006361,-0.000000
0.560000,-2.158320,-2.148985,-1.503097,0.177338,0.653561,0.001164,0.547983,1.781110,0.072488,-0.130281,-2.239606,0.245140,-4.937852,-21.494015,-5.374561,0.180633,-0.056216,0.000000,-0.217655,0.011731,0.000000
0.570000,-2.156519,-2.142361,-1.503081,0.182810,0.671256,0.001900,0.546437,1.757653,0.074665,-0.178691,-2.450405,0.189852,-4.742802,-20.661463,-5.676954,0.178345,-0.056070,0.000000,-0.239824,0.016933,0.000000
0.580000,-2.154664,-2.135561,-1.503059,0.188265,0.688707,0.002655,0.544416,1.732130,0.076275,-0.225113,-2.652753,0.131727,-4.540602,-19.804436,-5.941338,0.175839,-0.055873,0.000000,-0.261234,0.021957,-0.000000
0.590000,-2.152754,-2.128587,-1.503028,0.193697,0.705892,0.003423,0.541941,1.704627,0.077292,-0.269481,-2.846421,0.071161,-4.331941,-18.925775,-6.165000,0.173123,-0.055625,0.000000,-0.281845,0.026790,0.000000
0.600000,-2.150790,-2.121444,-1.502990,0.199102,0.722793,0.004199,0.539034,1.675231,0.077692,-0.311733,-3.031206,0.008572,-4.117508,-18.028321,-6.345224,0.170205,-0.055329,0.000000,-0.301617,0.031423,0.000000
0.610000,-2.148772,-2.114133,-1.502944,0.204476,0.739391,0.004975,0.535714,1.644033,0.077452,-0.351806,-3.206883,-0.056122,-3.898187,-17.116220,-6.465847,0.167093,-0.054988,0.000000,-0.320520,0.035848,0.000000
0.620000,-2.146700,-2.106657,-1.502891,0.209815,0.755668,0.005746,0.532005,1.611124,0.076566,-0.389673,-3.373428,-0.121188,-3.674446,-16.190848,-6.539249,0.163797,-0.054603,0.000000,-0.338509,0.040050,0.000000
0.630000,-2.144576,-2.099020,-1.502830,0.215115,0.771608,0.006504,0.527928,1.576596,0.075027,-0.425283,-3.530664,-0.186746,-3.446951,-15.254888,-6.564359,0.160326,-0.054177,0.000000,-0.355559,0.044023,0.000000
0.640000,-2.142398,-2.091226,-1.502761,0.220373,0.787195,0.007244,0.523507,1.540542,0.072831,-0.458602,-3.678499,-0.252310,-3.216364,-14.311020,-6.540110,0.156689,-0.053712,0.000000,-0.371642,0.047759,-0.000000
0.650000,-2.140168,-2.083278,-1.502685,0.225584,0.802414,0.007959,0.518764,1.503058,0.069982,-0.489602,-3.816867,-0.317380,-2.983352,-13.361926,-6.465432,0.152897,-0.053211,0.000000,-0.386732,0.051251,0.000000
0.660000,-2.137887,-2.075179,-1.502602,0.230747,0.817252,0.008642,0.513723,1.464238,0.066480,-0.518241,-3.945587,-0.382041,-2.749135,-12.413897,-6.324270,0.148958,-0.052676,0.000000,-0.400805,0.054492,0.000000
0.670000,-2.135554,-2.066934,-1.502512,0.235858,0.831695,0.009286,0.508407,1.424177,0.062347,-0.544556,-4.064983,-0.444366,-2.513752,-11.465564,-6.132376,0.144884,-0.052110,0.000000,-0.413855,0.057476,0.000000
0.680000,-2.133170,-2.058546,-1.502416,0.240914,0.845731,0.009887,0.502840,1.382970,0.057600,-0.568514,-4.174904,-0.504522,-2.277800,-10.519165,-5.890519,0.140685,-0.051515,0.000000,-0.425863,0.060200,0.000000
0.690000,-2.130736,-2.050021,-1.502314,0.245914,0.859351,0.010436,0.497044,1.340711,0.052265,-0.590112,-4.275380,-0.562012,-2.041874,-9.576940,-5.599463,0.136370,-0.050895,0.000000,-0.436822,0.062659,0.000000
0.700000,-2.128252,-2.041361,-1.502208,0.250854,0.872542,0.010930,0.491045,1.297494,0.046371,-0.609353,-4.366465,-0.616349,-1.806570,-8.641130,-5.259976,0.131952,-0.050251,0.000000,-0.446725,0.064851,0.000000
0.710000,-2.125719,-2.032571,-1.502096,0.255734,0.885298,0.011362,0.484866,1.253415,0.039944,-0.626203,-4.448002,-0.667599,-1.573603,-7.719791,-4.859036,0.127439,-0.049587,0.000000,-0.455557,0.066774,-0.000000
0.720000,-2.123137,-2.023656,-1.501981,0.260551,0.897608,0.011728,0.478529,1.208564,0.033033,-0.640781,-4.520635,-0.713995,-1.342314,-6.808633,-4.412886,0.122844,-0.048905,0.000000,-0.463360,0.068429,0.000000
0.730000,-2.120508,-2.014621,-1.501862,0.265304,0.909467,0.012021,0.472058,1.163033,0.025680,-0.653057,-4.584213,-0.755714,-1.113162,-5.909183,-3.923981,0.118176,-0.048209,0.000000,-0.470123,0.069818,0.000000
0.740000,-2.117831,-2.005469,-1.501740,0.269992,0.920867,0.012240,0.465475,1.116910,0.017935,-0.663053,-4.638862,-0.792340,-0.886607,-5.022968,-3.394775,0.113445,-0.047500,0.000000,-0.475858,0.070939,0.000000
0.750000,-2.115108,-1.996205,-1.501617,0.274613,0.931803,0.012379,0.458804,1.070285,0.009852,-0.670799,-4.684722,-0.823483,-0.663107,-4.151514,-2.827723,0.108662,-0.046782,0.000000,-0.480581,0.071797,0.000000
0.760000,-2.112339,-1.986834,-1.501493,0.279168,0.942271,0.012436,0.452067,1.023247,0.001481,-0.676266,-4.721673,-0.849188,-0.444662,-3.303264,-2.214895,0.103837,-0.046057,0.000000,-0.484288,0.072390,0.000000
0.770000,-2.109525,-1.977361,-1.501369,0.283655,0.952267,0.012408,0.445286,0.975879,-0.007111,-0.679636,-4.750535,-0.868139,-0.230002,-2.471982,-1.570401,0.098979,-0.045327,0.000000,-0.487056,0.072733,0.000000
0.780000,-2.106666,-1.967790,-1.501245,0.288073,0.961788,0.012293,0.438482,0.928264,-0.015860,-0.680880,-4.771172,-0.880503,-0.019399,-1.658351,-0.897970,0.094099,-0.044596,0.000000,-0.488885,0.072824,0.000000
0.790000,-2.103764,-1.958127,-1.501123,0.292424,0.970832,0.012091,0.431675,0.880483,-0.024698,-0.680039,-4.783763,-0.886018,0.186877,-0.863051,-0.201327,0.089205,-0.043865,0.000000,-0.489802,0.072671,-0.000000
0.800000,-2.100818,-1.948375,-1.501004,0.296707,0.979397,0.011799,0.424888,0.832615,-0.033557,-0.677157,-4.788496,-0.884461,0.388555,-0.086762,0.515801,0.084306,-0.043137,0.000000,-0.489838,0.072278,0.000000
0.810000,-2.097830,-1.938540,-1.500887,0.300922,0.987484,0.011420,0.418140,0.784741,-0.042366,-0.672221,-4.785316,-0.875869,0.583776,0.663567,1.255330,0.079411,-0.042415,0.000000,-0.489000,0.071646,0.000000
0.820000,-2.094800,-1.928627,-1.500776,0.305070,0.995092,0.010952,0.411450,0.736933,-0.051049,-0.665427,-4.775010,-0.859565,0.774052,1.394292,2.007200,0.074528,-0.041701,0.000000,-0.487379,0.070797,-0.000000
0.830000,-2.091729,-1.918640,-1.500669,0.309151,1.002223,0.010399,0.404837,0.689265,-0.059532,-0.656756,-4.757495,-0.835699,0.959307,2.105499,2.766994,0.069666,-0.040996,0.000000,-0.484981,0.069730,-0.000000
0.840000,-2.088617,-1.908584,-1.500568,0.313167,1.008878,0.009763,0.398321,0.641807,-0.067738,-0.646258,-4.732965,-0.804214,1.139464,2.797276,3.530295,0.064831,-0.040303,0.000000,-0.481841,0.068453,0.000000
0.850000,-2.085466,-1.898464,-1.500474,0.317118,1.015060,0.009046,0.391918,0.594628,-0.075591,-0.633984,-4.701614,-0.765096,1.314447,3.469709,4.292685,0.060032,-0.039625,0.000000,-0.477995,0.066974,0.000000
0.860000,-2.082275,-1.888285,-1.500387,0.321006,1.020772,0.008252,0.385647,0.547798,-0.083015,-0.619940,-4.663480,-0.718396,1.482985,4.118973,5.050216,0.055274,-0.038962,0.000000,-0.473461,0.065296,-0.000000
0.870000,-2.079046,-1.878050,-1.500309,0.324832,1.026017,0.007387,0.379525,0.501380,-0.089934,-0.604289,-4.619122,-0.664145,1.646343,4.749546,5.797944,0.050564,-0.038317,0.000000,-0.468311,0.063437,-0.000000
0.880000,-2.075779,-1.867766,-1.500240,0.328597,1.030801,0.006456,0.373567,0.455436,-0.096273,-0.587030,-4.568550,-0.602485,1.804591,5.361996,6.531395,0.045910,-0.037692,0.000000,-0.462561,0.061400,0.000000
0.890000,-2.072474,-1.857436,-1.500180,0.332304,1.035128,0.005464,0.367789,0.410029,-0.101959,-0.568214,-4.511941,-0.533580,1.957800,5.956888,7.246094,0.041315,-0.037089,0.000000,-0.456243,0.059191,0.000000
0.900000,-2.069133,-1.847065,-1.500131,0.335953,1.039003,0.004419,0.362208,0.365217,-0.106921,-0.547890,-4.449468,-0.457641,2.106039,6.534789,7.937566,0.036787,-0.036508,0.000000,-0.449389,0.056819,0.000000
0.910000,-2.065755,-1.836657,-1.500092,0.339548,1.042434,0.003328,0.356837,0.321059,-0.111087,-0.526091,-4.381282,-0.374747,2.248930,7.095823,8.596928,0.032329,-0.035952,0.000000,-0.442024,0.054288,0.000000
0.920000,-2.062342,-1.826218,-1.500064,0.343091,1.045427,0.002200,0.351691,0.277610,-0.114394,-0.502908,-4.307585,-0.285611,2.387046,7.641053,9.224653,0.027948,-0.035422,0.000000,-0.434182,0.051609,-0.000000
0.930000,-2.058893,-1.815750,-1.500048,0.346583,1.047989,0.001043,0.346783,0.234925,-0.116779,-0.478366,-4.228512,-0.190372,2.520514,8.171098,9.816807,0.023647,-0.034920,0.000000,-0.425885,0.048786,-0.000000
0.940000,-2.055410,-1.805259,-1.500043,0.350027,1.050128,-0.000132,0.342128,0.193057,-0.118183,-0.452512,-4.144212,-0.089406,2.649459,8.686578,10.369456,0.019431,-0.034447,0.000000,-0.417158,0.045826,0.000000
0.950000,-2.051893,-1.794749,-1.500051,0.353426,1.051853,-0.001317,0.337737,0.152058,-0.118550,-0.425391,-4.054827,0.016872,2.774004,9.188113,10.878663,0.015305,-0.034004,0.000000,-0.408021,0.042733,0.000000
0.960000,-2.048342,-1.784224,-1.500070,0.356783,1.053172,-0.002500,0.333624,0.111976,-0.117826,-0.397064,-3.960620,0.128348,2.894720,9.679517,11.331938,0.011272,-0.033592,0.000000,-0.398505,0.039513,0.000000
0.970000,-2.044758,-1.773687,-1.500101,0.360100,1.054096,-0.003670,0.329800,0.072861,-0.115969,-0.367531,-3.861423,0.243726,3.011233,10.157826,11.734951,0.007336,-0.033214,0.000000,-0.388598,0.036170,0.000000
0.980000,-2.041140,-1.763143,-1.500143,0.363380,1.054633,-0.004815,0.326277,0.034763,-0.112938,-0.336853,-3.757506,0.362870,3.123615,10.623269,12.084814,0.003501,-0.032869,0.000000,-0.378328,0.032709,0.000000
0.990000,-2.037490,-1.752595,-1.500197,0.366626,1.054795,-0.005925,0.323066,-0.002273,-0.108700,-0.305072,-3.648999,0.485235,3.231937,11.076075,12.378641,-0.000229,-0.032560,0.000000,-0.367707,0.029133,0.000000
1.000000,-2.033808,-1.742048,-1.500261,0.369842,1.054591,-0.006985,0.320179,-0.038202,-0.103225,-0.272228,-3.536026,0.610246,3.336270,11.516475,12.613545,-0.003852,-0.032287,0.000000,-0.356747,0.025446,0.000000
1.010000,-2.030093,-1.731505,-1.500336,0.373031,1.054034,-0.007985,0.317625,-0.072982,-0.096484,-0.238407,-3.418940,0.737765,3.437873,11.950500,12.774880,-0.007363,-0.032051,0.000000,-0.345479,0.021655,0.000000
1.020000,-2.026347,-1.720969,-1.500421,0.376196,1.053136,-0.008911,0.315414,-0.106567,-0.088465,-0.203537,-3.297318,0.866058,3.535484,12.371866,12.872958,-0.010760,-0.031854,0.000000,-0.333854,0.017755,0.000000
1.030000,-2.022569,-1.710443,-1.500514,0.379341,1.051907,-0.009750,0.313557,-0.138914,-0.079160,-0.167711,-3.171547,0.995009,3.629027,12.780092,12.906332,-0.014039,-0.031697,0.000000,-0.321904,0.013754,0.000000
1.040000,-2.018760,-1.699932,-1.500615,0.382468,1.050362,-0.010490,0.312063,-0.169984,-0.068565,-0.130970,-3.041761,1.123964,3.718428,13.174695,12.873555,-0.017197,-0.031579,0.000000,-0.309632,0.009653,0.000000
1.050000,-2.014920,-1.689437,-1.500724,0.385583,1.048512,-0.011117,0.310941,-0.199737,-0.056683,-0.093356,-2.908100,1.252255,3.803613,13.555195,12.773180,-0.020231,-0.031504,0.000000,-0.297043,0.005456,0.000000
1.060000,-2.011049,-1.678962,-1.500837,0.388688,1.046372,-0.011619,0.310198,-0.228137,-0.043519,-0.054973,-2.770964,1.379748,3.886042,13.927634,12.589863,-0.023137,-0.031471,0.000000,-0.284166,0.001169,0.000000
1.070000,-2.007146,-1.668510,-1.500955,0.391788,1.043954,-0.011983,0.309844,-0.255144,-0.029095,-0.015719,-2.629891,1.504443,3.963917,14.284207,12.337756,-0.025913,-0.031481,0.000000,-0.270936,-0.003213,0.000000
1.080000,-2.003213,-1.658084,-1.501077,0.394887,1.041273,-0.012197,0.309886,-0.280723,-0.013439,0.024290,-2.485337,1.626274,4.036975,14.623636,12.017112,-0.028555,-0.031535,0.000000,-0.257387,-0.007684,-0.000000
1.090000,-1.999249,-1.647686,-1.501199,0.397987,1.038344,-0.012248,0.310332,-0.304840,0.003418,0.065004,-2.337480,1.744558,4.104956,14.944640,11.628187,-0.031060,-0.031635,0.000000,-0.243519,-0.012240,0.000000
1.100000,-1.995253,-1.637318,-1.501321,0.401095,1.035182,-0.012125,0.311188,-0.327462,0.021438,0.106371,-2.186510,1.858611,4.167595,15.245939,11.171236,-0.033424,-0.031780,0.000000,-0.229336,-0.016877,0.000000
1.110000,-1.991227,-1.626983,-1.501441,0.404213,1.031800,-0.011816,0.312461,-0.348562,0.040580,0.148285,-2.032825,1.968341,4.225945,15.531141,10.631756,-0.035646,-0.031973,0.000000,-0.214861,-0.021587,0.000000
1.120000,-1.987169,-1.616683,-1.501557,0.407345,1.028216,-0.011310,0.314156,-0.368109,0.060786,0.190811,-1.876182,2.071686,4.278269,15.793480,10.026565,-0.037720,-0.032213,0.000000,-0.200047,-0.026373,0.000000
1.130000,-1.983080,-1.606419,-1.501666,0.410497,1.024443,-0.010597,0.316279,-0.386077,0.081993,0.233829,-1.717037,2.168660,4.324141,16.031077,9.357725,-0.039645,-0.032501,0.000000,-0.184923,-0.031227,-0.000000
1.140000,-1.978959,-1.596194,-1.501768,0.413672,1.020499,-0.009667,0.318834,-0.402443,0.104135,0.277271,-1.555649,2.258635,4.363140,16.242053,8.627297,-0.041418,-0.032838,0.000000,-0.169496,-0.036142,0.000000
1.150000,-1.974806,-1.586010,-1.501859,0.416875,1.016400,-0.008511,0.321825,-0.417184,0.127140,0.321067,-1.392291,2.341007,4.394841,16.424529,7.837343,-0.043034,-0.033224,0.000000,-0.153777,-0.041110,0.000000
1.160000,-1.970621,-1.575867,-1.501937,0.420110,1.012161,-0.007122,0.325255,-0.430284,0.150934,0.365006,-1.227339,2.415745,4.422259,16.578640,6.975932,-0.044493,-0.033661,0.000000,-0.137787,-0.046113,0.000000
1.170000,-1.966404,-1.565767,-1.502000,0.423382,1.007800,-0.005490,0.329126,-0.441726,0.175426,0.409330,-1.060917,2.480972,4.441112,16.700248,6.060831,-0.045789,-0.034148,0.000000,-0.121515,-0.051169,0.000000
1.180000,-1.962153,-1.555711,-1.502046,0.426694,1.003332,-0.003611,0.333442,-0.451499,0.200522,0.453797,-0.893450,2.536795,4.450554,16.787229,5.095815,-0.046922,-0.034685,0.000000,-0.104993,-0.056254,0.000000
1.190000,-1.957870,-1.545701,-1.502072,0.430052,0.998775,-0.001478,0.338202,-0.459593,0.226128,0.498307,-0.725295,2.582734,4.449742,16.837457,4.084659,-0.047888,-0.035274,0.000000,-0.088240,-0.061357,-0.000000
1.200000,-1.953552,-1.535736,-1.502075,0.433460,0.994146,0.000913,0.343408,-0.466003,0.252143,0.542755,-0.556830,2.618347,4.437829,16.848807,3.031138,-0.048686,-0.035914,0.000000,-0.071284,-0.066464,0.000000
1.210000,-1.949200,-1.525818,-1.502053,0.436922,0.989461,0.003566,0.349061,-0.470726,0.278464,0.587367,-0.388162,2.643674,4.405296,16.811747,1.927770,-0.049313,-0.036605,0.000000,-0.054124,-0.071598,-0.000000
1.220000,-1.944814,-1.515947,-1.502003,0.440442,0.984737,0.006483,0.355154,-0.473769,0.304979,0.631209,-0.220405,2.657293,4.361036,16.732466,0.790965,-0.049768,-0.037347,0.000000,-0.036863,-0.076652,0.000000
1.230000,-1.940391,-1.506123,-1.501922,0.444026,0.979991,0.009665,0.361683,-0.475138,0.331572,0.674550,-0.053657,2.659399,4.305268,16.609747,-0.374123,-0.050050,-0.038140,0.000000,-0.019506,-0.081652,-0.000000
1.240000,-1.935933,-1.496347,-1.501809,0.447678,0.975240,0.013114,0.368643,-0.474847,0.358128,0.717277,0.111641,2.649734,4.238210,16.442372,-1.562342,-0.050158,-0.038982,0.000000,-0.002096,-0.086580,0.000000
1.250000,-1.931438,-1.486618,-1.501659,0.451401,0.970500,0.016827,0.376026,-0.472911,0.384527,0.759277,0.275037,2.628092,4.160080,16.229123,-2.768539,-0.050092,-0.039874,0.000000,0.015323,-0.091419,-0.000000
1.260000,-1.926905,-1.476937,-1.501471,0.455199,0.965787,0.020803,0.383825,-0.469351,0.410652,0.800404,0.436336,2.594567,4.072063,15.961978,-3.993775,-0.049851,-0.040813,0.000000,0.032726,-0.096147,0.000000
1.270000,-1.922333,-1.467302,-1.501242,0.459078,0.961118,0.025039,0.392031,-0.464194,0.436377,0.840639,0.594422,2.548471,3.973291,15.647356,-5.225921,-0.049438,-0.041798,0.000000,0.049993,-0.100752,-0.000000
1.280000,-1.917723,-1.457714,-1.500969,0.463041,0.956508,0.029529,0.400634,-0.457474,0.461580,0.879834,0.749123,2.490045,3.863865,15.284874,-6.459062,-0.048852,-0.042830,0.000000,0.067098,-0.105212,-0.000000
1.290000,-1.913072,-1.448172,-1.500651,0.467092,0.951973,0.034268,0.409624,-0.449225,0.486137,0.917881,0.899959,2.419306,3.743884,14.874146,-7.687283,-0.048097,-0.043905,0.000000,0.083977,-0.109505,0.000000
1.300000,-1.908381,-1.438675,-1.500283,0.471235,0.947529,0.039249,0.418988,-0.439489,0.509925,0.954677,1.046444,2.336335,3.613447,14.414789,-8.904670,-0.047174,-0.045022,0.000000,0.100564,-0.113613,0.000000
1.310000,-1.903647,-1.429221,-1.499865,0.475473,0.943188,0.044464,0.428710,-0.428308,0.532823,0.989836,1.188511,2.241250,3.479735,13.895815,-10.104841,-0.046086,-0.046178,0.000000,0.116835,-0.117484,0.000000
1.320000,-1.898871,-1.419810,-1.499393,0.479811,0.938967,0.049903,0.438780,-0.415737,0.554711,1.023918,1.324674,2.134293,3.334899,13.328740,-11.282405,-0.044838,-0.047373,0.000000,0.132610,-0.121169,0.000000
1.330000,-1.894051,-1.410441,-1.498866,0.484250,0.934878,0.055554,0.449183,-0.401834,0.575470,1.056494,1.454929,2.015697,3.178173,12.714479,-12.431506,-0.043436,-0.048603,0.000000,0.147864,-0.124612,-0.000000
1.340000,-1.889185,-1.401112,-1.498281,0.488795,0.930935,0.061408,0.459904,-0.386660,0.594987,1.087440,1.578809,1.885777,3.008788,12.053944,-13.546286,-0.041883,-0.049867,0.000000,0.162523,-0.127790,-0.000000
1.350000,-1.884274,-1.391822,-1.497637,0.493449,0.927149,0.067450,0.470926,-0.370280,0.613149,1.116625,1.695856,1.744905,2.825977,11.348050,-14.620888,-0.040187,-0.051160,0.000000,0.176509,-0.130680,-0.000000
1.360000,-1.879316,-1.382569,-1.496932,0.498215,0.923533,0.073666,0.482236,-0.352759,0.629846,1.144439,1.806356,1.593194,2.615653,10.579154,-15.641400,-0.038355,-0.052482,0.000000,0.189826,-0.133315,0.000000
1.370000,-1.874310,-1.373351,-1.496164,0.503095,0.920097,0.080041,0.493808,-0.334180,0.644980,1.169488,1.908130,1.431887,2.391999,9.768998,-16.611006,-0.036394,-0.053828,0.000000,0.202205,-0.135538,0.000000
1.380000,-1.869254,-1.364166,-1.495331,0.508092,0.916852,0.086560,0.505618,-0.314624,0.658453,1.192238,2.001609,1.261160,2.155879,8.920769,-17.524834,-0.034313,-0.055193,0.000000,0.213664,-0.137390,0.000000
1.390000,-1.864147,-1.355013,-1.494432,0.513208,0.913808,0.093205,0.517644,-0.294176,0.670174,1.212567,2.086429,1.081593,1.908156,8.037652,-18.378014,-0.032124,-0.056576,0.000000,0.224132,-0.138853,-0.000000
1.400000,-1.858989,-1.345889,-1.493466,0.518445,0.910971,0.099957,0.529861,-0.272925,0.680057,1.230365,2.162257,0.893818,1.649695,7.122833,-19.165675,-0.029834,-0.057971,0.000000,0.233546,-0.139909,0.000000
1.410000,-1.853778,-1.336793,-1.492432,0.523805,0.908351,0.106800,0.542245,-0.250958,0.688018,1.245693,2.229166,0.697924,1.377204,6.170027,-19.868029,-0.027456,-0.059374,0.000000,0.241888,-0.140558,0.000000
1.420000,-1.848513,-1.327722,-1.491330,0.529290,0.905954,0.113711,0.554766,-0.228374,0.693993,1.258066,2.286000,0.496036,1.096209,5.193050,-20.496949,-0.025001,-0.060781,0.000000,0.249002,-0.140752,0.000000
1.430000,-1.843192,-1.318673,-1.490158,0.534901,0.903786,0.120673,0.567397,-0.205271,0.697919,1.267593,2.332961,0.288239,0.808084,4.196249,-21.049390,-0.022480,-0.062188,0.000000,0.254891,-0.140501,-0.000000
1.440000,-1.837814,-1.309645,-1.488916,0.540639,0.901850,0.127663,0.580108,-0.181748,0.699741,1.274209,2.369873,0.075313,0.514202,3.183969,-21.522307,-0.019907,-0.063590,0.000000,0.259516,-0.139797,0.000000
1.450000,-1.832379,-1.300635,-1.487605,0.546503,0.900152,0.134660,0.592871,-0.157907,0.699411,1.277862,2.396603,-0.141931,0.215934,2.160555,-21.912656,-0.017294,-0.064983,0.000000,0.262849,-0.138640,-0.000000
1.460000,-1.826884,-1.291641,-1.486223,0.552496,0.898693,0.141644,0.605654,-0.133849,0.696883,1.278398,2.413177,-0.363403,-0.082344,1.127441,-22.198480,-0.014654,-0.066362,0.000000,0.264881,-0.137011,0.000000
1.470000,-1.821328,-1.282661,-1.484772,0.558617,0.897475,0.148591,0.618429,-0.109678,0.692135,1.276075,2.419275,-0.586458,-0.382629,0.092242,-22.397962,-0.012001,-0.067722,0.000000,0.265569,-0.134960,-0.000000
1.480000,-1.815711,-1.273691,-1.483252,0.564865,0.896499,0.155479,0.631165,-0.085498,0.685148,1.270742,2.415030,-0.811072,-0.683918,-0.940339,-22.510374,-0.009347,-0.069060,0.000000,0.264928,-0.132474,0.000000
1.490000,-1.810031,-1.264730,-1.481663,0.571240,0.895765,0.162286,0.643834,-0.061412,0.675911,1.262396,2.400493,-1.036372,-0.985207,-1.965601,-22.534987,-0.006707,-0.070371,0.000000,0.262966,-0.129563,0.000000
1.500000,-1.804286,-1.255775,-1.480006,0.577741,0.895270,0.168990,0.656403,-0.037522,0.664422,1.251042,2.375758,-1.261477,-1.285489,-2.978840,-22.471073,-0.004092,-0.071650,0.000000,0.259702,-0.126241,0.000000
1.510000,-1.798475,-1.246824,-1.478283,0.584367,0.895013,0.175567,0.668845,-0.013932,0.650677,1.236697,2.340856,-1.486263,-1.583848,-3.972428,-22.298530,-0.001517,-0.072894,0.000000,0.255151,-0.122518,0.000000
1.520000,-1.792598,-1.237874,-1.476495,0.591117,0.894990,0.181996,0.681127,0.009262,0.634704,1.219379,2.296250,-1.708020,-1.879180,-4.944947,-22.038374,0.001007,-0.074099,0.000000,0.249381,-0.118426,0.000000
1.530000,-1.786653,-1.228923,-1.474644,0.597989,0.895197,0.188254,0.693222,0.031961,0.616527,1.199127,2.242042,-1.926744,-2.170472,-5.892053,-21.692248,0.003467,-0.075261,0.000000,0.242424,-0.113981,0.000000
1.540000,-1.780638,-1.219969,-1.472731,0.604981,0.895628,0.194320,0.705100,0.054072,0.596182,1.175986,2.178508,-2.141584,-2.456709,-6.809402,-21.261796,0.005851,-0.076378,0.000000,0.234333,-0.109204,0.000000
1.550000,-1.774553,-1.211010,-1.470758,0.612090,0.896276,0.200171,0.716733,0.075501,0.573711,1.150013,2.105967,-2.351704,-2.736874,-7.692650,-20.748660,0.008150,-0.077444,0.000000,0.225171,-0.104122,-0.000000
1.560000,-1.768396,-1.202043,-1.468728,0.619315,0.897135,0.205787,0.728090,0.096158,0.549159,1.121195,2.024396,-2.556932,-3.008003,-8.527677,-20.138196,0.010351,-0.078459,0.000000,0.214964,-0.098745,-0.000000
1.570000,-1.762166,-1.193067,-1.466643,0.626651,0.898196,0.211147,0.739148,0.115962,0.522594,1.089792,1.935116,-2.754938,-3.271270,-9.321111,-19.450329,0.012446,-0.079419,0.000000,0.203886,-0.093136,0.000000
1.580000,-1.755862,-1.184078,-1.464506,0.634097,0.899451,0.216232,0.749878,0.134835,0.494084,1.055798,1.838123,-2.945693,-3.525899,-10.069806,-18.688698,0.014426,-0.080321,0.000000,0.191971,-0.087306,0.000000
1.590000,-1.749484,-1.175077,-1.462320,0.641648,0.900890,0.221023,0.760255,0.152700,0.463707,1.019305,1.733879,-3.128478,-3.771112,-10.770614,-17.856940,0.016283,-0.081164,0.000000,0.179298,-0.081283,0.000000
1.600000,-1.743029,-1.166060,-1.460087,0.649300,0.902502,0.225501,0.770256,0.169490,0.431544,0.980410,1.622881,-3.302610,-4.006134,-11.420387,-16.958693,0.018010,-0.081946,0.000000,0.165955,-0.075098,-0.000000
1.610000,-1.736497,-1.157026,-1.457811,0.657051,0.904276,0.229648,0.779854,0.185131,0.397681,0.939097,1.505091,-3.467860,-4.227099,-12.001810,-15.987029,0.019599,-0.082666,0.000000,0.151968,-0.068761,0.000000
1.620000,-1.729888,-1.147974,-1.455495,0.664896,0.906201,0.233449,0.789031,0.199573,0.362220,0.895768,1.382397,-3.622629,-4.436698,-12.527639,-14.957445,0.021047,-0.083322,0.000000,0.137570,-0.062341,0.000000
1.630000,-1.723199,-1.138902,-1.453143,0.672831,0.908263,0.236888,0.797763,0.212763,0.325264,0.850402,1.254728,-3.766833,-4.634534,-12.996463,-13.874873,0.022349,-0.083913,0.000000,0.122780,-0.055847,-0.000000
1.640000,-1.716431,-1.129808,-1.450759,0.680850,0.910451,0.239950,0.806032,0.224653,0.286920,0.803118,1.122663,-3.899966,-4.820207,-13.406868,-12.744245,0.023502,-0.084439,0.000000,0.107684,-0.049305,0.000000
1.650000,-1.709582,-1.120692,-1.448345,0.688950,0.912752,0.242622,0.813819,0.235203,0.247303,0.754040,0.986791,-4.021574,-4.993321,-13.757444,-11.570493,0.024502,-0.084899,0.000000,0.092369,-0.042740,0.000000
1.660000,-1.702652,-1.111553,-1.445907,0.697125,0.915151,0.244892,0.821106,0.244371,0.206527,0.703158,0.847107,-4.131395,-5.150026,-14.031351,-10.354856,0.025348,-0.085293,0.000000,0.076853,-0.036161,0.000000
1.670000,-1.695639,-1.102389,-1.443449,0.705370,0.917635,0.246749,0.827878,0.252137,0.164716,0.650928,0.705677,-4.228726,-5.293797,-14.244493,-9.106410,0.026039,-0.085623,0.000000,0.061368,-0.029627,0.000000
1.680000,-1.688544,-1.093200,-1.440974,0.713680,0.920189,0.248183,0.834120,0.258479,0.121994,0.597325,0.562418,-4.313432,-5.424659,-14.397346,-7.830540,0.026576,-0.085886,0.000000,0.045918,-0.023142,0.000000
1.690000,-1.681365,-1.083985,-1.438487,0.722051,0.922800,0.249186,0.839820,0.263381,0.078490,0.542478,0.417930,-4.385264,-5.542638,-14.490388,-6.532628,0.026958,-0.086086,0.000000,0.030575,-0.016725,0.000000
1.700000,-1.674103,-1.074744,-1.435992,0.730475,0.925452,0.249751,0.844966,0.266835,0.034333,0.486515,0.272808,-4.444029,-5.647757,-14.524096,-5.218058,0.027188,-0.086221,0.000000,0.015405,-0.010393,0.000000
1.710000,-1.666756,-1.065476,-1.433493,0.738948,0.928132,0.249871,0.849546,0.268832,-0.010345,0.429445,0.127108,-4.489478,-5.736996,-14.485405,-3.894973,0.027266,-0.086294,0.000000,0.000417,-0.004149,0.000000
1.720000,-1.659324,-1.056181,-1.430996,0.747464,0.930824,0.249543,0.853552,0.269380,-0.055413,0.371681,-0.017315,-4.521784,-5.813797,-14.389992,-2.565661,0.027197,-0.086305,0.000000,-0.014202,0.001965,-0.000000
1.730000,-1.651806,-1.046860,-1.428504,0.756017,0.933514,0.248762,0.856977,0.268489,-0.100737,0.313209,-0.160510,-4.540787,-5.878560,-14.239990,-1.235167,0.026983,-0.086255,0.000000,-0.028462,0.007952,-0.000000
1.740000,-1.644203,-1.037511,-1.426022,0.764602,0.936189,0.247527,0.859814,0.266175,-0.146184,0.254148,-0.301940,-4.546501,-5.931681,-14.037537,0.091463,0.026629,-0.086146,0.000000,-0.042316,0.013802,0.000000
1.750000,-1.636514,-1.028136,-1.423555,0.773212,0.938833,0.245838,0.862058,0.262458,-0.191622,0.194613,-0.441093,-4.538988,-5.973558,-13.784765,1.409182,0.026139,-0.085979,0.000000,-0.055722,0.019506,0.000000
1.760000,-1.628739,-1.018735,-1.421107,0.781841,0.941434,0.243695,0.863704,0.257359,-0.236917,0.134633,-0.577841,-4.518064,-6.002569,-13.474569,2.705376,0.025516,-0.085756,0.000000,-0.068680,0.025065,0.000000
1.770000,-1.620877,-1.009307,-1.418682,0.790484,0.943976,0.241101,0.864750,0.250913,-0.281941,0.074505,-0.710847,-4.484603,-6.021379,-13.119457,3.983494,0.024767,-0.085478,0.000000,-0.081074,0.030461,0.000000
1.780000,-1.612929,-0.999855,-1.416286,0.799134,0.946447,0.238058,0.865194,0.243155,-0.326567,0.014238,-0.840091,-4.438468,-6.030633,-12.722694,5.239417,0.023896,-0.085147,0.000000,-0.092917,0.035699,0.000000
1.790000,-1.604895,-0.990379,-1.413923,0.807785,0.948835,0.234571,0.865035,0.234125,-0.370669,-0.046078,-0.965173,-4.379902,-6.030977,-12.287549,6.469026,0.022910,-0.084765,0.000000,-0.104188,0.040776,0.000000
1.800000,-1.596774,-0.980879,-1.411596,0.816433,0.951126,0.230647,0.864273,0.223866,-0.414124,-0.106354,-1.085725,-4.309189,-6.023054,-11.817286,7.668200,0.021815,-0.084332,0.000000,-0.114872,0.045693,0.000000
1.810000,-1.588566,-0.971357,-1.409311,0.825069,0.953308,0.226291,0.862908,0.212425,-0.456809,-0.166538,-1.201560,-4.226251,-6.006873,-11.311458,8.822660,0.020615,-0.083851,0.000000,-0.124969,0.050452,0.000000
1.820000,-1.580272,-0.961813,-1.407072,0.833689,0.955371,0.221513,0.860942,0.199852,-0.498611,-0.226497,-1.312026,-4.132407,-5.983795,-10.777500,9.939692,0.019317,-0.083323,0.000000,-0.134439,0.055057,0.000000
1.830000,-1.571892,-0.952250,-1.404882,0.842286,0.957302,0.216322,0.858379,0.186202,-0.539420,-0.286194,-1.417028,-4.027591,-5.954542,-10.219136,11.016420,0.017928,-0.082750,0.000000,-0.143293,0.059511,-0.000000
1.840000,-1.563427,-0.942668,-1.402747,0.850854,0.959091,0.210729,0.855220,0.171531,-0.579128,-0.345570,-1.516340,-3.912222,-5.919837,-9.640085,12.049971,0.016453,-0.082134,0.000000,-0.151531,0.063820,0.000000
1.850000,-1.554875,-0.933068,-1.400669,0.859388,0.960729,0.204744,0.851469,0.155895,-0.617631,-0.404575,-1.609773,-3.786746,-5.880403,-9.044069,13.037468,0.014900,-0.081474,0.000000,-0.159157,0.067990,-0.000000
1.860000,-1.546239,-0.923453,-1.398653,0.867882,0.962206,0.198380,0.847130,0.139356,-0.654826,-0.463133,-1.697107,-3.651215,-5.837758,-8.436579,13.965406,0.013272,-0.080774,0.000000,-0.166168,0.072022,0.000000
1.870000,-1.537518,-0.913825,-1.396703,0.876329,0.963513,0.191652,0.842207,0.121973,-0.690625,-0.521283,-1.778394,-3.507131,-5.791733,-7.819350,14.842843,0.011578,-0.080034,0.000000,-0.172592,0.075937,0.000000
1.880000,-1.528713,-0.904184,-1.394821,0.884724,0.964643,0.184573,0.836706,0.103809,-0.724940,-0.578959,-1.853474,-3.354532,-5.742954,-7.195889,15.668205,0.009823,-0.079256,0.000000,-0.178432,0.079739,0.000000
1.890000,-1.519824,-0.894533,-1.393012,0.893061,0.965587,0.177158,0.830630,0.084925,-0.757689,-0.636135,-1.922302,-3.193946,-5.692045,-6.569698,16.439919,0.008011,-0.078440,0.000000,-0.183701,0.083434,0.000000
1.900000,-1.510852,-0.884873,-1.391279,0.901335,0.966339,0.169424,0.823985,0.065384,-0.788795,-0.692794,-1.984870,-3.025918,-5.639634,-5.944284,17.156413,0.006150,-0.077587,0.000000,-0.188417,0.087033,0.000000
1.910000,-1.501797,-0.875206,-1.389625,0.909539,0.966893,0.161388,0.816777,0.045251,-0.818181,-0.748846,-2.040958,-2.850629,-5.588342,-5.329330,17.806555,0.004245,-0.076699,0.000000,-0.192574,0.090535,0.000000
1.920000,-1.492661,-0.865536,-1.388052,0.917668,0.967242,0.153066,0.809010,0.024585,-0.845786,-0.804470,-2.091204,-2.669550,-5.536554,-4.721406,18.399500,0.002301,-0.075777,0.000000,-0.196246,0.093975,-0.000000
1.930000,-1.483444,-0.855862,-1.386564,0.925717,0.967383,0.144478,0.800689,0.003447,-0.871553,-0.859576,-2.135418,-2.482831,-5.484651,-4.123260,18.934846,0.000322,-0.074820,0.000000,-0.199430,0.097350,-0.000000
1.940000,-1.474147,-0.846189,-1.385164,0.933680,0.967310,0.135642,0.791820,-0.018104,-0.895426,-0.914164,-2.173711,-2.291047,-5.433013,-3.537640,19.412190,-0.001686,-0.073830,0.000000,-0.202146,0.100671,0.000000
1.950000,-1.464771,-0.836517,-1.383852,0.941552,0.967020,0.126576,0.782407,-0.040008,-0.917359,-0.968239,-2.206222,-2.094781,-5.382022,-2.967296,19.831129,-0.003720,-0.072807,0.000000,-0.204417,0.103948,-0.000000
1.960000,-1.455316,-0.826849,-1.382633,0.949327,0.966509,0.117301,0.772456,-0.062205,-0.937305,-1.021882,-2.232673,-1.894315,-5.330199,-2.426190,20.183549,-0.005773,-0.071751,0.000000,-0.206228,0.107196,-0.000000
1.970000,-1.445785,-0.817187,-1.381507,0.956999,0.965775,0.107837,0.761971,-0.084644,-0.955234,-1.074931,-2.254310,-1.690960,-5.280012,-1.904482,20.477703,-0.007843,-0.070663,0.000000,-0.207700,0.110413,-0.000000
1.980000,-1.436177,-0.807534,-1.380477,0.964564,0.964815,0.098203,0.750959,-0.107274,-0.971116,-1.127490,-2.270832,-1.484953,-5.232072,-1.403549,20.714133,-0.009926,-0.069543,0.000000,-0.208812,0.113617,0.000000
1.990000,-1.426494,-0.797892,-1.379543,0.972017,0.963629,0.088421,0.739423,-0.130044,-0.984926,-1.179582,-2.282455,-1.276868,-5.186985,-0.924765,20.893380,-0.012018,-0.068390,0.000000,-0.209588,0.116817,0.000000
2.000000,-1.416737,-0.788262,-1.378709,0.979351,0.962214,0.078512,0.727369,-0.152907,-0.996648,-1.231241,-2.289406,-1.067275,-5.145363,-0.469507,21.015984,-0.014116,-0.067206,0.000000,-0.210051,0.120025,0.000000
2.010000,-1.406907,-0.778648,-1.377973,0.986562,0.960570,0.068495,0.714807,-0.175816,-1.006266,-1.281801,-2.291757,-0.856505,-5.125555,-0.043466,21.076659,-0.016218,-0.065990,0.000000,-0.210212,0.123186,0.000000
2.020000,-1.397006,-0.769052,-1.377339,0.993645,0.958698,0.058393,0.701733,-0.198729,-1.013777,-1.332968,-2.290168,-0.645664,-5.108256,0.356828,21.082489,-0.018320,-0.064742,0.000000,-0.210130,0.126466,-0.000000
2.030000,-1.387035,-0.759475,-1.376806,1.000595,0.956596,0.048227,0.688148,-0.221606,-1.019180,-1.383969,-2.284709,-0.435034,-5.091902,0.730528,21.034729,-0.020420,-0.063460,0.000000,-0.209813,0.129801,0.000000
2.040000,-1.376994,-0.749921,-1.376375,1.007406,0.954266,0.038017,0.674054,-0.244411,-1.022480,-1.434804,-2.275649,-0.225144,-5.074928,1.076788,20.934634,-0.022515,-0.062145,0.000000,-0.209283,0.133198,0.000000
2.050000,-1.366887,-0.740391,-1.376046,1.014074,0.951708,0.027784,0.659453,-0.267108,-1.023687,-1.485460,-2.263268,-0.016511,-5.055773,1.394762,20.783461,-0.024605,-0.060796,0.000000,-0.208565,0.136660,0.000000
2.060000,-1.356713,-0.730887,-1.375819,1.020594,0.948924,0.017550,0.644341,-0.289660,-1.022815,-1.536353,-2.247341,0.190519,-5.021606,1.670728,20.578436,-0.026686,-0.059410,0.000000,-0.207635,0.140232,-0.000000
2.070000,-1.346476,-0.721413,-1.375694,1.026960,0.945915,0.007335,0.628727,-0.312046,-1.019885,-1.586382,-2.229373,0.395077,-4.983508,1.918290,20.325335,-0.028757,-0.057990,0.000000,-0.206626,0.143820,0.000000
2.080000,-1.336175,-0.711970,-1.375672,1.033167,0.942684,-0.002841,0.612615,-0.334240,-1.014922,-1.636010,-2.209068,0.596871,-4.941295,2.138179,20.025908,-0.030818,-0.056533,0.000000,-0.205508,0.147471,0.000000
2.090000,-1.325813,-0.702560,-1.375751,1.039210,0.939231,-0.012957,0.596008,-0.356221,-1.007958,-1.685194,-2.186699,0.795447,-4.894782,2.331124,19.681903,-0.032867,-0.055039,0.000000,-0.204301,0.151185,0.000000
2.100000,-1.315391,-0.693186,-1.375931,1.045085,0.935560,-0.022994,0.578913,-0.377968,-0.999026,-1.733890,-2.162533,0.990366,-4.843785,2.497854,19.295069,-0.034904,-0.053507,0.000000,-0.203023,0.154965,0.000000
2.110000,-1.304912,-0.683849,-1.376211,1.050787,0.931673,-0.032931,0.561332,-0.399462,-0.988163,-1.782134,-2.136476,1.181327,-4.786091,2.630239,18.864219,-0.036927,-0.051937,0.000000,-0.201660,0.158816,0.000000
2.120000,-1.294376,-0.674553,-1.376589,1.056310,0.927572,-0.042751,0.543272,-0.420694,-0.975414,-1.829687,-2.109611,1.367652,-4.723792,2.738955,18.394395,-0.038937,-0.050328,0.000000,-0.200306,0.162721,-0.000000
2.130000,-1.283786,-0.665299,-1.377065,1.061651,0.923260,-0.052433,0.524740,-0.441651,-0.960826,-1.876595,-2.081770,1.549092,-4.656953,2.825815,17.887707,-0.040933,-0.048680,0.000000,-0.198939,0.166687,0.000000
2.140000,-1.273144,-0.656088,-1.377637,1.066804,0.918739,-0.061961,0.505742,-0.462326,-0.944450,-1.922811,-2.053162,1.725290,-4.585636,2.892636,17.346262,-0.042915,-0.046992,0.000000,-0.197572,0.170713,-0.000000
2.150000,-1.262451,-0.646925,-1.378304,1.071764,0.914014,-0.071317,0.486286,-0.482713,-0.926339,-1.968293,-2.023978,1.895909,-4.509907,2.941231,16.772168,-0.044884,-0.045263,0.000000,-0.196215,0.174797,0.000000
2.160000,-1.251709,-0.637809,-1.379063,1.076527,0.909086,-0.080482,0.466394,-0.502808,-0.906550,-2.011657,-1.994671,2.060702,-4.463628,2.980458,16.165747,-0.046840,-0.043493,0.000000,-0.194904,0.178811,0.000000
2.170000,-1.240921,-0.628743,-1.379913,1.081090,0.903959,-0.089442,0.446055,-0.522605,-0.885146,-2.056028,-1.964735,2.219209,-4.408926,3.004228,15.531112,-0.048783,-0.041682,0.000000,-0.193586,0.183049,0.000000
2.180000,-1.230088,-0.619730,-1.380851,1.085447,0.898635,-0.098180,0.425275,-0.542102,-0.862188,-2.099794,-1.934634,2.371238,-4.341725,3.013492,14.870589,-0.050712,-0.039828,0.000000,-0.192296,0.187361,0.000000
2.190000,-1.219212,-0.610771,-1.381876,1.089594,0.893118,-0.106681,0.404061,-0.561298,-0.837743,-2.142808,-1.904510,2.516543,-4.257950,3.009202,14.186504,-0.052629,-0.037930,0.000000,-0.191040,0.191734,0.000000
2.200000,-1.208297,-0.601869,-1.382984,1.093527,0.887410,-0.114930,0.382422,-0.580192,-0.811880,-2.184884,-1.874492,2.654898,-4.153526,2.992313,13.481185,-0.054533,-0.035988,0.000000,-0.189825,0.196151,0.000000
2.210000,-1.197343,-0.593024,-1.384173,1.097242,0.881515,-0.122914,0.360335,-0.598786,-0.784669,-2.228784,-1.844470,2.786119,-3.948909,2.957900,12.756565,-0.056425,-0.033998,0.000000,-0.188632,0.200871,0.000000
2.220000,-1.186353,-0.584239,-1.385441,1.100733,0.875435,-0.130619,0.337853,-0.617083,-0.756182,-2.267166,-1.815105,2.909991,-3.724736,2.913510,12.015412,-0.058306,-0.031964,0.000000,-0.187517,0.205203,0.000000
2.230000,-1.175329,-0.575516,-1.386785,1.103998,0.869174,-0.138034,0.314999,-0.635089,-0.726494,-2.303230,-1.786228,3.026380,-3.486171,2.860817,11.260101,-0.060176,-0.029887,0.000000,-0.186458,0.209441,0.000000
2.240000,-1.164273,-0.566856,-1.388201,1.107032,0.862735,-0.145146,0.291797,-0.652810,-0.695680,-2.336859,-1.757911,3.135154,-3.238380,2.801491,10.493005,-0.062035,-0.027768,0.000000,-0.185455,0.213572,-0.000000
2.250000,-1.153189,-0.558262,-1.389687,1.109833,0.856119,-0.151944,0.268271,-0.670250,-0.663817,-2.367984,-1.730214,3.236209,-2.986531,2.737204,9.716501,-0.063885,-0.025608,0.000000,-0.184508,0.217584,0.000000
2.260000,-1.142078,-0.549734,-1.391239,1.112396,0.849330,-0.158419,0.244477,-0.687414,-0.630983,-2.393699,-1.702988,3.329389,-2.808883,2.664822,8.934774,-0.065725,-0.023411,0.000000,-0.183596,0.221193,0.000000
2.270000,-1.130942,-0.541276,-1.392854,1.114720,0.842372,-0.164561,0.220403,-0.704312,-0.597255,-2.420890,-1.676707,3.414807,-2.628558,2.591411,8.148166,-0.067557,-0.021175,0.000000,-0.182760,0.225051,0.000000
2.280000,-1.119784,-0.532887,-1.394529,1.116803,0.835245,-0.170361,0.196065,-0.720951,-0.562713,-2.446249,-1.651155,3.492343,-2.441772,2.519233,7.358830,-0.069381,-0.018900,0.000000,-0.181974,0.228837,0.000000
2.290000,-1.108606,-0.524571,-1.396260,1.118641,0.827953,-0.175812,0.171484,-0.737337,-0.527435,-2.469691,-1.626310,3.561982,-2.244740,2.450548,6.568917,-0.071197,-0.016587,0.000000,-0.181229,0.232537,0.000000
2.300000,-1.097412,-0.516329,-1.398044,1.120232,0.820499,-0.180908,0.146678,-0.753479,-0.491499,-2.491097,-1.602125,3.623727,-2.033679,2.387618,5.780582,-0.073005,-0.014238,0.000000,-0.180515,0.236132,-0.000000
2.310000,-1.086203,-0.508162,-1.399877,1.121574,0.812885,-0.185640,0.121670,-0.769387,-0.454988,-2.510285,-1.579002,3.677461,-1.805326,2.344597,4.999641,-0.074807,-0.011852,0.000000,-0.179866,0.239596,0.000000
2.320000,-1.074981,-0.500072,-1.401755,1.122665,0.805112,-0.190006,0.096481,-0.785060,-0.417976,-2.527108,-1.555735,3.723574,-1.555310,2.310396,4.224134,-0.076603,-0.009433,0.000000,-0.179162,0.242908,0.000000
2.330000,-1.063750,-0.492060,-1.403676,1.123503,0.797184,-0.193999,0.071136,-0.800503,-0.380542,-2.541306,-1.532762,3.761967,-1.279786,2.285817,3.455765,-0.078391,-0.006980,0.000000,-0.178439,0.246032,0.000000
2.340000,-1.052512,-0.484128,-1.405634,1.124087,0.789103,-0.197615,0.045664,-0.815716,-0.342762,-2.552606,-1.509984,3.792719,-0.974904,2.271664,2.696239,-0.080171,-0.004498,0.000000,-0.177682,0.248932,0.000000
2.350000,-1.041269,-0.476278,-1.407627,1.124416,0.780871,-0.200853,0.020095,-0.830703,-0.304713,-2.560694,-1.487291,3.815927,-0.636817,2.268743,1.947259,-0.081944,-0.001987,0.000000,-0.176874,0.251568,0.000000
2.360000,-1.030025,-0.468512,-1.409650,1.124490,0.772490,-0.203709,-0.005574,-0.845466,-0.266470,-2.568514,-1.464940,3.831546,-0.178444,2.287223,1.214535,-0.083709,0.000553,0.000000,-0.176036,0.254219,0.000000
2.370000,-1.018780,-0.460829,-1.411700,1.124305,0.763962,-0.206182,-0.031260,-0.860001,-0.228106,-2.567876,-1.441926,3.840084,0.310637,2.317395,0.495276,-0.085464,0.003114,0.000000,-0.175065,0.256064,-0.000000
2.380000,-1.007539,-0.453233,-1.413772,1.123864,0.755291,-0.208271,-0.056914,-0.874303,-0.189692,-2.562220,-1.418554,3.841501,0.824085,2.358915,-0.209305,-0.087210,0.005692,0.000000,-0.173987,0.257426,0.000000
2.390000,-0.996304,-0.445724,-1.415864,1.123167,0.746477,-0.209976,-0.082487,-0.888370,-0.151299,-2.551334,-1.394711,3.835951,1.355554,2.411442,-0.897994,-0.088944,0.008281,0.000000,-0.172784,0.258271,-0.000000
2.400000,-0.985077,-0.438304,-1.417971,1.122215,0.737524,-0.211297,-0.107923,-0.902196,-0.112996,-2.535070,-1.370290,3.823598,1.898702,2.474632,-1.569578,-0.090665,0.010876,0.000000,-0.171442,0.258568,0.000000
2.410000,-0.973861,-0.430974,-1.420089,1.121009,0.728434,-0.212236,-0.133147,-0.915773,-0.074852,-2.511275,-1.345173,3.804427,2.394965,2.547860,-2.217969,-0.092372,0.013469,0.000000,-0.169943,0.258085,0.000000
2.420000,-0.962657,-0.423735,-1.422214,1.119552,0.719209,-0.212795,-0.158132,-0.929096,-0.036929,-2.484821,-1.319286,3.779084,2.896613,2.631100,-2.847424,-0.094063,0.016058,0.000000,-0.168280,0.257299,0.000000
2.430000,-0.951470,-0.416590,-1.424343,1.117847,0.709853,-0.212976,-0.182827,-0.942156,0.000709,-2.453324,-1.292519,3.747544,3.403697,2.724043,-3.457326,-0.095737,0.018636,0.000000,-0.166434,0.255956,0.000000
2.440000,-0.940301,-0.409539,-1.426472,1.115897,0.700367,-0.212782,-0.207181,-0.954944,0.038002,-2.416729,-1.264774,3.710005,3.916267,2.826381,-4.047056,-0.097391,0.021198,0.000000,-0.164394,0.254037,-0.000000
2.450000,-0.929153,-0.402583,-1.428598,1.113705,0.690755,-0.212217,-0.231144,-0.967448,0.074890,-2.374981,-1.235961,3.666672,4.434373,2.937806,-4.615998,-0.099024,0.023739,0.000000,-0.162146,0.251522,0.000000
2.460000,-0.918028,-0.395724,-1.430715,1.111276,0.681019,-0.211285,-0.254670,-0.979658,0.111315,-2.328554,-1.205940,3.617547,4.971484,3.056761,-5.158237,-0.100634,0.026252,0.000000,-0.159670,0.248448,0.000000
2.470000,-0.906928,-0.388963,-1.432822,1.108613,0.671163,-0.209992,-0.277697,-0.991563,0.147223,-2.276137,-1.174741,3.563342,5.512589,3.184339,-5.679101,-0.102217,0.028731,0.000000,-0.156973,0.244668,-0.000000
2.480000,-0.895857,-0.382301,-1.434914,1.105724,0.661189,-0.208343,-0.300174,-1.003149,0.182565,-2.218294,-1.142225,3.504036,6.056095,3.320383,-6.178624,-0.103772,0.031169,0.000000,-0.154035,0.240228,0.000000
2.490000,-0.884815,-0.375740,-1.436988,1.102612,0.651101,-0.206343,-0.322045,-1.014403,0.217288,-2.155012,-1.108306,3.439841,6.600411,3.464738,-6.656838,-0.105297,0.033559,0.000000,-0.150846,0.235114,0.000000
2.500000,-0.873805,-0.369280,-1.439040,1.099285,0.640902,-0.203999,-0.343256,-1.025310,0.251346,-2.086289,-1.072903,3.370970,7.143944,3.617247,-7.113772,-0.106788,0.035895,0.000000,-0.147394,0.229315,0.000000
2.510000,-0.862830,-0.362922,-1.441067,1.095749,0.630596,-0.201318,-0.363754,-1.035858,0.284691,-2.012277,-1.036165,3.297474,7.688525,3.783581,-7.545376,-0.108244,0.038170,0.000000,-0.143693,0.222837,0.000000
2.520000,-0.851891,-0.356668,-1.443065,1.092012,0.620186,-0.198308,-0.383484,-1.046028,0.317281,-1.932686,-0.997467,3.219949,8.228719,3.957044,-7.956265,-0.109661,0.040376,0.000000,-0.139680,0.215642,-0.000000
2.530000,-0.840990,-0.350519,-1.445032,1.088082,0.609677,-0.194975,-0.402390,-1.055801,0.349076,-1.847724,-0.957003,3.138416,8.762512,4.136768,-8.346971,-0.111037,0.042506,0.000000,-0.135373,0.207744,0.000000
2.540000,-0.830130,-0.344475,-1.446963,1.083968,0.599072,-0.191329,-0.420421,-1.065162,0.380037,-1.757464,-0.914714,3.053075,9.287895,4.321882,-8.718026,-0.112368,0.044554,0.000000,-0.130766,0.199142,-0.000000
2.550000,-0.819311,-0.338538,-1.448857,1.079677,0.588375,-0.187378,-0.437522,-1.074089,0.410126,-1.662000,-0.870550,2.964119,9.802853,4.511519,-9.069963,-0.113651,0.046512,0.000000,-0.125851,0.189842,0.000000
2.560000,-0.808537,-0.332708,-1.450710,1.075220,0.577591,-0.183130,-0.453647,-1.082568,0.439307,-1.561803,-0.824642,2.871669,10.314354,4.709103,-9.401566,-0.114884,0.048374,0.000000,-0.120643,0.179887,0.000000
2.570000,-0.797807,-0.326986,-1.452519,1.070608,0.566725,-0.178595,-0.468741,-1.090576,0.467548,-1.456166,-0.776553,2.776070,10.810308,4.908946,-9.715329,-0.116063,0.050131,0.000000,-0.115099,0.169199,0.000000
2.580000,-0.787125,-0.321373,-1.454281,1.065849,0.555782,-0.173782,-0.482754,-1.098092,0.494818,-1.345659,-0.726460,2.677419,11.287605,5.109650,-10.011996,-0.117185,0.051778,0.000000,-0.109235,0.157838,0.000000
2.590000,-0.776491,-0.315871,-1.455994,1.060956,0.544765,-0.168702,-0.495639,-1.105098,0.521087,-1.230486,-0.674361,2.575884,11.743133,5.309820,-10.292314,-0.118246,0.053308,0.000000,-0.103054,0.145821,-0.000000
2.600000,-0.765906,-0.310478,-1.457654,1.055940,0.533681,-0.163364,-0.507349,-1.111573,0.546327,-1.110880,-0.620270,2.471625,12.173781,5.508062,-10.557028,-0.119245,0.054713,0.000000,-0.096558,0.133176,0.000000
2.610000,-0.755372,-0.305197,-1.459260,1.050813,0.522535,-0.157779,-0.517838,-1.117492,0.570512,-0.986639,-0.563790,2.364838,12.564703,5.692350,-10.808008,-0.120176,0.055988,0.000000,-0.089707,0.119880,0.000000
2.620000,-0.744890,-0.300028,-1.460809,1.045588,0.511333,-0.151957,-0.527070,-1.122843,0.593616,-0.859161,-0.505960,2.255562,12.925959,5.873219,-11.044739,-0.121038,0.057126,0.000000,-0.082610,0.106086,-0.000000
2.630000,-0.734461,-0.294971,-1.462298,1.040276,0.500080,-0.145910,-0.535009,-1.127606,0.615615,-0.728225,-0.446338,2.143988,13.255876,6.050578,-11.267828,-0.121827,0.058123,0.000000,-0.075226,0.091774,-0.000000
2.640000,-0.724085,-0.290026,-1.463726,1.034892,0.488783,-0.139648,-0.541624,-1.131764,0.636488,-0.594153,-0.384960,2.030249,13.552779,6.224332,-11.477884,-0.122541,0.058974,0.000000,-0.067560,0.076983,0.000000
2.650000,-0.713763,-0.285195,-1.465091,1.029448,0.477447,-0.133184,-0.546883,-1.135299,0.656213,-0.457285,-0.321863,1.914472,13.814994,6.394388,-11.675514,-0.123178,0.059673,0.000000,-0.059618,0.061757,0.000000
2.660000,-0.703496,-0.280478,-1.466390,1.023959,0.466079,-0.126528,-0.550757,-1.138196,0.674772,-0.317623,-0.257110,1.796904,14.031968,6.561283,-11.864493,-0.123733,0.060217,0.000000,-0.051414,0.046104,-0.000000
2.670000,-0.693284,-0.275874,-1.467621,1.018438,0.454686,-0.119693,-0.553229,-1.140436,0.692145,-0.176372,-0.190679,1.677362,14.211992,6.724216,-12.041876,-0.124205,0.060601,0.000000,-0.042942,0.030160,-0.000000
2.680000,-0.683128,-0.271384,-1.468783,1.012899,0.443273,-0.112689,-0.554280,-1.142004,0.708314,-0.033508,-0.122639,1.556104,14.354479,6.883016,-12.207883,-0.124591,0.060823,0.000000,-0.034218,0.013932,0.000000
2.690000,-0.673026,-0.267008,-1.469874,1.007357,0.431848,-0.105530,-0.553895,-1.142883,0.723262,0.110590,-0.053033,1.433242,14.458843,7.037511,-12.362733,-0.124888,0.060881,0.000000,-0.025249,-0.002527,-0.000000
2.700000,-0.662980,-0.262747,-1.470893,1.001826,0.420417,-0.098228,-0.552065,-1.143059,0.736974,0.255540,0.018096,1.308886,14.524496,7.187531,-12.506648,-0.125095,0.060772,0.000000,-0.016044,-0.019164,0.000000
2.710000,-0.652990,-0.258600,-1.471838,0.996320,0.408989,-0.090795,-0.548782,-1.142518,0.749437,0.400984,0.090530,1.183297,14.549964,7.337251,-12.643704,-0.125209,0.060494,0.000000,-0.006636,-0.035930,0.000000
2.720000,-0.643054,-0.254567,-1.472708,0.990855,0.397570,-0.083244,-0.544045,-1.141244,0.760635,0.546446,0.164629,1.056220,14.535656,7.481621,-12.769793,-0.125227,0.060047,0.000000,0.003016,-0.052759,0.000000
2.730000,-0.633172,-0.250648,-1.473503,0.985444,0.386167,-0.075587,-0.537855,-1.139221,0.770557,0.691563,0.240142,0.927939,14.481094,7.619941,-12.884663,-0.125148,0.059431,0.000000,0.012876,-0.069600,0.000000
2.740000,-0.623345,-0.246844,-1.474220,0.980103,0.374788,-0.067837,-0.530216,-1.136437,0.779191,0.835932,0.317005,0.798565,14.385799,7.751506,-12.988062,-0.124969,0.058645,0.000000,0.022930,-0.086394,0.000000
2.750000,-0.613570,-0.243153,-1.474859,0.974845,0.363441,-0.060007,-0.521140,-1.132877,0.786525,0.979142,0.395148,0.668217,14.249293,7.875615,-13.079738,-0.124689,0.057690,0.000000,0.033163,-0.103081,-0.000000
2.760000,-0.603848,-0.239575,-1.475420,0.969685,0.352133,-0.052111,-0.510634,-1.128528,0.792553,1.121203,0.474623,0.537144,14.060378,7.988216,-13.162797,-0.124305,0.056567,0.000000,0.043573,-0.119647,0.000000
2.770000,-0.594176,-0.236110,-1.475901,0.964637,0.340873,-0.044161,-0.498723,-1.123381,0.797266,1.260692,0.555033,0.405153,13.830609,8.092364,-13.233218,-0.123817,0.055279,0.000000,0.054113,-0.135923,0.000000
2.780000,-0.584554,-0.232757,-1.476303,0.959715,0.329668,-0.036170,-0.485429,-1.117424,0.800654,1.397682,0.636441,0.272524,13.560818,8.187768,-13.290338,-0.123222,0.053829,0.000000,0.064779,-0.151902,-0.000000
2.790000,-0.574981,-0.229516,-1.476624,0.954933,0.318527,-0.028152,-0.470779,-1.110649,0.802714,1.531778,0.718758,0.139392,13.251840,8.274133,-13.333495,-0.122521,0.052219,0.000000,0.075551,-0.167525,0.000000
2.800000,-0.565455,-0.226386,-1.476866,0.950304,0.307458,-0.020120,-0.454804,-1.103046,0.803441,1.662591,0.801893,0.005902,12.904509,8.351167,-13.362024,-0.121711,0.050454,0.000000,0.086411,-0.182733,0.000000
2.810000,-0.555975,-0.223367,-1.477027,0.945841,0.296469,-0.012088,-0.437536,-1.094608,0.802832,1.790054,0.885763,-0.127742,12.511799,8.418250,-13.376643,-0.120792,0.048538,0.000000,0.097338,-0.197506,0.000000
2.820000,-0.546538,-0.220457,-1.477108,0.941557,0.285568,-0.004068,-0.419017,-1.085329,0.800886,1.913059,0.970240,-0.261515,12.083366,8.475455,-13.375140,-0.119764,0.046477,0.000000,0.108310,-0.211708,-0.000000
2.830000,-0.537143,-0.217655,-1.477108,0.937464,0.274765,0.003926,-0.399289,-1.075202,0.797602,2.031608,1.055238,-0.395189,11.621008,8.522532,-13.356683,-0.118626,0.044275,0.000000,0.119306,-0.225326,0.000000
