time,x,y,z,vx,vy,vz,ax,ay,az,jx,jy,jz,sx,sy,sz,roll,pitch,yaw,p,q,r
0.000000,-1.727564,-1.904019,-1.503396,-0.014124,-0.004178,0.007782,0.100476,0.082352,-0.001020,0.471927,1.285051,0.041692,-6.184865,16.188473,1.183445,0.008393,-0.010241,0.000000,0.130996,-0.048138,-0.000000
0.050000,-1.728270,-1.904228,-1.503007,-0.009100,-0.000061,0.007731,0.124073,0.146605,0.001064,0.162683,2.094475,0.100864,-8.350862,22.552716,1.661641,0.014944,-0.012648,0.000000,0.213613,-0.016711,0.000000
0.100000,-1.728474,-1.904025,-1.502623,-0.001716,0.010482,0.007889,0.116745,0.291800,0.009066,-0.363160,3.540323,0.207856,-2.596133,26.749056,1.665320,0.029762,-0.011911,0.000000,0.361521,0.036779,0.000000
0.150000,-1.728442,-1.903180,-1.502218,0.002575,0.029119,0.008638,0.087757,0.500637,0.021850,-0.096930,4.769380,0.267396,9.767997,18.820695,0.727368,0.051101,-0.008965,0.000000,0.487368,0.009644,0.000000
0.200000,-1.728216,-1.901113,-1.501759,0.007059,0.060546,0.010074,0.107052,0.768738,0.035806,0.613640,5.422392,0.280593,10.503790,4.867760,0.116208,0.078483,-0.010952,0.000000,0.553513,-0.062894,0.000000
0.250000,-1.727736,-1.897125,-1.501210,0.013280,0.105993,0.012218,0.149121,1.042876,0.049909,0.953449,5.256156,0.279017,5.156045,-7.731840,-0.117693,0.106435,-0.015277,0.000000,0.535257,-0.097547,-0.000000
0.300000,-1.726888,-1.890514,-1.500537,0.021971,0.164834,0.015065,0.202396,1.294353,0.063707,1.129245,4.649208,0.268823,2.860076,-14.422022,-0.318193,0.132004,-0.020764,0.000000,0.471942,-0.115374,0.000000
0.350000,-1.725538,-1.880642,-1.499704,0.033519,0.235429,0.018589,0.262045,1.507797,0.076791,1.239457,3.813954,0.247198,1.988817,-17.686083,-0.623473,0.153636,-0.026916,0.000000,0.385854,-0.126427,0.000000
0.400000,-1.723536,-1.866971,-1.498678,0.048176,0.315613,0.022744,0.326342,1.675749,0.088427,1.328126,2.880600,0.206476,1.725448,-18.790698,-1.080222,0.170603,-0.033556,0.000000,0.290390,-0.135183,-0.000000
0.450000,-1.720721,-1.849080,-1.497429,0.066154,0.403003,0.027432,0.394858,1.795857,0.097439,1.412001,1.934884,0.139175,1.659173,-18.456182,-1.642354,0.182688,-0.040632,0.000000,0.193982,-0.143296,-0.000000
0.500000,-1.716921,-1.826670,-1.495935,0.087662,0.495199,0.032488,0.467542,1.869237,0.102345,1.494044,1.034982,0.042241,1.581840,-17.156100,-2.197335,0.190010,-0.048125,0.000000,0.102126,-0.150989,0.000000
0.550000,-1.711955,-1.799560,-1.494181,0.112908,0.589927,0.037666,0.544262,1.899355,0.101663,1.570185,0.219274,-0.080558,1.387760,-15.246515,-2.606624,0.192906,-0.056003,0.000000,0.018465,-0.157783,0.000000
0.600000,-1.705630,-1.767678,-1.492168,0.142088,0.685135,0.042654,0.624561,1.891165,0.094289,1.632820,-0.489670,-0.218422,1.025560,-13.017584,-2.746813,0.191860,-0.064195,0.000000,-0.054672,-0.162884,0.000000
0.650000,-1.697746,-1.731047,-1.489915,0.175364,0.779044,0.047095,0.707544,1.850388,0.079821,1.672741,-1.082484,-0.355239,0.475446,-10.710051,-2.541490,0.187443,-0.072589,0.000000,-0.116030,-0.165418,0.000000
0.700000,-1.688094,-1.689773,-1.487459,0.212842,0.870174,0.050636,0.791835,1.782916,0.058765,1.680364,-1.560675,-0.472571,-0.261716,-8.516686,-1.978435,0.180262,-0.081026,0.000000,-0.165340,-0.164574,0.000000
0.750000,-1.676462,-1.644029,-1.484852,0.254547,0.957335,0.052972,0.875580,1.694321,0.032564,1.646570,-1.934153,-0.553083,-1.170131,-6.578936,-1.111270,0.170914,-0.089313,0.000000,-0.203243,-0.159679,0.000000
0.800000,-1.662639,-1.594040,-1.482161,0.300400,1.039606,0.053892,0.956492,1.589501,0.003456,1.563351,-2.218568,-0.583698,-2.222553,-4.984519,-0.048043,0.159942,-0.097229,0.000000,-0.231146,-0.150224,0.000000
0.850000,-1.646422,-1.540069,-1.479462,0.350197,1.116285,0.053317,1.031916,1.472464,-0.025806,1.424315,-2.432604,-0.557887,-3.382492,-3.768936,1.068772,0.147802,-0.104532,0.000000,-0.250998,-0.135849,0.000000
0.900000,-1.627619,-1.482411,-1.476830,0.403592,1.186852,0.051312,1.098923,1.346241,-0.052332,1.225102,-2.595462,-0.476820,-4.605354,-2.921782,2.085857,0.134840,-0.110969,0.000000,-0.265006,-0.116310,0.000000
0.950000,-1.606062,-1.421384,-1.474331,0.460089,1.250909,0.048084,1.154426,1.212918,-0.073488,0.963779,-2.724783,-0.349301,-5.838550,-2.396972,2.861888,0.121295,-0.116277,0.000000,-0.275357,-0.091452,0.000000
1.000000,-1.581610,-1.357320,-1.472021,0.519034,1.308144,0.043963,1.195301,1.073762,-0.087262,0.641247,-2.835159,-0.190632,-7.020953,-2.125040,3.286570,0.107295,-0.120189,0.000000,-0.283973,-0.061212,0.000000
1.050000,-1.554159,-1.290569,-1.469935,0.579619,1.358286,0.039358,1.218550,0.929402,-0.092551,0.261684,-2.937287,-0.020644,-8.082494,-2.025368,3.294282,0.092884,-0.122439,0.000000,-0.292351,-0.025668,0.000000
1.100000,-1.523649,-1.221492,-1.468086,0.640889,1.401084,0.034708,1.221470,0.780034,-0.089327,-0.167003,-3.037696,0.138796,-8.945024,-2.016511,2.871811,0.078045,-0.122769,0.000000,-0.301465,0.014868,0.000000
1.150000,-1.490070,-1.150461,-1.466464,0.701766,1.436289,0.030425,1.201850,0.625632,-0.078672,-0.632818,-3.138938,0.266537,-9.528419,-2.024599,2.060335,0.062723,-0.120945,0.000000,-0.311730,0.059717,0.000000
1.200000,-1.453472,-1.077863,-1.465043,0.761074,1.463647,0.026841,1.158188,0.466140,-0.062673,-1.119844,-3.240156,0.344830,-9.757965,-1.987664,0.951870,0.046859,-0.116779,0.000000,-0.323018,0.107729,0.000000
1.250000,-1.413963,-1.004096,-1.463780,0.817585,1.482903,0.024158,1.089866,0.301617,-0.044189,-1.608615,-3.337704,0.361724,-9.560046,-1.853278,-0.319767,0.030413,-0.110152,0.000000,-0.334701,0.157186,0.000000
1.300000,-1.371713,-0.929573,-1.462627,0.870061,1.493809,0.022422,0.997326,0.132370,-0.026501,-2.075849,-3.425484,0.312853,-8.872392,-1.582196,-1.593589,0.013388,-0.101045,0.000000,-0.345699,0.205678,0.000000
1.350000,-1.326957,-0.854715,-1.461538,0.917318,1.496140,0.021508,0.882281,-0.040932,-0.012903,-2.495854,-3.495924,0.202365,-7.689418,-1.161181,-2.700848,-0.004150,-0.089578,0.000000,-0.354641,0.250214,0.000000
1.400000,-1.279982,-0.779958,-1.460476,0.958289,1.489716,0.021132,0.747741,-0.217223,-0.006264,-2.844791,-3.541602,0.042768,-6.074996,-0.599154,-3.487081,-0.022061,-0.076027,0.000000,-0.360151,0.287732,0.000000
1.450000,-1.231128,-0.705744,-1.459425,0.992092,1.474418,0.020881,0.597802,-0.395092,-0.008626,-3.103354,-3.555839,-0.146343,-4.122279,0.089608,-3.833660,-0.040143,-0.060809,0.000000,-0.361074,0.315550,0.000000
1.500000,-1.180773,-0.632517,-1.458388,1.018069,1.450207,0.020269,0.437406,-0.572807,-0.020899,-3.257019,-3.532641,-0.340598,-1.937434,0.886898,-3.675045,-0.058143,-0.044464,0.000000,-0.356621,0.331627,0.000000
1.550000,-1.129321,-0.560723,-1.457398,1.035832,1.417137,0.018792,0.272100,-0.748356,-0.042686,-3.297097,-3.467149,-0.513848,0.351915,1.766500,-3.008574,-0.075780,-0.027610,0.000000,-0.346512,0.334860,0.000000
1.600000,-1.077189,-0.490803,-1.456509,1.045279,1.375371,0.016000,0.107696,-0.919522,-0.072283,-3.221827,-3.355991,-0.641455,2.612678,2.699825,-1.895893,-0.092775,-0.010897,0.000000,-0.331003,0.325284,0.000000
1.650000,-1.024793,-0.423186,-1.455798,1.046602,1.325185,0.011563,-0.050083,-1.083955,-0.106832,-3.035830,-3.197167,-0.703437,4.731931,3.660657,-0.456364,-0.108871,0.005050,0.000000,-0.310759,0.303953,0.000000
1.700000,-0.972529,-0.358285,-1.455353,1.040271,1.266976,0.005317,-0.195887,-1.239238,-0.142627,-2.748634,-2.989925,-0.687091,6.627957,4.623541,1.146830,-0.123852,0.019679,0.000000,-0.286648,0.272602,-0.000000
1.750000,-0.920766,-0.296488,-1.455266,1.027013,1.201261,-0.002700,-0.324946,-1.382947,-0.175541,-2.373034,-2.734813,-0.588754,8.250500,5.560577,2.726308,-0.137548,0.032530,0.000000,-0.259537,0.233255,-0.000000
1.800000,-0.869828,-0.238158,-1.455623,1.007776,1.128681,-0.012237,-0.433191,-1.512720,-0.201502,-1.923584,-2.433868,-0.414461,9.574745,6.439090,4.093271,-0.149826,0.043242,0.000000,-0.230145,0.187862,0.000000
1.850000,-0.819988,-0.183620,-1.456490,0.983694,1.049989,-0.022850,-0.517305,-1.626334,-0.216987,-1.415559,-2.090904,-0.179427,10.590578,7.220848,5.080573,-0.160586,0.051546,0.000000,-0.198963,0.138080,-0.000000
1.900000,-0.771458,-0.133159,-1.457908,0.956046,0.966047,-0.033936,-0.574746,-1.721810,-0.219445,-0.864527,-1.711783,0.093597,11.290301,7.863335,5.563305,-0.169745,0.057243,0.000000,-0.166262,0.085207,0.000000
1.950000,-0.724383,-0.087016,-1.459883,0.926219,0.877808,-0.044794,-0.603757,-1.797512,-0.207627,-0.286529,-1.304570,0.376904,11.654122,8.325469,5.474612,-0.177231,0.060197,0.000000,-0.132159,0.030277,0.000000
2.000000,-0.678836,-0.045379,-1.462387,0.895670,0.786296,-0.054698,-0.603399,-1.852267,-0.181755,0.300886,-0.879236,0.641058,11.646308,8.574698,4.814981,-0.182973,0.060316,0.000000,-0.096690,-0.025707,0.000000
2.050000,-0.634816,-0.008386,-1.465353,0.865879,0.692582,-0.062970,-0.573669,-1.885436,-0.143521,0.878102,-0.447100,0.858402,11.238002,8.587128,3.653690,-0.186903,0.057571,0.000000,-0.059915,-0.081529,0.000000
2.100000,-0.592249,0.023879,-1.468684,0.838303,0.597753,-0.069051,-0.515589,-1.896977,-0.095915,1.424686,-0.020523,1.006427,10.410573,8.354945,2.121533,-0.188959,0.052002,0.000000,-0.022067,-0.135700,0.000000
2.150000,-0.550986,0.051389,-1.472258,0.814321,0.502884,-0.072561,-0.431200,-1.887488,-0.042879,1.919159,0.388394,1.070555,9.149844,7.902857,0.395174,-0.189097,0.043736,0.000000,0.016398,-0.186282,0.000000
2.200000,-0.510816,0.074168,-1.475940,0.795183,0.409004,-0.073338,-0.323673,-1.858138,0.011141,2.339670,0.769763,1.045944,7.467879,7.280163,-1.325349,-0.187303,0.033020,0.000000,0.054842,-0.230877,-0.000000
2.250000,-0.471468,0.092290,-1.479592,0.781953,0.317070,-0.071447,-0.197233,-1.810512,0.061716,2.665947,1.116410,0.938020,5.371067,6.552835,-2.844022,-0.183597,0.020230,0.000000,0.092426,-0.266859,-0.000000
2.300000,-0.432621,0.105875,-1.483085,0.775460,0.227952,-0.067167,-0.057079,-1.746497,0.104943,2.876777,1.425046,0.761542,2.904798,5.820504,-3.997492,-0.178049,0.005881,0.000000,0.128246,-0.291270,0.000000
2.350000,-0.393922,0.115085,-1.486309,0.776245,0.142420,-0.060953,0.090444,-1.668008,0.137870,2.956427,1.698461,0.538271,0.282944,5.190259,-4.678237,-0.170768,-0.009351,0.000000,0.161684,-0.301705,0.000000
2.400000,-0.354997,0.120117,-1.489180,0.784504,0.061152,-0.053380,0.238564,-1.576650,0.158770,2.905071,1.944072,0.293718,-2.248084,4.714574,-4.846076,-0.161884,-0.024713,0.000000,0.192485,-0.297630,0.000000
2.450000,-0.315471,0.121200,-1.491647,0.800102,-0.015245,-0.045076,0.380952,-1.473600,0.167242,2.731618,2.169918,0.053663,-4.576545,4.394734,-4.527716,-0.151530,-0.039486,0.000000,0.220570,-0.279816,0.000000
2.500000,-0.274986,0.118592,-1.493688,0.822599,-0.086208,-0.036656,0.511726,-1.359659,0.164136,2.447417,2.383545,-0.159053,-6.603022,4.228367,-3.807616,-0.139841,-0.053002,0.000000,0.246087,-0.249681,0.000000
2.550000,-0.233211,0.112579,-1.495312,0.851274,-0.151210,-0.028662,0.625693,-1.235246,0.151336,2.071316,2.592755,-0.327098,-8.184328,4.203118,-2.811419,-0.126936,-0.064690,0.000000,0.269556,-0.209670,-0.000000
2.600000,-0.189859,0.103471,-1.496554,0.885169,-0.209733,-0.021522,0.718857,-1.100383,0.131427,1.628984,2.803857,-0.440195,-9.243249,4.260777,-1.683499,-0.112898,-0.074137,0.000000,0.291690,-0.162981,-0.000000
2.650000,-0.144695,0.091606,-1.497465,0.923160,-0.261249,-0.015520,0.788592,-0.954860,0.107317,1.146991,3.018833,-0.495448,-9.789220,4.316747,-0.563320,-0.097776,-0.081097,0.000000,0.313012,-0.112774,0.000000
2.700000,-0.097543,0.077347,-1.498106,0.964028,-0.305219,-0.010790,0.833557,-0.798500,0.081882,0.650062,3.235532,-0.496527,-9.861709,4.303419,0.433730,-0.081600,-0.085477,0.000000,0.333758,-0.061788,0.000000
2.750000,-0.048292,0.061084,-1.498544,1.006516,-0.341099,-0.007331,0.853598,-0.631307,0.057664,0.160820,3.449175,-0.452075,-9.514920,4.167152,1.227306,-0.064398,-0.087305,0.000000,0.353917,-0.012313,0.000000
2.800000,0.003109,0.043237,-1.498839,1.049388,-0.368350,-0.005024,0.849639,-0.453582,0.036674,-0.301430,3.652247,-0.373797,-8.829788,3.855305,1.774821,-0.046203,-0.086716,0.000000,0.373126,0.033875,-0.000000
2.850000,0.056647,0.024249,-1.499046,1.091480,-0.386457,-0.003664,0.823455,-0.266082,0.020285,-0.722159,3.834705,-0.274593,-7.901161,3.332966,2.068314,-0.027078,-0.083917,0.000000,0.390630,0.075564,0.000000
2.900000,0.112257,0.004591,-1.499206,1.131733,-0.394958,-0.002995,0.777423,-0.070112,0.009215,-1.091546,3.985544,-0.166965,-6.817079,2.595731,2.127540,-0.007131,-0.079157,0.000000,0.405420,0.112017,0.000000
2.950000,0.169820,-0.015247,-1.499346,1.169222,-0.393468,-0.002742,0.714300,0.132472,0.003588,-1.403866,4.094278,-0.061839,-5.653432,1.663319,1.991160,0.013472,-0.072712,0.000000,0.416387,0.142846,0.000000
3.000000,0.229179,-0.034756,-1.499480,1.203163,-0.381711,-0.002637,0.637036,0.339316,0.003031,-1.656889,4.151876,0.032151,-4.473430,0.570346,1.707837,0.034513,-0.064866,0.000000,0.422456,0.167928,0.000000
3.050000,0.290137,-0.053418,-1.499609,1.232925,-0.359537,-0.002439,0.548611,0.547660,0.006803,-1.851209,4.151313,0.108945,-3.328915,-0.648341,1.328328,0.055720,-0.055904,0.000000,0.422694,0.187337,0.000000
3.100000,0.352471,-0.070710,-1.499724,1.258024,-0.326945,-0.001956,0.451915,0.754447,0.013926,-1.989781,4.087041,0.164984,-2.259687,-1.959262,0.899390,0.076782,-0.046100,0.000000,0.416317,0.201319,0.000000
3.150000,0.415939,-0.086112,-1.499805,1.278117,-0.284092,-0.001047,0.349633,0.956364,0.023301,-2.077178,3.955387,0.198884,-1.284549,-3.296597,0.459913,0.097350,-0.035710,0.000000,0.402782,0.210249,0.000000
3.200000,0.480283,-0.099119,-1.499828,1.292988,-0.231308,0.000374,0.244197,1.149986,0.033814,-2.118236,3.757382,0.210975,-0.408961,-4.588182,0.038542,0.117057,-0.024974,0.000000,0.382109,0.214521,0.000000
3.250000,0.545238,-0.109243,-1.499767,1.302537,-0.169093,0.002335,0.137810,1.332102,0.044399,-2.118074,3.496568,0.202738,0.353056,-5.833975,-0.346808,0.135558,-0.014111,0.000000,0.354664,0.214569,0.000000
3.300000,0.610537,-0.116028,-1.499595,1.306769,-0.098098,0.004814,0.032390,1.499643,0.054088,-2.082930,3.173984,0.176294,0.991245,-7.053287,-0.686606,0.152522,-0.003320,0.000000,0.320648,0.210964,0.000000
3.350000,0.675915,-0.119053,-1.499286,1.305776,-0.019129,0.007743,-0.070483,1.649500,0.062028,-2.018950,2.791240,0.134077,1.519842,-8.198970,-0.976729,0.167623,0.007230,0.000000,0.280379,0.204299,0.000000
3.400000,0.741114,-0.117941,-1.498821,1.299720,0.066852,0.011017,-0.169505,1.778767,0.067495,-1.930946,2.354087,0.078621,1.961583,-9.213072,-1.216364,0.180562,0.017397,0.000000,0.234619,0.195055,0.000000
3.450000,0.805887,-0.112368,-1.498184,1.288825,0.158748,0.014493,-0.263578,1.884909,0.069890,-1.822791,1.869932,0.012441,2.332875,-10.077001,-1.405383,0.191089,0.027054,0.000000,0.184284,0.183636,0.000000
3.500000,0.869997,-0.102066,-1.497371,1.273363,0.255343,0.018006,-0.351784,1.965760,0.068740,-1.697658,1.346387,-0.061917,2.649173,-10.779347,-1.541618,0.198997,0.036097,0.000000,0.130279,0.170389,-0.000000
3.550000,0.933223,-0.086833,-1.496384,1.253647,0.355324,0.021367,-0.433344,2.019548,0.063699,-1.557874,0.791998,-0.141721,2.926311,-11.298177,-1.619260,0.204124,0.044433,0.000000,0.073557,0.155583,0.000000
3.600000,0.995361,-0.066534,-1.495235,1.230028,0.457298,0.024375,-0.507572,2.044960,0.054568,-1.405027,0.216569,-0.223843,3.176182,-11.606742,-1.628281,0.206360,0.051983,0.000000,0.015151,0.139423,0.000000
3.650000,1.056226,-0.041104,-1.493946,1.202890,0.559820,0.026824,-0.573846,2.041205,0.041314,-1.240256,-0.368677,-0.304549,3.457282,-11.815721,-1.554261,0.205645,0.058676,0.000000,-0.043801,0.122073,0.000000
3.700000,1.115650,-0.010552,-1.492552,1.172644,0.661418,0.028507,-0.631597,2.008092,0.024113,-1.059299,-0.965003,-0.379269,3.785740,-11.947685,-1.380429,0.201984,0.064452,0.000000,-0.103399,0.103167,-0.000000
3.750000,1.173490,0.025038,-1.491096,1.139730,0.760629,0.029235,-0.679776,1.944705,0.003387,-0.861682,-1.563445,-0.442592,3.927757,-11.383038,-1.092498,0.195309,0.069207,0.000000,-0.162761,0.082730,0.000000
3.800000,1.229623,0.065511,-1.489629,1.104666,0.855889,0.028846,-0.717765,1.851748,-0.020147,-0.666523,-2.103306,-0.488519,3.843564,-10.013175,-0.678299,0.185709,0.072887,0.000000,-0.215986,0.062737,0.000000
3.850000,1.283957,0.110627,-1.488211,1.067953,0.945804,0.027220,-0.746429,1.734374,-0.045464,-0.477326,-2.564763,-0.510422,3.934515,-8.937607,-0.127781,0.173710,0.075593,0.000000,-0.261130,0.043590,0.000000
3.900000,1.336419,0.160091,-1.486907,1.030023,1.029326,0.024299,-0.765498,1.595271,-0.071189,-0.273072,-2.997067,-0.501297,4.146262,-8.135521,0.550520,0.159594,0.077316,0.000000,-0.303013,0.023264,0.000000
3.950000,1.386959,0.213560,-1.485781,0.991404,1.105331,0.020101,-0.773736,1.434667,-0.095594,-0.062699,-3.378315,-0.455370,3.995793,-6.483553,1.314049,0.143403,0.077953,0.000000,-0.339604,0.002694,0.000000
4.000000,1.435559,0.270624,-1.484897,0.952649,1.172793,0.014740,-0.771768,1.257440,-0.116726,0.126507,-3.645423,-0.369892,3.509780,-4.192187,2.091049,0.125626,0.077590,0.000000,-0.364862,-0.015425,-0.000000
4.050000,1.482224,0.330839,-1.484307,0.914227,1.231075,0.008429,-0.761085,1.070125,-0.132583,0.288279,-3.797533,-0.246265,2.976840,-2.099387,2.790979,0.106907,0.076399,0.000000,-0.378875,-0.030535,0.000000
4.100000,1.526982,0.393732,-1.484054,0.876541,1.279805,0.001481,-0.742940,0.877686,-0.141352,0.424191,-3.855361,-0.090795,2.433257,-0.278899,3.314687,0.087727,0.074519,0.000000,-0.383896,-0.042902,0.000000
4.150000,1.569878,0.458820,-1.484159,0.839933,1.318843,-0.005706,-0.718666,0.684589,-0.141663,0.531604,-3.825423,0.085204,1.831025,1.426785,3.572855,0.068505,0.072091,0.000000,-0.380762,-0.052403,0.000000
4.200000,1.610975,0.525616,-1.484624,0.804674,1.348264,-0.012685,-0.689780,0.495144,-0.132832,0.607294,-3.712683,0.266491,1.187031,2.978873,3.506925,0.049639,0.069264,0.000000,-0.370060,-0.058863,0.000000
4.250000,1.650346,0.593646,-1.485428,0.770955,1.368358,-0.018990,-0.657937,0.313321,-0.115014,0.650308,-3.527536,0.435896,0.541622,4.272782,3.099869,0.031489,0.066194,0.000000,-0.352777,-0.062306,0.000000
4.300000,1.688070,0.662452,-1.486523,0.738881,1.379596,-0.024186,-0.624749,0.142391,-0.089242,0.661456,-3.285404,0.576478,-0.081583,5.237400,2.376282,0.014354,0.063027,0.000000,-0.330264,-0.062887,0.000000
4.350000,1.724234,0.731606,-1.487846,0.708480,1.382597,-0.027914,-0.591791,-0.015220,-0.057366,0.642149,-3.003796,0.673525,-0.652768,5.859283,1.398981,-0.001540,0.059903,0.000000,-0.303981,-0.060766,0.000000
4.400000,1.758918,0.800712,-1.489315,0.679702,1.378074,-0.029923,-0.560534,-0.157989,-0.021890,0.596179,-2.699476,0.716376,-1.135271,6.173378,0.262318,-0.016042,0.056950,0.000000,-0.275268,-0.056293,0.000000
4.450000,1.792204,0.869413,-1.490838,0.652427,1.366798,-0.030103,-0.532173,-0.285167,0.014272,0.528622,-2.386458,0.699756,-1.519323,6.219173,-0.919263,-0.029060,0.054274,0.000000,-0.245212,-0.049915,0.000000
4.500000,1.824161,0.937391,-1.492325,0.626484,1.349558,-0.028496,-0.507672,-0.396635,0.048086,0.444247,-2.077559,0.624450,-1.775963,5.995580,-2.024532,-0.040554,0.051959,0.000000,-0.214866,-0.042033,-0.000000
4.550000,1.854852,1.004369,-1.493688,0.601659,1.327134,-0.025294,-0.487748,-0.492923,0.076717,0.351026,-1.786900,0.497303,-1.871983,5.520520,-2.939487,-0.050537,0.050070,0.000000,-0.185551,-0.033378,0.000000
4.600000,1.884327,1.070105,-1.494854,0.577709,1.300265,-0.020824,-0.472569,-0.575325,0.097816,0.257049,-1.525507,0.330501,-1.876110,4.908248,-3.572441,-0.059099,0.048619,0.000000,-0.158416,-0.024709,0.000000
4.650000,1.912623,1.134395,-1.495770,0.554403,1.269602,-0.015513,-0.462043,-0.645474,0.109767,0.163415,-1.296075,0.140059,-1.830691,4.258966,-3.864979,-0.066369,0.047596,0.000000,-0.133881,-0.016087,0.000000
4.700000,1.939767,1.197065,-1.496406,0.531505,1.235718,-0.009847,-0.456228,-0.704932,0.111822,0.073980,-1.099610,-0.055997,-1.644020,3.586456,-3.793237,-0.072480,0.047008,0.000000,-0.112274,-0.007862,0.000000
4.750000,1.965774,1.257967,-1.496755,0.508780,1.199109,-0.004330,-0.454645,-0.755435,0.104167,-0.000987,-0.937430,-0.239265,-1.327543,2.953351,-3.369199,-0.077592,0.046808,0.000000,-0.093997,-0.001048,-0.000000
4.800000,1.990645,1.316976,-1.496839,0.486041,1.160174,0.000569,-0.456326,-0.798675,0.087896,-0.058775,-0.804275,-0.392917,-0.997425,2.462962,-2.645578,-0.081877,0.046903,0.000000,-0.078773,0.004126,0.000000
4.850000,2.014378,1.373984,-1.496698,0.463147,1.119241,0.004459,-0.460523,-0.835863,0.064875,-0.100730,-0.691134,-0.503822,-0.651553,2.145918,-1.706788,-0.085468,0.047222,0.000000,-0.065897,0.007847,0.000000
4.900000,2.036960,1.428900,-1.496393,0.439988,1.076588,0.007057,-0.466399,-0.867789,0.037513,-0.123930,-0.589683,-0.563596,-0.270959,1.999931,-0.650394,-0.088467,0.047690,0.000000,-0.054685,0.009868,0.000000
4.950000,2.058377,1.481643,-1.495993,0.416507,1.032462,0.008211,-0.472916,-0.894831,0.008516,-0.127825,-0.491141,-0.568862,0.088561,2.026769,0.422229,-0.090938,0.048212,0.000000,-0.044344,0.010175,0.000000
5.000000,2.078611,1.532146,-1.495572,0.392697,0.987105,0.007908,-0.479182,-0.916903,-0.019373,-0.115074,-0.387007,-0.521373,0.401984,2.207032,1.412664,-0.092903,0.048711,0.000000,-0.034047,0.009060,0.000000
5.050000,2.097646,1.580354,-1.495202,0.368589,0.940772,0.006273,-0.484423,-0.933532,-0.043622,-0.087627,-0.270437,-0.427595,0.674464,2.503737,2.236423,-0.094345,0.049122,0.000000,-0.023068,0.006713,0.000000
5.100000,2.115470,1.626224,-1.494944,0.344254,0.893752,0.003546,-0.487944,-0.943947,-0.062132,-0.047627,-0.136633,-0.297731,0.896729,2.873077,2.831076,-0.095212,0.049386,0.000000,-0.010829,0.003311,-0.000000
5.150000,2.132072,1.669729,-1.494847,0.319795,0.846377,0.000060,-0.489186,-0.947195,-0.073395,0.002046,0.016870,-0.144488,1.060437,3.268880,3.159908,-0.095429,0.049455,0.000000,0.003072,-0.000924,-0.000000
5.200000,2.147449,1.710861,-1.494938,0.295336,0.799032,-0.003793,-0.487740,-0.942260,-0.076581,0.058416,0.190255,0.018260,1.166107,3.647977,3.212947,-0.094905,0.049294,0.000000,0.018847,-0.005777,-0.000000
5.250000,2.161605,1.749632,-1.495226,0.271021,0.752151,-0.007598,-0.483344,-0.928169,-0.071569,0.118657,0.381668,0.176807,1.217799,3.972765,3.005498,-0.093543,0.048875,0.000000,0.036527,-0.011058,0.000000
5.300000,2.174551,1.786076,-1.495698,0.247001,0.706215,-0.010950,-0.475874,-0.904093,-0.058900,0.180196,0.587532,0.318810,1.220970,4.211700,2.574565,-0.091250,0.048182,0.000000,0.055966,-0.016593,-0.000000
5.350000,2.186305,1.820254,-1.496321,0.223433,0.661742,-0.013488,-0.465325,-0.869416,-0.039688,0.240754,0.802838,0.434263,1.181155,4.338135,1.973739,-0.087943,0.047208,0.000000,0.076841,-0.022224,0.000000
5.400000,2.196894,1.852251,-1.497047,0.200469,0.619274,-0.014919,-0.451799,-0.823809,-0.015474,0.298312,1.021345,0.516184,1.102886,4.328039,1.267190,-0.083561,0.045950,0.000000,0.098639,-0.027789,0.000000
5.450000,2.206352,1.882181,-1.497813,0.178253,0.579361,-0.015035,-0.435494,-0.767282,0.011931,0.351042,1.235642,0.560982,0.988953,4.157367,0.523336,-0.078073,0.044418,0.000000,0.120653,-0.033116,-0.000000
5.500000,2.214720,1.910187,-1.498550,0.156919,0.542546,-0.013726,-0.416695,-0.700245,0.040624,0.397207,1.437082,0.568518,0.840037,3.799774,-0.191253,-0.071490,0.042627,0.000000,0.141955,-0.038010,0.000000
5.550000,2.222044,1.936436,-1.499186,0.136584,0.509337,-0.010973,-0.395773,-0.623573,0.068782,0.435046,1.615619,0.541857,0.654718,3.225192,-0.817193,-0.063874,0.040606,0.000000,0.161389,-0.042244,0.000000
5.600000,2.228378,1.961120,-1.499648,0.117342,0.480188,-0.006847,-0.373190,-0.538683,0.094810,0.462679,1.759601,0.486798,0.429847,2.399518,-1.306419,-0.055350,0.038394,0.000000,0.177567,-0.045562,0.000000
5.650000,2.233778,1.984454,-1.499871,0.099265,0.455468,-0.001492,-0.349505,-0.447613,0.117462,0.478030,1.855571,0.411215,0.161231,1.285277,-1.624752,-0.046119,0.036044,0.000000,0.188879,-0.047677,-0.000000
5.700000,2.238305,2.006667,-1.499797,0.082392,0.435427,0.004899,-0.325387,-0.353126,0.135932,0.478802,1.888129,0.324323,-0.155343,-0.157215,-1.752734,-0.036465,0.033622,0.000000,0.193524,-0.048279,0.000000
5.750000,2.242018,2.027997,-1.499381,0.066726,0.420156,0.012101,-0.301625,-0.258800,0.149895,0.462496,1.839850,0.235942,-0.522674,-1.969062,-1.684688,-0.026771,0.031214,0.000000,0.189536,-0.047052,-0.000000
5.800000,2.244977,2.048683,-1.498587,0.052229,0.409547,0.019888,-0.279137,-0.169141,0.159526,0.426534,1.691223,0.155854,-0.940053,-4.193649,-1.426220,-0.017518,0.028917,0.000000,0.174816,-0.043688,0.000000
5.850000,2.247241,2.068952,-1.497392,0.038812,0.403242,0.028054,-0.258972,-0.089678,0.165480,0.368491,1.420485,0.093320,4.162691,-7.513033,-5.328621,-0.009295,0.026845,0.000000,0.147119,-0.037918,-0.000000
5.900000,2.248859,2.089007,-1.495781,0.026332,0.400579,0.036436,-0.242288,-0.027092,0.168858,0.842803,0.939919,-0.377008,9.102544,-10.539961,-9.269770,-0.002809,0.025125,0.000000,0.097563,-0.088344,0.000000
5.950000,2.249874,2.109010,-1.493748,0.014584,0.400533,0.044940,-0.174691,0.004314,0.127779,1.278745,0.366489,-0.833657,3.627458,-8.350620,-4.687362,0.000445,0.018041,0.000000,0.037808,-0.133581,0.000000
6.000000,2.250317,2.129060,-1.491288,0.008863,0.401010,0.049214,-0.114414,0.009557,0.085492,1.205549,0.104857,-0.845744,-1.463922,-5.232625,-0.241743,0.000983,0.011765,0.000000,0.010698,-0.124976,0.000000
