time,x,y,z,vx,vy,vz,ax,ay,az,jx,jy,jz,sx,sy,sz,roll,pitch,yaw,p,q,r
0.000000,-2.015033,-1.838171,-1.500632,-0.022815,-0.009903,0.007935,0.457067,0.322163,-0.006749,-7.937538,-7.890737,-0.007136,136.225303,206.495301,-0.236700,0.032770,-0.046526,0.000000,-0.800865,0.806422,0.000000
0.010000,-2.015239,-1.838255,-1.500553,-0.018619,-0.007043,0.007867,0.384267,0.253207,-0.006833,-6.645792,-5.936894,-0.009747,122.296386,184.547413,-0.281556,0.025768,-0.039124,0.000000,-0.603247,0.675758,0.000000
0.020000,-2.015407,-1.838314,-1.500475,-0.015089,-0.004777,0.007798,0.323704,0.202720,-0.006945,-5.488229,-4.194415,-0.012694,109.381869,164.211537,-0.304428,0.020636,-0.032962,0.000000,-0.426496,0.558373,-0.000000
0.030000,-2.015543,-1.838352,-1.500397,-0.012108,-0.002933,0.007728,0.274088,0.168667,-0.007087,-4.454911,-2.647511,-0.015767,97.440500,145.421359,-0.306808,0.017173,-0.027912,0.000000,-0.269310,0.453416,-0.000000
0.040000,-2.015651,-1.838373,-1.500320,-0.009574,-0.001356,0.007657,0.234224,0.149169,-0.007260,-3.536312,-1.281057,-0.018767,86.431028,128.110563,-0.290188,0.015189,-0.023854,0.000000,-0.130322,0.360013,0.000000
0.050000,-2.015735,-1.838380,-1.500244,-0.007395,0.000093,0.007583,0.203010,0.142493,-0.007462,-2.723321,-0.080590,-0.021512,76.312199,112.212833,-0.256062,0.014510,-0.020675,0.000000,-0.008154,0.277293,0.000000
0.060000,-2.015800,-1.838371,-1.500169,-0.005489,0.001532,0.007507,0.179434,0.147050,-0.007689,-2.007237,0.967689,-0.023835,67.042762,97.661855,-0.205922,0.014974,-0.018275,0.000000,0.098547,0.204404,0.000000
0.070000,-2.015846,-1.838349,-1.500094,-0.003784,0.003066,0.007429,0.162570,0.161383,-0.007937,-1.379772,1.876915,-0.025582,58.581463,84.391312,-0.141260,0.016434,-0.016557,0.000000,0.191090,0.140522,-0.000000
0.080000,-2.015876,-1.838309,-1.500020,-0.002218,0.004787,0.007348,0.151570,0.184166,-0.008198,-0.833052,2.659562,-0.026617,50.887051,72.334890,-0.063568,0.018753,-0.015436,0.000000,0.270727,0.084854,-0.000000
0.090000,-2.015891,-1.838252,-1.499947,-0.000736,0.006774,0.007265,0.145664,0.214192,-0.008466,-0.359613,3.327439,-0.026815,43.918273,61.426274,0.025661,0.021809,-0.014835,0.000000,0.338650,0.036650,-0.000000
0.100000,-2.015891,-1.838173,-1.499875,0.000710,0.009092,0.007179,0.144157,0.250370,-0.008731,0.047595,3.891693,-0.026070,37.633877,51.599147,0.124935,0.025491,-0.014681,0.000000,0.395984,-0.004806,0.000000
0.110000,-2.015876,-1.838069,-1.499804,0.002160,0.011798,0.007091,0.146418,0.291715,-0.008984,0.395209,4.362806,-0.024288,31.992609,42.787194,0.232761,0.029697,-0.014911,0.000000,0.443791,-0.040186,0.000000
0.120000,-2.015847,-1.837935,-1.499733,0.003649,0.014940,0.006999,0.151883,0.337348,-0.009213,0.689454,4.750600,-0.021391,26.953219,34.924100,0.347646,0.034338,-0.015467,0.000000,0.483066,-0.070123,-0.000000
0.130000,-2.015803,-1.837768,-1.499664,0.005207,0.018557,0.006906,0.160048,0.386480,-0.009408,0.936142,5.064230,-0.017317,22.474453,27.943550,0.468099,0.039333,-0.016298,0.000000,0.514741,-0.095208,0.000000
0.140000,-2.015743,-1.837563,-1.499595,0.006858,0.022679,0.006811,0.170465,0.438414,-0.009556,1.140674,5.312191,-0.012016,18.515060,21.779228,0.592627,0.044611,-0.017358,0.000000,0.539679,-0.115992,-0.000000
0.150000,-2.015666,-1.837313,-1.499527,0.008622,0.027332,0.006715,0.182738,0.492531,-0.009644,1.308037,5.502314,-0.005455,15.033786,16.364819,0.719738,0.050107,-0.018607,0.000000,0.558683,-0.132983,0.000000
0.160000,-2.015570,-1.837014,-1.499461,0.010517,0.032535,0.006619,0.196518,0.548291,-0.009661,1.442806,5.641766,0.002383,11.989379,11.634008,0.847938,0.055767,-0.020010,0.000000,0.572488,-0.146648,-0.000000
0.170000,-2.015455,-1.836660,-1.499395,0.012557,0.038302,0.006523,0.211499,0.605220,-0.009592,1.549143,5.737052,0.011502,9.340588,7.520478,0.975737,0.061542,-0.021535,0.000000,0.581764,-0.157414,-0.000000
0.180000,-2.015318,-1.836246,-1.499330,0.014750,0.044642,0.006427,0.227418,0.662905,-0.009426,1.630799,5.794012,0.021891,7.046159,3.957915,1.101640,0.067389,-0.023156,0.000000,0.587114,-0.165665,0.000000
0.190000,-2.015159,-1.835766,-1.499266,0.017107,0.051562,0.006334,0.244044,0.720989,-0.009150,1.691110,5.817826,0.033524,5.064840,0.880004,1.224157,0.073273,-0.024849,0.000000,0.589077,-0.171742,0.000000
0.200000,-2.014976,-1.835213,-1.499204,0.019633,0.059062,0.006245,0.261179,0.779166,-0.008752,1.733002,5.813007,0.046358,3.355379,-1.779572,1.341793,0.079161,-0.026594,0.000000,0.588123,-0.175947,-0.000000
0.210000,-2.014766,-1.834583,-1.499142,0.022330,0.067141,0.006160,0.278722,0.837290,-0.008220,1.765530,5.794741,0.060280,1.711231,-4.373375,1.454538,0.085039,-0.028381,0.000000,0.585796,-0.179201,0.000000
0.220000,-2.014528,-1.833868,-1.499080,0.025206,0.075803,0.006081,0.296438,0.894980,-0.007543,1.775304,5.739388,0.075356,0.276677,-6.646422,1.559237,0.090869,-0.030186,0.000000,0.579727,-0.180150,-0.000000
0.230000,-2.014261,-1.833065,-1.499020,0.028259,0.085038,0.006009,0.314184,0.952007,-0.006709,1.771693,5.662777,0.091432,-0.969298,-8.629978,1.654217,0.096627,-0.031994,0.000000,0.571529,-0.179748,0.000000
0.240000,-2.013963,-1.832166,-1.498960,0.031489,0.094840,0.005947,0.331834,1.008173,-0.005711,1.756477,5.567649,0.108402,-2.047704,-10.355307,1.737804,0.102293,-0.033794,0.000000,0.561490,-0.178178,0.000000
0.250000,-2.013631,-1.831166,-1.498901,0.034895,0.105198,0.005896,0.349280,1.063306,-0.004539,1.731227,5.456428,0.126144,-2.979556,-11.853674,1.808324,0.107851,-0.035573,0.000000,0.549867,-0.175602,0.000000
0.260000,-2.013264,-1.830060,-1.498842,0.038473,0.116101,0.005857,0.366466,1.117312,-0.003184,1.700643,5.336407,0.144723,-3.870208,-13.287170,1.858953,0.113292,-0.037327,0.000000,0.537404,-0.172498,-0.000000
0.270000,-2.012861,-1.828842,-1.498784,0.042222,0.127538,0.005833,0.383265,1.169990,-0.001643,1.657971,5.197126,0.163501,-4.646003,-14.540213,1.893799,0.118595,-0.039042,0.000000,0.523057,-0.168183,0.000000
0.280000,-2.012419,-1.827507,-1.498725,0.046137,0.139496,0.005825,0.399601,1.221215,0.000087,1.608071,5.046154,0.182543,-5.317625,-15.628050,1.911819,0.123749,-0.040712,0.000000,0.507595,-0.163151,-0.000000
0.290000,-2.011938,-1.826051,-1.498667,0.050212,0.151958,0.005835,0.415406,1.270879,0.002008,1.551930,4.885065,0.201678,-5.895760,-16.565925,1.911970,0.128744,-0.042328,0.000000,0.491183,-0.157503,-0.000000
0.300000,-2.011415,-1.824467,-1.498609,0.054443,0.164908,0.005866,0.430622,1.318888,0.004120,1.490431,4.715284,0.220720,-6.391092,-17.369084,1.893208,0.133570,-0.043886,0.000000,0.473966,-0.151328,-0.000000
0.310000,-2.010848,-1.822751,-1.498550,0.058822,0.178329,0.005918,0.445217,1.365186,0.006425,1.426035,4.540428,0.239820,-6.856911,-18.112026,1.845784,0.138223,-0.045383,0.000000,0.456312,-0.144875,0.000000
0.320000,-2.010238,-1.820898,-1.498490,0.063344,0.192205,0.005995,0.459128,1.409673,0.008915,1.355417,4.356061,0.257958,-7.256080,-18.743487,1.778427,0.142694,-0.046810,0.000000,0.437768,-0.137805,-0.000000
0.330000,-2.009581,-1.818905,-1.498430,0.068002,0.206516,0.006097,0.472313,1.452287,0.011582,1.281118,4.165903,0.275322,-7.594068,-19.271456,1.691163,0.146977,-0.048166,0.000000,0.418710,-0.130375,0.000000
0.340000,-2.008877,-1.816767,-1.498368,0.072788,0.221244,0.006227,0.484740,1.492975,0.014418,1.203722,3.970950,0.291715,-7.876343,-19.703924,1.584013,0.151067,-0.049445,0.000000,0.399234,-0.122641,-0.000000
0.350000,-2.008125,-1.814479,-1.498305,0.077694,0.236369,0.006386,0.496379,1.531693,0.017412,1.123758,3.772116,0.306936,-8.108373,-20.048879,1.457002,0.154961,-0.050646,0.000000,0.379426,-0.114656,-0.000000
0.360000,-2.007323,-1.812038,-1.498240,0.082713,0.251871,0.006575,0.507217,1.568419,0.020556,1.042542,3.571294,0.321139,-8.316819,-20.341009,1.301291,0.158656,-0.051766,0.000000,0.359474,-0.106551,0.000000
0.370000,-2.006470,-1.809440,-1.498174,0.087835,0.267730,0.006797,0.517224,1.603111,0.023830,0.958508,3.366737,0.333295,-8.483362,-20.558337,1.126851,0.162149,-0.052803,0.000000,0.339185,-0.098163,0.000000
0.380000,-2.005566,-1.806682,-1.498104,0.093054,0.283926,0.007052,0.526383,1.635748,0.027216,0.873005,3.160361,0.343618,-8.610875,-20.705584,0.934788,0.165439,-0.053755,0.000000,0.318749,-0.089625,0.000000
0.390000,-2.004609,-1.803761,-1.498032,0.098360,0.300438,0.007342,0.534680,1.666314,0.030695,0.786411,2.952843,0.351936,-8.702231,-20.787470,0.726213,0.168524,-0.054620,0.000000,0.298224,-0.080974,-0.000000
0.400000,-2.003598,-1.800673,-1.497957,0.103745,0.317246,0.007667,0.542108,1.694803,0.034247,0.699072,2.744814,0.358091,-8.760303,-20.808716,0.502233,0.171404,-0.055398,0.000000,0.277664,-0.072242,0.000000
0.410000,-2.002534,-1.797415,-1.497879,0.109199,0.334327,0.008027,0.548665,1.721216,0.037852,0.611710,2.537329,0.362187,-8.798160,-20.786016,0.257540,0.174078,-0.056087,0.000000,0.257169,-0.063501,0.000000
0.420000,-2.001414,-1.793985,-1.497797,0.114715,0.351663,0.008424,0.554342,1.745551,0.041483,0.523659,2.329804,0.363487,-8.807230,-20.710652,0.000444,0.176547,-0.056687,0.000000,0.236662,-0.054676,0.000000
0.430000,-2.000239,-1.790381,-1.497710,0.120283,0.369231,0.008857,0.559138,1.767815,0.045113,0.435656,2.123281,0.362161,-8.789140,-20.585877,-0.267159,0.178811,-0.057198,0.000000,0.216242,-0.045843,-0.000000
0.440000,-1.999008,-1.786600,-1.497619,0.125895,0.387012,0.009326,0.563056,1.788022,0.048717,0.347962,1.918240,0.358115,-8.745515,-20.414946,-0.543377,0.180872,-0.057619,0.000000,0.195948,-0.037024,-0.000000
0.450000,-1.997721,-1.782640,-1.497524,0.131541,0.404985,0.009831,0.566099,1.806187,0.052266,0.260825,1.715125,0.351271,-8.677979,-20.201114,-0.826314,0.182731,-0.057950,0.000000,0.175816,-0.028244,0.000000
0.460000,-1.996377,-1.778500,-1.497423,0.137214,0.423129,0.010371,0.568277,1.822334,0.055734,0.174656,1.514563,0.341675,-8.592690,-19.953023,-1.116665,0.184390,-0.058194,0.000000,0.155903,-0.019542,0.000000
0.470000,-1.994977,-1.774177,-1.497316,0.142904,0.441425,0.010945,0.569596,1.836487,0.059090,0.089244,1.316429,0.329044,-8.486186,-19.667880,-1.409631,0.185850,-0.058348,0.000000,0.136185,-0.010895,0.000000
0.480000,-1.993519,-1.769671,-1.497204,0.148603,0.459852,0.011552,0.570066,1.848673,0.062305,0.004999,1.121320,0.313481,-8.359536,-19.348279,-1.703001,0.187114,-0.058416,0.000000,0.116717,-0.002344,0.000000
0.490000,-1.992005,-1.764980,-1.497085,0.154303,0.478392,0.012191,0.569700,1.858924,0.065350,-0.077883,0.929569,0.294991,-8.213810,-18.996816,-1.994563,0.188185,-0.058396,0.000000,0.097527,0.006092,0.000000
0.500000,-1.990433,-1.760103,-1.496960,0.159994,0.497025,0.012858,0.568513,1.867276,0.068195,-0.159217,0.741482,0.273603,-8.050077,-18.616084,-2.282108,0.189066,-0.058292,0.000000,0.078642,0.014394,-0.000000
0.510000,-1.988805,-1.755039,-1.496828,0.165670,0.515731,0.013554,0.566522,1.873768,0.070812,-0.238761,0.557442,0.249312,-7.871104,-18.211344,-2.561983,0.189759,-0.058104,0.000000,0.060097,0.022537,0.000000
0.520000,-1.987120,-1.749788,-1.496689,0.171322,0.534494,0.014274,0.563744,1.878439,0.073172,-0.316510,0.377455,0.222326,-7.676056,-17.782199,-2.833594,0.190269,-0.057834,0.000000,0.041891,0.030519,-0.000000
0.530000,-1.985379,-1.744349,-1.496542,0.176942,0.553294,0.015016,0.560199,1.881332,0.075249,-0.392231,0.201872,0.192675,-7.465796,-17.330917,-3.094907,0.190598,-0.057483,0.000000,0.024059,0.038317,0.000000
0.540000,-1.983581,-1.738722,-1.496388,0.182524,0.572115,0.015778,0.555907,1.882492,0.077017,-0.465778,0.030903,0.160469,-7.241187,-16.859767,-3.343887,0.190751,-0.057054,0.000000,0.006622,0.045913,0.000000
0.550000,-1.981728,-1.732907,-1.496227,0.188058,0.590938,0.016555,0.550891,1.881966,0.078451,-0.537010,-0.135265,0.125845,-7.003091,-16.371018,-3.578499,0.190732,-0.056548,0.000000,-0.010400,0.053292,0.000000
0.560000,-1.979820,-1.726903,-1.496057,0.193539,0.609749,0.017346,0.545175,1.879804,0.079525,-0.605780,-0.296390,0.088766,-6.752821,-15.868869,-3.791965,0.190545,-0.055969,0.000000,-0.026984,0.060438,0.000000
0.570000,-1.977858,-1.720712,-1.495880,0.198959,0.628529,0.018145,0.538784,1.876055,0.080219,-0.672007,-0.452512,0.049853,-6.490733,-15.353422,-3.987574,0.190194,-0.055318,0.000000,-0.043121,0.067336,0.000000
0.580000,-1.975841,-1.714333,-1.495694,0.204313,0.647265,0.018949,0.531744,1.870771,0.080515,-0.735558,-0.603421,0.009079,-6.217634,-14.826707,-4.163874,0.189684,-0.054599,0.000000,-0.058791,0.073974,0.000000
0.590000,-1.973772,-1.707767,-1.495501,0.209592,0.665940,0.019754,0.524082,1.864005,0.080395,-0.796326,-0.749015,-0.033355,-5.934332,-14.290757,-4.319412,0.189020,-0.053813,0.000000,-0.073977,0.080336,0.000000
0.600000,-1.971650,-1.701014,-1.495299,0.214792,0.684540,0.020555,0.515827,1.855809,0.079843,-0.854213,-0.889212,-0.077235,-5.641634,-13.747603,-4.452733,0.188206,-0.052964,0.000000,-0.088666,0.086411,-0.000000
0.610000,-1.969476,-1.694076,-1.495090,0.219907,0.703051,0.021349,0.507008,1.846240,0.078844,-0.909123,-1.023860,-0.122598,-5.340504,-13.201534,-4.555625,0.187248,-0.052054,0.000000,-0.102841,0.092186,-0.000000
0.620000,-1.967252,-1.686953,-1.494872,0.224931,0.721460,0.022131,0.497655,1.835350,0.077388,-0.960990,-1.153130,-0.168568,-5.031572,-12.652049,-4.634222,0.186151,-0.051088,0.000000,-0.116499,0.097648,0.000000
0.630000,-1.964978,-1.679647,-1.494647,0.229858,0.739754,0.022895,0.487798,1.823195,0.075470,-1.009731,-1.276896,-0.215200,-4.715627,-12.100903,-4.687896,0.184920,-0.050068,0.000000,-0.129627,0.102789,0.000000
0.640000,-1.962655,-1.672159,-1.494414,0.234685,0.757920,0.023638,0.477471,1.809831,0.073083,-1.055282,-1.395149,-0.262241,-4.393458,-11.549852,-4.716022,0.183560,-0.048998,0.000000,-0.142215,0.107598,0.000000
0.650000,-1.960285,-1.664489,-1.494174,0.239406,0.775947,0.024355,0.466704,1.795311,0.070225,-1.097583,-1.507899,-0.309433,-4.065851,-11.000651,-4.717973,0.182077,-0.047881,0.000000,-0.154256,0.112068,-0.000000
0.660000,-1.957867,-1.656640,-1.493927,0.244018,0.793823,0.025041,0.455530,1.779692,0.066892,-1.136567,-1.615054,-0.356800,-3.733997,-10.458076,-4.685839,0.180477,-0.046720,0.000000,-0.165739,0.116189,0.000000
0.670000,-1.955405,-1.648613,-1.493674,0.248516,0.811537,0.025692,0.443983,1.763028,0.063090,-1.172232,-1.716942,-0.403387,-3.398232,-9.920493,-4.627170,0.178764,-0.045520,0.000000,-0.176676,0.119957,0.000000
0.680000,-1.952897,-1.640410,-1.493414,0.252896,0.829080,0.026302,0.432097,1.745371,0.058826,-1.204522,-1.813485,-0.449255,-3.059297,-9.389288,-4.542232,0.176945,-0.044283,0.000000,-0.187058,0.123365,0.000000
0.690000,-1.950347,-1.632032,-1.493148,0.257157,0.846441,0.026867,0.419904,1.726775,0.054108,-1.233409,-1.904754,-0.494145,-2.717929,-8.865846,-4.431292,0.175025,-0.043015,0.000000,-0.196884,0.126408,0.000000
0.700000,-1.947755,-1.623482,-1.492877,0.261293,0.863612,0.027382,0.407440,1.707293,0.048948,-1.258874,-1.990833,-0.537795,-2.374869,-8.351552,-4.294614,0.173009,-0.041717,0.000000,-0.206156,0.129084,-0.000000
0.710000,-1.945122,-1.614761,-1.492600,0.265305,0.880584,0.027844,0.394739,1.686977,0.043355,-1.280870,-2.071672,-0.580208,-2.031711,-7.851531,-4.126007,0.170904,-0.040395,0.000000,-0.214867,0.131388,-0.000000
0.720000,-1.942449,-1.605871,-1.492320,0.269188,0.897349,0.028248,0.381834,1.665876,0.037349,-1.299469,-2.147735,-0.620523,-1.688234,-7.362972,-3.932985,0.168714,-0.039052,0.000000,-0.223046,0.133324,0.000000
0.730000,-1.939738,-1.596815,-1.492036,0.272941,0.913899,0.028590,0.368761,1.644039,0.030951,-1.314635,-2.218973,-0.658790,-1.345070,-6.886804,-3.716607,0.166445,-0.037691,0.000000,-0.230690,0.134889,-0.000000
0.740000,-1.936991,-1.587594,-1.491748,0.276562,0.930228,0.028866,0.355553,1.621512,0.024181,-1.326374,-2.285515,-0.694780,-1.002854,-6.423956,-3.477927,0.164102,-0.036317,0.000000,-0.237806,0.136085,0.000000
0.750000,-1.934207,-1.578211,-1.491459,0.280051,0.946328,0.029073,0.342245,1.598344,0.017064,-1.334698,-2.347499,-0.728277,-0.662219,-5.975354,-3.218004,0.161690,-0.034934,0.000000,-0.244404,0.136912,0.000000
0.760000,-1.931390,-1.568668,-1.491167,0.283407,0.962193,0.029206,0.328871,1.574579,0.009623,-1.339576,-2.404912,-0.759257,-0.325058,-5.545991,-2.933246,0.159216,-0.033544,0.000000,-0.250484,0.137369,0.000000
0.770000,-1.928540,-1.558968,-1.490875,0.286629,0.977817,0.029264,0.315464,1.550260,0.001888,-1.341152,-2.458290,-0.787088,0.009408,-5.132233,-2.629926,0.156682,-0.032153,0.000000,-0.256088,0.137471,-0.000000
0.780000,-1.925658,-1.549112,-1.490582,0.289716,0.993196,0.029243,0.302059,1.525427,-0.006109,-1.339398,-2.507610,-0.811799,0.340698,-4.734512,-2.309672,0.154095,-0.030762,0.000000,-0.261217,0.137217,-0.000000
0.790000,-1.922746,-1.539105,-1.490290,0.292670,1.008324,0.029141,0.288687,1.500120,-0.014337,-1.334350,-2.553035,-0.833230,0.668333,-4.353258,-1.974109,0.151460,-0.029376,0.000000,-0.265887,0.136612,-0.000000
0.800000,-1.919805,-1.528947,-1.489999,0.295490,1.023197,0.028956,0.275383,1.474378,-0.022762,-1.326045,-2.594732,-0.851236,0.991833,-3.988902,-1.624864,0.148779,-0.027999,0.000000,-0.270115,0.135661,-0.000000
0.810000,-1.916837,-1.518642,-1.489711,0.298178,1.037810,0.028685,0.262178,1.448239,-0.031350,-1.314473,-2.632720,-0.865780,1.309310,-3.645681,-1.261229,0.146059,-0.026634,0.000000,-0.273903,0.134367,-0.000000
0.820000,-1.913842,-1.508191,-1.489426,0.300734,1.052161,0.028328,0.249104,1.421735,-0.040065,-1.299813,-2.667533,-0.876531,1.621864,-3.319753,-0.887449,0.143302,-0.025284,0.000000,-0.277304,0.132750,0.000000
0.830000,-1.910822,-1.497599,-1.489145,0.303161,1.066244,0.027884,0.236192,1.394899,-0.048868,-1.282053,-2.699173,-0.883501,1.929188,-3.011083,-0.505436,0.140514,-0.023953,0.000000,-0.280322,0.130810,-0.000000
0.840000,-1.907779,-1.486868,-1.488869,0.305459,1.080058,0.027351,0.223473,1.367762,-0.057722,-1.261247,-2.727812,-0.886618,2.230974,-2.719635,-0.117103,0.137697,-0.022643,0.000000,-0.282977,0.128555,-0.000000
0.850000,-1.904714,-1.475999,-1.488598,0.307631,1.093598,0.026729,0.210977,1.340352,-0.066588,-1.237453,-2.753623,-0.885829,2.526915,-2.445374,0.275639,0.134856,-0.021358,0.000000,-0.285288,0.125995,0.000000
0.860000,-1.901627,-1.464996,-1.488334,0.309679,1.106864,0.026019,0.198734,1.312699,-0.075426,-1.210681,-2.776657,-0.881097,2.815473,-2.191291,0.670864,0.131993,-0.020101,0.000000,-0.287266,0.123133,-0.000000
0.870000,-1.898520,-1.453863,-1.488078,0.311606,1.119852,0.025221,0.186773,1.284827,-0.084197,-1.181110,-2.797369,-0.872409,3.097722,-1.953954,1.066677,0.129111,-0.018875,0.000000,-0.288958,0.119988,0.000000
0.880000,-1.895395,-1.442600,-1.487830,0.313416,1.132560,0.024336,0.175121,1.256760,-0.092861,-1.148748,-2.815790,-0.859768,3.373503,-1.732957,1.461166,0.126214,-0.017682,0.000000,-0.290374,0.116566,0.000000
0.890000,-1.892252,-1.431212,-1.487592,0.315110,1.144986,0.023364,0.163807,1.228519,-0.101379,-1.113662,-2.832082,-0.843196,3.642661,-1.527895,1.852421,0.123305,-0.016526,0.000000,-0.291534,0.112873,0.000000
0.900000,-1.889093,-1.419702,-1.487363,0.316693,1.157129,0.022309,0.152857,1.200125,-0.109712,-1.075918,-2.846400,-0.822736,3.905037,-1.338362,2.238533,0.120385,-0.015408,0.000000,-0.292459,0.108921,-0.000000
0.910000,-1.885919,-1.408071,-1.487146,0.318168,1.168988,0.021171,0.142297,1.171597,-0.117820,-1.035554,-2.858824,-0.798369,4.159719,-1.165859,2.615558,0.117456,-0.014332,0.000000,-0.293160,0.104713,-0.000000
0.920000,-1.882730,-1.396323,-1.486940,0.319540,1.180561,0.019953,0.132154,1.142954,-0.125667,-0.992713,-2.869680,-0.770363,4.407398,-1.007840,2.983869,0.114522,-0.013300,0.000000,-0.293679,0.100266,-0.000000
0.930000,-1.879528,-1.384460,-1.486747,0.320813,1.191847,0.018658,0.122451,1.114209,-0.133215,-0.947430,-2.879027,-0.738726,4.648011,-0.863666,3.341803,0.111583,-0.012314,0.000000,-0.294025,0.095586,-0.000000
0.940000,-1.876314,-1.372487,-1.486567,0.321991,1.202845,0.017290,0.113213,1.085378,-0.140429,-0.899776,-2.886998,-0.703568,4.881492,-0.732696,3.687701,0.108642,-0.011377,0.000000,-0.294218,0.090681,0.000000
0.950000,-1.873089,-1.360405,-1.486401,0.323079,1.213554,0.015851,0.104463,1.056473,-0.147275,-0.849824,-2.893723,-0.665017,5.107778,-0.614293,4.019900,0.105699,-0.010491,0.000000,-0.294276,0.085558,0.000000
0.960000,-1.869853,-1.348217,-1.486250,0.324082,1.223974,0.014346,0.096224,1.027507,-0.153717,-0.797641,-2.899297,-0.623081,5.326694,-0.508490,4.333222,0.102757,-0.009657,0.000000,-0.294212,0.080226,0.000000
0.970000,-1.866608,-1.335926,-1.486115,0.325005,1.234104,0.012778,0.088518,0.998490,-0.159727,-0.743310,-2.903900,-0.578251,5.538300,-0.413891,4.629954,0.099815,-0.008878,0.000000,-0.294053,0.074692,0.000000
0.980000,-1.863353,-1.323536,-1.485995,0.325854,1.243944,0.011153,0.081365,0.969432,-0.165273,-0.686899,-2.907609,-0.530542,5.742543,-0.329775,4.908867,0.096876,-0.008156,0.000000,-0.293811,0.068965,-0.000000
0.990000,-1.860091,-1.311048,-1.485892,0.326634,1.253493,0.009474,0.074786,0.940341,-0.170328,-0.628483,-2.910528,-0.480137,5.939372,-0.255420,5.168731,0.093939,-0.007493,0.000000,-0.293501,0.063050,0.000000
1.000000,-1.856821,-1.298467,-1.485806,0.327352,1.262751,0.007748,0.068802,0.911224,-0.174867,-0.568137,-2.912748,-0.427235,6.128737,-0.190104,5.408314,0.091006,-0.006890,0.000000,-0.293137,0.056955,0.000000
1.010000,-1.853544,-1.285794,-1.485737,0.328012,1.271717,0.005979,0.063430,0.882088,-0.178864,-0.505954,-2.914371,-0.371869,6.311101,-0.132756,5.621993,0.088077,-0.006350,0.000000,-0.292732,0.050689,0.000000
1.020000,-1.850261,-1.273033,-1.485686,0.328622,1.280392,0.004172,0.058689,0.852938,-0.182298,-0.441963,-2.915444,-0.314673,6.485834,-0.083045,5.813470,0.085152,-0.005873,0.000000,-0.292300,0.044253,0.000000
1.030000,-1.846972,-1.260187,-1.485654,0.329188,1.288776,0.002335,0.054596,0.823781,-0.185151,-0.376263,-2.916055,-0.255676,6.652823,-0.040293,5.982052,0.082231,-0.005462,0.000000,-0.291851,0.037656,0.000000
1.040000,-1.843677,-1.247259,-1.485640,0.329716,1.296868,0.000471,0.051169,0.794619,-0.187406,-0.308933,-2.916271,-0.195110,6.811953,-0.003820,6.127047,0.079315,-0.005118,0.000000,-0.291397,0.030903,0.000000
1.050000,-1.840377,-1.234251,-1.485644,0.330214,1.304668,-0.001411,0.048423,0.765456,-0.189049,-0.240051,-2.916150,-0.133216,6.963110,0.027052,6.247764,0.076403,-0.004843,0.000000,-0.290945,0.024001,-0.000000
1.060000,-1.837073,-1.221166,-1.485668,0.330687,1.312177,-0.003308,0.046372,0.736296,-0.190065,-0.169734,-2.915787,-0.070052,7.107108,0.054036,6.338802,0.073496,-0.004637,0.000000,-0.290509,0.016960,-0.000000
1.070000,-1.833764,-1.208008,-1.485711,0.331144,1.319394,-0.005211,0.045033,0.707141,-0.190447,-0.097978,-2.915130,-0.006313,7.242790,0.076652,6.404752,0.070593,-0.004503,0.000000,-0.290088,0.009776,0.000000
1.080000,-1.830450,-1.194779,-1.485772,0.331590,1.326320,-0.007114,0.044417,0.677994,-0.190189,-0.024907,-2.914267,0.057959,7.369930,0.095452,6.445500,0.067694,-0.004442,0.000000,-0.289693,0.002459,0.000000
1.090000,-1.827132,-1.181483,-1.485853,0.332034,1.332954,-0.009012,0.044539,0.648857,-0.189287,0.049392,-2.913232,0.122512,7.488298,0.110991,6.460929,0.064799,-0.004454,0.000000,-0.289329,-0.004984,0.000000
1.100000,-1.823809,-1.168121,-1.485952,0.332484,1.339297,-0.010898,0.045409,0.619730,-0.187739,0.124829,-2.912056,0.187093,7.597668,0.123820,6.450924,0.061907,-0.004542,0.000000,-0.289002,-0.012546,0.000000
1.110000,-1.820482,-1.154698,-1.486071,0.332945,1.345349,-0.012765,0.047038,0.590615,-0.185544,0.201275,-2.910815,0.251625,7.698792,0.135800,6.410829,0.059019,-0.004706,0.000000,-0.288718,-0.020219,0.000000
1.120000,-1.817150,-1.141215,-1.486208,0.333427,1.351109,-0.014607,0.049437,0.561514,-0.182708,0.278729,-2.909404,0.315428,7.790342,0.146017,6.345625,0.056133,-0.004947,0.000000,-0.288472,-0.028005,0.000000
1.130000,-1.813814,-1.127677,-1.486363,0.333937,1.356579,-0.016417,0.052616,0.532427,-0.179238,0.357049,-2.907899,0.378456,7.871969,0.154863,6.255749,0.053249,-0.005267,0.000000,-0.288271,-0.035891,0.000000
1.140000,-1.810471,-1.114085,-1.486536,0.334482,1.361758,-0.018189,0.056581,0.503356,-0.175143,0.436134,-2.906310,0.440463,7.943325,0.162731,6.141642,0.050367,-0.005666,0.000000,-0.288116,-0.043871,0.000000
1.150000,-1.807124,-1.100442,-1.486726,0.335071,1.366646,-0.019918,0.061341,0.474302,-0.170433,0.515880,-2.904646,0.501209,8.004062,0.170014,6.003744,0.047487,-0.006146,0.000000,-0.288007,-0.051937,-0.000000
1.160000,-1.803770,-1.086753,-1.486934,0.335711,1.371244,-0.021596,0.066899,0.445263,-0.165122,0.596039,-2.902997,0.560617,8.057363,0.179279,5.838527,0.044607,-0.006706,0.000000,-0.287953,-0.060067,-0.000000
1.170000,-1.800409,-1.073019,-1.487158,0.336412,1.375552,-0.023218,0.073263,0.416242,-0.159227,0.676831,-2.901158,0.618082,8.098917,0.188479,5.650883,0.041727,-0.007349,0.000000,-0.287934,-0.068284,-0.000000
1.180000,-1.797041,-1.059243,-1.487398,0.337179,1.379569,-0.024779,0.080437,0.387240,-0.152767,0.757976,-2.899227,0.673563,8.127942,0.197740,5.441740,0.038848,-0.008074,0.000000,-0.287958,-0.076564,-0.000000
1.190000,-1.793665,-1.045428,-1.487653,0.338023,1.383296,-0.026272,0.088423,0.358258,-0.145763,0.839345,-2.897203,0.726848,8.143660,0.207188,5.212023,0.035968,-0.008881,0.000000,-0.288023,-0.084894,0.000000
1.200000,-1.790281,-1.031578,-1.487923,0.338951,1.386734,-0.027692,0.097224,0.329296,-0.138238,0.920802,-2.895082,0.777738,8.145288,0.216950,4.962656,0.033087,-0.009773,0.000000,-0.288128,-0.093263,-0.000000
1.210000,-1.786886,-1.017694,-1.488207,0.339970,1.389882,-0.029035,0.106843,0.300357,-0.130215,1.002523,-2.892769,0.826161,8.123912,0.224804,4.691477,0.030205,-0.010748,0.000000,-0.288259,-0.101690,0.000000
1.220000,-1.783481,-1.003781,-1.488504,0.341090,1.392741,-0.030295,0.117273,0.271441,-0.121724,1.083595,-2.890478,0.871647,8.087883,0.233513,4.402879,0.027322,-0.011807,0.000000,-0.288436,-0.110084,0.000000
1.230000,-1.780064,-0.989841,-1.488813,0.342318,1.395311,-0.031468,0.128513,0.242548,-0.112792,1.164233,-2.888095,0.914165,8.037415,0.243491,4.098166,0.024437,-0.012951,0.000000,-0.288646,-0.118467,-0.000000
1.240000,-1.776634,-0.975876,-1.489133,0.343663,1.397592,-0.032550,0.140556,0.213680,-0.103451,1.244295,-2.885603,0.953561,7.972726,0.255152,3.778642,0.021549,-0.014177,0.000000,-0.288882,-0.126825,0.000000
1.250000,-1.773190,-0.961890,-1.489463,0.345132,1.399585,-0.033536,0.153396,0.184836,-0.093732,1.323641,-2.882985,0.989693,7.894029,0.268909,3.445612,0.018659,-0.015488,0.000000,-0.289139,-0.135143,0.000000
1.260000,-1.769731,-0.947885,-1.489803,0.346734,1.401289,-0.034423,0.167025,0.156019,-0.083668,1.402059,-2.880342,1.022504,7.803342,0.288337,3.098581,0.015766,-0.016880,0.000000,-0.289425,-0.143399,0.000000
1.270000,-1.766255,-0.933865,-1.490151,0.348475,1.402706,-0.035208,0.181434,0.127230,-0.073293,1.479581,-2.877350,1.051709,7.698860,0.310302,2.740872,0.012870,-0.018356,0.000000,-0.289702,-0.151595,-0.000000
1.280000,-1.762761,-0.919832,-1.490507,0.350365,1.403834,-0.035888,0.196613,0.098473,-0.062645,1.555990,-2.874127,1.077291,7.580577,0.334833,2.374008,0.009972,-0.019912,0.000000,-0.289977,-0.159708,0.000000
1.290000,-1.759247,-0.905789,-1.490869,0.352410,1.404675,-0.036460,0.212550,0.069749,-0.051760,1.631147,-2.870645,1.099164,7.448488,0.361957,1.999515,0.007071,-0.021550,0.000000,-0.290244,-0.167721,0.000000
1.300000,-1.755712,-0.891739,-1.491236,0.354618,1.405229,-0.036923,0.229232,0.041061,-0.040675,1.704914,-2.866879,1.117261,7.302590,0.391700,1.618915,0.004167,-0.023266,0.000000,-0.290494,-0.175619,0.000000
1.310000,-1.752154,-0.877685,-1.491607,0.356997,1.405496,-0.037273,0.246640,0.012411,-0.029427,1.776841,-2.862915,1.131547,7.150738,0.426935,1.233225,0.001261,-0.025061,0.000000,-0.290733,-0.183351,-0.000000
1.320000,-1.748572,-0.863630,-1.491981,0.359554,1.405478,-0.037511,0.264763,-0.016196,-0.018057,1.847528,-2.858460,1.141938,6.984103,0.464496,0.844540,-0.001647,-0.026933,0.000000,-0.290924,-0.190976,-0.000000
1.330000,-1.744963,-0.849577,-1.492357,0.362295,1.405173,-0.037634,0.283585,-0.044757,-0.006602,1.916471,-2.853618,1.148433,6.801719,0.504061,0.454446,-0.004557,-0.028880,0.000000,-0.291073,-0.198439,-0.000000
1.340000,-1.741325,-0.835528,-1.492733,0.365227,1.404583,-0.037643,0.303086,-0.073267,0.004899,1.983507,-2.848373,1.151027,6.602618,0.545310,0.064530,-0.007469,-0.030901,0.000000,-0.291173,-0.205720,-0.000000
1.350000,-1.737658,-0.821486,-1.493109,0.368359,1.403708,-0.037536,0.323248,-0.101723,0.016406,2.048464,-2.842708,1.149730,6.385833,0.587921,-0.323622,-0.010381,-0.032994,0.000000,-0.291218,-0.212795,-0.000000
1.360000,-1.733957,-0.807455,-1.493484,0.371694,1.402548,-0.037315,0.344053,-0.130118,0.027880,2.111676,-2.836426,1.144527,6.137398,0.626904,-0.707445,-0.013293,-0.035157,0.000000,-0.291182,-0.219695,0.000000
1.370000,-1.730223,-0.793436,-1.493855,0.375242,1.401105,-0.036979,0.365473,-0.158450,0.039284,2.171732,-2.829957,1.135553,5.870936,0.667178,-1.086450,-0.016204,-0.037387,0.000000,-0.291104,-0.226270,0.000000
1.380000,-1.726452,-0.779434,-1.494223,0.379006,1.399379,-0.036529,0.387479,-0.186716,0.050579,2.229037,-2.823077,1.122819,5.587070,0.708995,-1.459171,-0.019114,-0.039682,0.000000,-0.290956,-0.232557,0.000000
1.390000,-1.722642,-0.765450,-1.494585,0.382993,1.397371,-0.035968,0.410044,-0.214910,0.061728,2.283418,-2.815771,1.106396,5.286424,0.752605,-1.824142,-0.022023,-0.042038,0.000000,-0.290731,-0.238532,0.000000
1.400000,-1.718791,-0.751487,-1.494942,0.387208,1.395081,-0.035295,0.433137,-0.243030,0.072695,2.334711,-2.808018,1.086367,4.969623,0.798257,-2.179895,-0.024929,-0.044453,0.000000,-0.290423,-0.244173,0.000000
1.410000,-1.714897,-0.737549,-1.495291,0.391657,1.392511,-0.034514,0.456729,-0.271070,0.083442,2.382938,-2.799836,1.062731,4.632756,0.847149,-2.522377,-0.027831,-0.046922,0.000000,-0.290029,-0.249477,0.000000
1.420000,-1.710957,-0.723638,-1.495632,0.396345,1.389660,-0.033627,0.480784,-0.299025,0.093938,2.427521,-2.791110,1.035844,4.281537,0.898470,-2.853025,-0.030729,-0.049443,0.000000,-0.289533,-0.254378,0.000000
1.430000,-1.706969,-0.709757,-1.495963,0.401274,1.386531,-0.032637,0.505268,-0.326890,0.104149,2.468525,-2.781858,1.005714,3.917145,0.952354,-3.170690,-0.033621,-0.052011,0.000000,-0.288934,-0.258880,0.000000
1.440000,-1.702931,-0.695908,-1.496284,0.406451,1.383123,-0.031545,0.530142,-0.354660,0.114042,2.505824,-2.772053,0.972477,3.540759,1.008937,-3.474222,-0.036507,-0.054622,0.000000,-0.288225,-0.262962,0.000000
1.450000,-1.698840,-0.682095,-1.496594,0.411878,1.379438,-0.030357,0.555371,-0.382329,0.123588,2.539304,-2.761669,0.936280,3.153558,1.068353,-3.762470,-0.039386,-0.057272,0.000000,-0.287400,-0.266609,-0.000000
1.460000,-1.694693,-0.668320,-1.496891,0.417560,1.375477,-0.029075,0.580915,-0.409892,0.132757,2.568787,-2.750722,0.897138,2.758637,1.131874,-4.030641,-0.042255,-0.059957,0.000000,-0.286458,-0.269797,0.000000
1.470000,-1.690488,-0.654586,-1.497175,0.423498,1.371240,-0.027703,0.606734,-0.437341,0.141522,2.594362,-2.739073,0.855562,2.355026,1.198359,-4.281676,-0.045114,-0.062672,0.000000,-0.285383,-0.272533,-0.000000
1.480000,-1.686222,-0.640896,-1.497445,0.429695,1.366730,-0.026246,0.632788,-0.464671,0.149860,2.615862,-2.726744,0.811564,1.943669,1.267803,-4.514871,-0.047962,-0.065412,0.000000,-0.284177,-0.274796,0.000000
1.490000,-1.681893,-0.627253,-1.497700,0.436154,1.361947,-0.024707,0.659037,-0.491874,0.157746,2.633213,-2.713707,0.765326,1.525511,1.340202,-4.729521,-0.050797,-0.068172,0.000000,-0.282833,-0.276574,-0.000000
1.500000,-1.677498,-0.613658,-1.497939,0.442876,1.356893,-0.023092,0.685439,-0.518943,0.165160,2.646353,-2.699931,0.717038,1.101498,1.415551,-4.924924,-0.053618,-0.070949,0.000000,-0.281349,-0.277858,0.000000
1.510000,-1.673034,-0.600116,-1.498161,0.449863,1.351569,-0.021406,0.711951,-0.545870,0.172079,2.655296,-2.685375,0.666728,0.670827,1.493555,-5.096178,-0.056424,-0.073736,0.000000,-0.279719,-0.278648,-0.000000
1.520000,-1.668500,-0.586628,-1.498366,0.457116,1.345976,-0.019653,0.738530,-0.572648,0.178489,2.659835,-2.670037,0.614994,0.236404,1.574537,-5.247291,-0.059212,-0.076529,0.000000,-0.277946,-0.278923,0.000000
1.530000,-1.663891,-0.573197,-1.498554,0.464634,1.340117,-0.017838,0.765133,-0.599268,0.184374,2.660015,-2.653874,0.561850,-0.200612,1.658526,-5.378073,-0.061982,-0.079322,0.000000,-0.276024,-0.278687,0.000000
1.540000,-1.659206,-0.559826,-1.498723,0.472418,1.333992,-0.015967,0.791716,-0.625722,0.189722,2.655818,-2.636856,0.507501,-0.639062,1.745555,-5.488335,-0.064732,-0.082112,0.000000,-0.273953,-0.277936,0.000000
1.550000,-1.654442,-0.546518,-1.498873,0.480468,1.327603,-0.014045,0.818235,-0.652002,0.194521,2.647233,-2.618952,0.452152,-1.077787,1.835655,-5.577887,-0.067461,-0.084891,0.000000,-0.271730,-0.276672,0.000000
1.560000,-1.649596,-0.533275,-1.499004,0.488783,1.320952,-0.012078,0.844646,-0.678098,0.198760,2.634266,-2.600139,0.395850,-1.515655,1.929028,-5.642434,-0.070166,-0.087656,0.000000,-0.269355,-0.274895,0.000000
1.570000,-1.644665,-0.520100,-1.499115,0.497360,1.314041,-0.010072,0.870905,-0.704002,0.202436,2.616928,-2.580369,0.339189,-1.951477,2.025513,-5.686393,-0.072847,-0.090401,0.000000,-0.266827,-0.272611,0.000000
1.580000,-1.639648,-0.506995,-1.499205,0.506200,1.306873,-0.008031,0.896970,-0.729702,0.205543,2.595247,-2.559619,0.282190,-2.384091,2.125120,-5.710079,-0.075502,-0.093121,0.000000,-0.264148,-0.269826,0.000000
1.590000,-1.634541,-0.493963,-1.499275,0.515299,1.299448,-0.005963,0.922796,-0.755191,0.208079,2.569261,-2.537856,0.225054,-2.812335,2.227859,-5.713804,-0.078130,-0.095811,0.000000,-0.261317,-0.266545,0.000000
1.600000,-1.629341,-0.481007,-1.499324,0.524655,1.291770,-0.003872,0.948341,-0.780456,0.210044,2.539019,-2.515051,0.167979,-3.235047,2.333739,-5.697882,-0.080728,-0.098466,0.000000,-0.258334,-0.262780,0.000000
1.610000,-1.624047,-0.468129,-1.499352,0.534265,1.283840,-0.001764,0.973562,-0.805488,0.211438,2.504535,-2.491189,0.111027,-3.649886,2.443218,-5.659236,-0.083296,-0.101082,0.000000,-0.255203,-0.258533,0.000000
1.620000,-1.618655,-0.455331,-1.499360,0.544125,1.275661,0.000355,0.998418,-0.830276,0.212266,2.465994,-2.466196,0.054705,-4.057013,2.555804,-5.601983,-0.085832,-0.103654,0.000000,-0.251922,-0.253833,-0.000000
1.630000,-1.613163,-0.442616,-1.499345,0.554232,1.267235,0.002480,1.022868,-0.854808,0.212535,2.423424,-2.440063,-0.000953,-4.455410,2.671453,-5.526851,-0.088334,-0.106176,0.000000,-0.248494,-0.248687,-0.000000
1.640000,-1.607569,-0.429987,-1.499310,0.564581,1.258565,0.004604,1.046873,-0.879074,0.212250,2.376918,-2.412757,-0.055774,-4.844059,2.790119,-5.434568,-0.090801,-0.108645,0.000000,-0.244922,-0.243110,-0.000000
1.650000,-1.601871,-0.417446,-1.499253,0.575168,1.249655,0.006723,1.070394,-0.903060,0.211422,2.326579,-2.384250,-0.109590,-5.221941,2.911758,-5.325862,-0.093232,-0.111057,0.000000,-0.241206,-0.237119,0.000000
1.660000,-1.596065,-0.404995,-1.499176,0.585987,1.240505,0.008831,1.093392,-0.926755,0.210061,2.272438,-2.354537,-0.162327,-5.586008,3.036954,-5.199256,-0.095625,-0.113407,0.000000,-0.237353,-0.230722,0.000000
1.670000,-1.590150,-0.392637,-1.499077,0.597034,1.231120,0.010922,1.115831,-0.950146,0.208180,2.214810,-2.323530,-0.213624,-5.937521,3.164956,-5.057952,-0.097979,-0.115691,0.000000,-0.233359,-0.223962,-0.000000
1.680000,-1.584124,-0.380373,-1.498957,0.608302,1.221503,0.012993,1.137676,-0.973221,0.205794,2.153732,-2.291229,-0.263440,-6.275712,3.295643,-4.902950,-0.100292,-0.117907,0.000000,-0.229229,-0.216846,0.000000
1.690000,-1.577984,-0.368207,-1.498817,0.619785,1.211657,0.015037,1.158894,-0.995966,0.202917,2.089343,-2.257608,-0.311641,-6.599811,3.428894,-4.735245,-0.102563,-0.120049,0.000000,-0.224967,-0.209397,-0.000000
1.700000,-1.571727,-0.356141,-1.498656,0.631477,1.201585,0.017049,1.179453,-1.018369,0.199567,2.021786,-2.222643,-0.358106,-6.909050,3.564588,-4.555838,-0.104791,-0.122116,0.000000,-0.220576,-0.201635,0.000000
1.710000,-1.565353,-0.344176,-1.498476,0.643372,1.191291,0.019026,1.199319,-1.040415,0.195761,1.951115,-2.186336,-0.402753,-7.200174,3.703294,-4.364936,-0.106974,-0.124103,0.000000,-0.216059,-0.193572,0.000000
1.720000,-1.558859,-0.332316,-1.498276,0.655461,1.180778,0.020963,1.218465,-1.062091,0.191518,1.877725,-2.148601,-0.445408,-7.475204,3.844115,-4.164422,-0.109111,-0.126008,0.000000,-0.211415,-0.185255,-0.000000
1.730000,-1.552243,-0.320561,-1.498057,0.667739,1.170050,0.022855,1.236865,-1.083382,0.186859,1.801667,-2.109448,-0.486013,-7.733674,3.986844,-3.955393,-0.111202,-0.127829,0.000000,-0.206649,-0.176696,-0.000000
1.740000,-1.545504,-0.308916,-1.497819,0.680196,1.159112,0.024699,1.254490,-1.104275,0.181805,1.723108,-2.068858,-0.524491,-7.975121,4.131275,-3.738940,-0.113244,-0.129564,0.000000,-0.201765,-0.167916,0.000000
1.750000,-1.538639,-0.297380,-1.497563,0.692826,1.147966,0.026490,1.271319,-1.124754,0.176377,1.642222,-2.026817,-0.560771,-8.199079,4.277202,-3.516160,-0.115237,-0.131209,0.000000,-0.196764,-0.158938,0.000000
1.760000,-1.531647,-0.285957,-1.497290,0.705620,1.136618,0.028225,1.287327,-1.144807,0.170597,1.559086,-1.983335,-0.594773,-8.402543,4.425054,-3.288747,-0.117179,-0.132763,0.000000,-0.191652,-0.149777,-0.000000
1.770000,-1.524526,-0.274648,-1.496999,0.718570,1.125072,0.029901,1.302494,-1.164416,0.164489,1.474119,-1.938341,-0.626505,-8.587900,4.573912,-3.057122,-0.119069,-0.134224,0.000000,-0.186426,-0.140477,0.000000
1.780000,-1.517275,-0.263456,-1.496692,0.731667,1.113331,0.031514,1.316803,-1.183568,0.158075,1.387389,-1.891855,-0.655905,-8.754997,4.723492,-2.822305,-0.120907,-0.135592,0.000000,-0.181091,-0.131050,0.000000
1.790000,-1.509892,-0.252382,-1.496369,0.744903,1.101402,0.033062,1.330237,-1.202248,0.151379,1.299080,-1.843870,-0.682944,-8.903679,4.873509,-2.585317,-0.122691,-0.136864,0.000000,-0.175650,-0.121518,-0.000000
1.800000,-1.502377,-0.241429,-1.496031,0.758269,1.089288,0.034541,1.342780,-1.220441,0.144424,1.209377,-1.794384,-0.707607,-9.033793,5.023680,-2.347180,-0.124420,-0.138040,0.000000,-0.170105,-0.111903,0.000000
1.810000,-1.494727,-0.230597,-1.495678,0.771755,1.076995,0.035949,1.354419,-1.238131,0.137235,1.118376,-1.743416,-0.729819,-9.142910,5.174200,-2.110645,-0.126093,-0.139119,0.000000,-0.164462,-0.102218,0.000000
1.820000,-1.486941,-0.219889,-1.495312,0.785354,1.064527,0.037285,1.365144,-1.255304,0.129836,1.026479,-1.690923,-0.749745,-9.233430,5.324247,-1.874791,-0.127709,-0.140101,0.000000,-0.158716,-0.092503,0.000000
1.830000,-1.479019,-0.209307,-1.494933,0.799055,1.051890,0.038545,1.374946,-1.271945,0.122248,0.933769,-1.636933,-0.767320,-9.305478,5.473479,-1.640425,-0.129267,-0.140985,0.000000,-0.152874,-0.082768,-0.000000
1.840000,-1.470960,-0.198852,-1.494541,0.812850,1.039090,0.039729,1.383818,-1.288038,0.114497,0.840431,-1.581457,-0.782561,-9.359179,5.621553,-1.408357,-0.130766,-0.141770,0.000000,-0.146937,-0.073033,0.000000
1.850000,-1.462762,-0.188526,-1.494138,0.826728,1.026132,0.040835,1.391753,-1.303569,0.106605,0.746647,-1.524507,-0.795497,-9.394657,5.768126,-1.179396,-0.132205,-0.142458,0.000000,-0.140907,-0.063317,-0.000000
1.860000,-1.454425,-0.178330,-1.493725,0.840682,1.013021,0.041861,1.398749,-1.318523,0.098596,0.652526,-1.466111,-0.806065,-9.410215,5.913113,-0.956794,-0.133584,-0.143048,0.000000,-0.134790,-0.053632,0.000000
1.870000,-1.445948,-0.168266,-1.493301,0.854700,0.999763,0.042806,1.404804,-1.332886,0.090491,0.558420,-1.406264,-0.814539,-9.408024,6.055883,-0.738618,-0.134901,-0.143540,0.000000,-0.128582,-0.044010,0.000000
1.880000,-1.437331,-0.158335,-1.492869,0.868775,0.986365,0.043671,1.409918,-1.346644,0.082312,0.464423,-1.345002,-0.820854,-9.388432,6.196062,-0.525375,-0.136155,-0.143936,0.000000,-0.122289,-0.034459,0.000000
1.890000,-1.428572,-0.148539,-1.492428,0.882895,0.972832,0.044453,1.414093,-1.359782,0.074081,0.370708,-1.282353,-0.825064,-9.351787,6.333275,-0.317577,-0.137346,-0.144236,0.000000,-0.115912,-0.024998,0.000000
1.900000,-1.419673,-0.138879,-1.491980,0.897053,0.959171,0.045152,1.417333,-1.372286,0.065818,0.277443,-1.218348,-0.827226,-9.298437,6.467148,-0.115732,-0.138473,-0.144441,0.000000,-0.109454,-0.015639,0.000000
1.910000,-1.410631,-0.129356,-1.491526,0.911239,0.945389,0.045769,1.419643,-1.384144,0.057544,0.184741,-1.153022,-0.827295,-9.227404,6.597308,0.076985,-0.139535,-0.144552,0.000000,-0.102920,-0.006395,0.000000
1.920000,-1.401448,-0.119972,-1.491065,0.925443,0.931491,0.046303,1.421031,-1.395343,0.049278,0.092889,-1.086415,-0.825589,-9.140525,6.723379,0.263056,-0.140531,-0.144571,0.000000,-0.096307,0.002712,-0.000000
1.930000,-1.392122,-0.110727,-1.490600,0.939657,0.917484,0.046754,1.421504,-1.405868,0.041038,0.001982,-1.018569,-0.822057,-9.038311,6.844988,0.442297,-0.141461,-0.144498,0.000000,-0.089622,0.011674,0.000000
1.940000,-1.382655,-0.101622,-1.490130,0.953870,0.903376,0.047124,1.421074,-1.415710,0.032843,-0.087828,-0.949531,-0.816766,-8.921272,6.961760,0.614525,-0.142323,-0.144336,0.000000,-0.082867,0.020479,-0.000000
1.950000,-1.373045,-0.092659,-1.489658,0.968075,0.889172,0.047412,1.419752,-1.424855,0.024709,-0.176396,-0.879351,-0.809790,-8.789919,7.073320,0.779557,-0.143118,-0.144085,0.000000,-0.076044,0.029114,0.000000
1.960000,-1.363293,-0.083839,-1.489182,0.982262,0.874881,0.047618,1.417548,-1.433292,0.016653,-0.263799,-0.807981,-0.801105,-8.639228,7.176699,0.934809,-0.143844,-0.143748,0.000000,-0.069149,0.037589,0.000000
1.970000,-1.353400,-0.075162,-1.488705,0.996423,0.860509,0.047745,1.414481,-1.441012,0.008692,-0.349385,-0.735720,-0.791011,-8.475922,7.274436,1.082791,-0.144501,-0.143326,0.000000,-0.062206,0.045846,0.000000
1.980000,-1.343365,-0.066629,-1.488228,1.010549,0.846063,0.047792,1.410566,-1.448003,0.000838,-0.433280,-0.662511,-0.779473,-8.301189,7.366475,1.223615,-0.145088,-0.142822,0.000000,-0.055207,0.053899,0.000000
1.990000,-1.333189,-0.058241,-1.487750,1.024632,0.831551,0.047762,1.405821,-1.454259,-0.006893,-0.515375,-0.588410,-0.766562,-8.116218,7.452759,1.357392,-0.145605,-0.142237,0.000000,-0.048157,0.061741,0.000000
2.000000,-1.322872,-0.049998,-1.487273,1.038663,0.816980,0.047655,1.400265,-1.459769,-0.014489,-0.595574,-0.513475,-0.752348,-7.922196,7.533232,1.484231,-0.146051,-0.141575,0.000000,-0.041059,0.069365,0.000000
2.010000,-1.312416,-0.041902,-1.486797,1.052634,0.802358,0.047473,1.393923,-1.464528,-0.021935,-0.673234,-0.437957,-0.736829,-7.734417,7.612674,1.602447,-0.146426,-0.140836,0.000000,-0.033934,0.076711,0.000000
2.020000,-1.301820,-0.033951,-1.486324,1.066539,0.787692,0.047217,1.386807,-1.468525,-0.029222,-0.749605,-0.361459,-0.720241,-7.538238,7.685601,1.714168,-0.146729,-0.140024,0.000000,-0.026741,0.083906,-0.000000
2.030000,-1.291085,-0.026148,-1.485853,1.080368,0.772990,0.046889,1.378937,-1.471755,-0.036337,-0.823969,-0.284268,-0.702566,-7.333119,7.751363,1.819724,-0.146961,-0.139141,0.000000,-0.019506,0.090883,-0.000000
2.040000,-1.280213,-0.018492,-1.485386,1.094115,0.758260,0.046491,1.370334,-1.474209,-0.043270,-0.896235,-0.206458,-0.683866,-7.118520,7.809312,1.919446,-0.147119,-0.138188,0.000000,-0.012234,0.097635,0.000000
2.050000,-1.269203,-0.010983,-1.484923,1.107772,0.743509,0.046024,1.361020,-1.475882,-0.050011,-0.966306,-0.128110,-0.664196,-6.893905,7.858799,2.013665,-0.147205,-0.137168,0.000000,-0.004929,0.104156,0.000000
2.060000,-1.258058,-0.003621,-1.484466,1.121333,0.728745,0.045491,1.351010,-1.476767,-0.056550,-1.034652,-0.049118,-0.643582,-6.644234,7.894252,2.102012,-0.147218,-0.136082,0.000000,0.002419,0.110494,0.000000
2.070000,-1.246777,0.003592,-1.484014,1.134790,0.713976,0.044894,1.340335,-1.476863,-0.062879,-1.099807,0.029964,-0.622140,-6.385244,7.920548,2.185604,-0.147157,-0.134934,0.000000,0.009763,0.116508,0.000000
2.080000,-1.235362,0.010658,-1.483568,1.148138,0.699210,0.044234,1.329022,-1.476167,-0.068990,-1.162330,0.109263,-0.599884,-6.118170,7.937643,2.264857,-0.147022,-0.133727,0.000000,0.017116,0.122256,0.000000
2.090000,-1.223815,0.017576,-1.483129,1.161369,0.684455,0.043515,1.317098,-1.474678,-0.074875,-1.222148,0.188686,-0.576856,-5.844249,7.945489,2.340186,-0.146814,-0.132464,0.000000,0.024472,0.127732,-0.000000
2.100000,-1.212135,0.024347,-1.482698,1.174478,0.669719,0.042738,1.304589,-1.472394,-0.080525,-1.279197,0.268141,-0.553092,-5.564718,7.944042,2.412009,-0.146533,-0.131146,0.000000,0.031822,0.132934,0.000000
2.110000,-1.200325,0.030971,-1.482275,1.187459,0.655010,0.041905,1.291521,-1.469314,-0.085934,-1.333608,0.347673,-0.528633,-5.276256,7.929795,2.480920,-0.146178,-0.129777,0.000000,0.039175,0.137875,0.000000
2.120000,-1.188387,0.037448,-1.481860,1.200307,0.640336,0.041020,1.277926,-1.465441,-0.091095,-1.384916,0.426862,-0.503491,-4.985215,7.906586,2.547135,-0.145749,-0.128360,0.000000,0.046492,0.142512,0.000000
2.130000,-1.176320,0.043778,-1.481454,1.213016,0.625704,0.040084,1.263833,-1.460777,-0.096002,-1.433309,0.505776,-0.477698,-4.693389,7.874793,2.611049,-0.145248,-0.126897,0.000000,0.053780,0.146865,-0.000000
2.140000,-1.164127,0.049962,-1.481059,1.225582,0.611123,0.039101,1.249270,-1.455326,-0.100647,-1.478788,0.584330,-0.451276,-4.402571,7.834796,2.673056,-0.144674,-0.125392,0.000000,0.061034,0.150935,0.000000
2.150000,-1.151809,0.056000,-1.480673,1.238000,0.596600,0.038072,1.234266,-1.449092,-0.105025,-1.521370,0.662446,-0.424242,-4.114557,7.786972,2.733552,-0.144027,-0.123847,0.000000,0.068248,0.154726,-0.000000
2.160000,-1.139367,0.061894,-1.480297,1.250265,0.582144,0.037001,1.218866,-1.442083,-0.109131,-1.559819,0.739685,-0.396658,-3.863349,7.740782,2.794174,-0.143309,-0.122267,0.000000,0.075383,0.158118,0.000000
2.170000,-1.126804,0.067644,-1.479933,1.262375,0.567761,0.035890,1.203078,-1.434300,-0.112956,-1.597207,0.816829,-0.368417,-3.614590,7.686410,2.853921,-0.142520,-0.120653,0.000000,0.082510,0.161412,-0.000000
2.180000,-1.114120,0.073250,-1.479580,1.274326,0.553460,0.034743,1.186930,-1.425748,-0.116497,-1.632112,0.893384,-0.339582,-3.366128,7.623120,2.913036,-0.141659,-0.119007,0.000000,0.089587,0.164471,0.000000
2.190000,-1.101318,0.078713,-1.479238,1.286113,0.539249,0.033561,1.170444,-1.416435,-0.119746,-1.664524,0.969259,-0.310158,-3.115815,7.550180,2.971760,-0.140728,-0.117331,0.000000,0.096605,0.167294,0.000000
2.200000,-1.088399,0.084035,-1.478908,1.297733,0.525134,0.032349,1.153648,-1.406366,-0.122698,-1.694415,1.044353,-0.280147,-2.861500,7.466854,3.030337,-0.139728,-0.115628,0.000000,0.103557,0.169879,0.000000
2.210000,-1.075364,0.089216,-1.478591,1.309186,0.511124,0.031108,1.136532,-1.395547,-0.125348,-1.724714,1.118842,-0.249635,-2.525745,7.365246,3.091135,-0.138657,-0.113898,0.000000,0.110457,0.172517,-0.000000
2.220000,-1.062215,0.094258,-1.478286,1.320464,0.497225,0.029843,1.119165,-1.383993,-0.127689,-1.748294,1.191941,-0.218419,-2.190907,7.252661,3.152011,-0.137519,-0.112146,0.000000,0.117239,0.174503,0.000000
2.230000,-1.048955,0.099161,-1.477994,1.331568,0.483446,0.028556,1.101578,-1.371713,-0.129714,-1.768559,1.263860,-0.186594,-1.864058,7.129244,3.212944,-0.136313,-0.110375,0.000000,0.123919,0.176175,0.000000
2.240000,-1.035585,0.103927,-1.477715,1.342495,0.469793,0.027250,1.083804,-1.358720,-0.131419,-1.785625,1.334490,-0.154160,-1.552266,6.995136,3.273918,-0.135041,-0.108590,0.000000,0.130489,0.177544,-0.000000
2.250000,-1.022106,0.108557,-1.477449,1.353244,0.456274,0.025928,1.065875,-1.345027,-0.132796,-1.799678,1.403727,-0.121116,-1.262601,6.850481,3.334914,-0.133703,-0.106793,0.000000,0.136938,0.178629,-0.000000
2.260000,-1.008520,0.113053,-1.477197,1.363811,0.442895,0.024595,1.047854,-1.330647,-0.133840,-1.807850,1.471769,-0.087564,-1.081052,6.687740,3.398495,-0.132302,-0.104990,0.000000,0.143293,0.179148,0.000000
2.270000,-0.994830,0.117416,-1.476958,1.374199,0.429663,0.023253,1.029724,-1.315598,-0.134545,-1.817865,1.537794,-0.053262,-0.926105,6.515680,3.461745,-0.130838,-0.103179,0.000000,0.149459,0.179859,0.000000
2.280000,-0.981037,0.121647,-1.476732,1.384406,0.416585,0.021905,1.011501,-1.299897,-0.134903,-1.826452,1.602056,-0.018331,-0.795167,6.335382,3.524332,-0.129313,-0.101362,0.000000,0.155470,0.180443,0.000000
2.290000,-0.967143,0.125748,-1.476519,1.394429,0.403667,0.020556,0.993199,-1.283563,-0.134909,-1.833839,1.664478,0.017221,-0.685642,6.147931,3.585921,-0.127729,-0.099540,0.000000,0.161319,0.180922,-0.000000
2.300000,-0.953149,0.129721,-1.476321,1.404269,0.390916,0.019208,0.974828,-1.266614,-0.134557,-1.840228,1.724994,0.053383,-0.594938,5.954410,3.646177,-0.126088,-0.097714,0.000000,0.166999,0.181315,0.000000
2.310000,-0.939058,0.133567,-1.476135,1.413925,0.378337,0.017866,0.956402,-1.249073,-0.133841,-1.845351,1.783227,0.090052,-0.531612,5.764038,3.706962,-0.124390,-0.095885,0.000000,0.172476,0.181599,0.000000
2.320000,-0.924871,0.137288,-1.475963,1.423397,0.365937,0.016533,0.937923,-1.230956,-0.132754,-1.850403,1.839895,0.127416,-0.480552,5.568768,3.765479,-0.122639,-0.094054,0.000000,0.177819,0.181890,0.000000
2.330000,-0.910591,0.140886,-1.475805,1.432684,0.353720,0.015212,0.919395,-1.212282,-0.131290,-1.854989,1.894586,0.165352,-0.437799,5.368686,3.821123,-0.120834,-0.092220,0.000000,0.182989,0.182149,0.000000
2.340000,-0.896218,0.144363,-1.475659,1.441785,0.341693,0.013908,0.900824,-1.193071,-0.129445,-1.859173,1.947253,0.203827,-0.399393,5.163881,3.873294,-0.118979,-0.090384,0.000000,0.187984,0.182384,-0.000000
2.350000,-0.881756,0.147721,-1.475526,1.450700,0.329860,0.012625,0.882213,-1.173343,-0.127212,-1.862978,1.997849,0.242804,-0.361375,4.954439,3.921387,-0.117075,-0.088547,0.000000,0.192799,0.182598,0.000000
2.360000,-0.867205,0.150961,-1.475406,1.459430,0.318228,0.011365,0.863533,-1.153122,-0.124588,-1.869383,2.046197,0.282194,-0.244167,4.743721,3.965956,-0.115124,-0.086704,0.000000,0.197416,0.183088,0.000000
2.370000,-0.852568,0.154086,-1.475299,1.467972,0.306800,0.010134,0.844829,-1.132427,-0.121567,-1.871243,2.092561,0.322054,-0.128687,4.528141,4.005100,-0.113128,-0.084861,0.000000,0.201869,0.183143,0.000000
2.380000,-0.837846,0.157098,-1.475204,1.476326,0.295581,0.008935,0.826112,-1.111278,-0.118145,-1.871980,2.136743,0.362275,-0.020235,4.307386,4.038076,-0.111087,-0.083018,0.000000,0.206134,0.183105,-0.000000
2.390000,-0.823042,0.159998,-1.475120,1.484494,0.284575,0.007773,0.807393,-1.089699,-0.114320,-1.871689,2.178690,0.402792,0.075890,4.081142,4.064138,-0.109006,-0.081176,0.000000,0.210209,0.182983,0.000000
2.400000,-0.808157,0.162790,-1.475048,1.492474,0.273788,0.006650,0.788681,-1.067712,-0.110089,-1.870521,2.218346,0.443532,0.154388,3.849097,4.082543,-0.106884,-0.079337,0.000000,0.214088,0.182793,0.000000
2.410000,-0.793193,0.165475,-1.474987,1.500267,0.263222,0.005572,0.770010,-1.045337,-0.105449,-1.866390,2.255919,0.484403,0.152164,3.604183,4.092859,-0.104724,-0.077502,0.000000,0.217795,0.182327,-0.000000
2.420000,-0.778152,0.168055,-1.474936,1.507874,0.252882,0.004543,0.751353,-1.022602,-0.100401,-1.864968,2.290713,0.525345,0.128791,3.353668,4.093991,-0.102529,-0.075670,0.000000,0.221256,0.182150,0.000000
2.430000,-0.763036,0.170533,-1.474896,1.515294,0.242771,0.003566,0.732709,-0.999531,-0.094943,-1.863878,2.322975,0.566249,0.086045,3.098066,4.085154,-0.100300,-0.073840,0.000000,0.224499,0.182027,0.000000
2.440000,-0.747847,0.172911,-1.474865,1.522528,0.232893,0.002645,0.714074,-0.976151,-0.089076,-1.863306,2.352659,0.607012,0.025703,2.837890,4.065568,-0.098039,-0.072011,0.000000,0.227519,0.181977,0.000000
2.450000,-0.732586,0.175192,-1.474843,1.529575,0.223249,0.001785,0.695441,-0.952487,-0.082803,-1.863417,2.379720,0.647522,-0.050457,2.573655,4.034448,-0.095750,-0.070182,0.000000,0.230313,0.182018,0.000000
2.460000,-0.717256,0.177377,-1.474829,1.536437,0.213844,0.000990,0.676800,-0.928563,-0.076126,-1.864579,2.404312,0.687712,-0.135179,2.301032,3.989706,-0.093434,-0.068353,0.000000,0.232895,0.182188,0.000000
2.470000,-0.701858,0.179469,-1.474823,1.543111,0.204679,0.000264,0.658146,-0.904410,-0.069051,-1.866408,2.425948,0.727332,-0.232836,2.025970,3.932026,-0.091093,-0.066522,0.000000,0.235219,0.182448,0.000000
2.480000,-0.686394,0.181471,-1.474823,1.549600,0.195756,-0.000389,0.639469,-0.880054,-0.061582,-1.869275,2.444827,0.766307,-0.342322,1.749575,3.860785,-0.088730,-0.064688,0.000000,0.237303,0.182838,0.000000
2.490000,-0.670867,0.183385,-1.474830,1.555901,0.187078,-0.000966,0.620757,-0.855522,-0.053727,-1.873290,2.460939,0.804500,-0.462529,1.472953,3.775359,-0.086348,-0.062850,0.000000,0.239146,0.183369,-0.000000
2.500000,-0.655277,0.185214,-1.474842,1.562015,0.178646,-0.001463,0.601999,-0.830844,-0.045495,-1.878557,2.474289,0.841765,-0.592352,1.197211,3.675126,-0.083948,-0.061007,0.000000,0.240749,0.184053,-0.000000
2.510000,-0.639627,0.186959,-1.474859,1.567940,0.170462,-0.001875,0.583183,-0.806048,-0.036894,-1.885042,2.484703,0.878066,-0.733820,0.928188,3.556550,-0.081534,-0.059156,0.000000,0.242091,0.184887,0.000000
2.520000,-0.623919,0.188624,-1.474880,1.573678,0.162526,-0.002199,0.564293,-0.781159,-0.027938,-1.893117,2.492650,0.912974,-0.882307,0.661679,3.422279,-0.079107,-0.057296,0.000000,0.243222,0.185910,0.000000
2.530000,-0.608154,0.190210,-1.474903,1.579226,0.154839,-0.002433,0.545315,-0.756204,-0.018639,-1.902706,2.497946,0.946459,-1.036322,0.398210,3.272044,-0.076670,-0.055425,0.000000,0.244121,0.187116,0.000000
2.540000,-0.592335,0.191721,-1.474928,1.584584,0.147402,-0.002571,0.526234,-0.731209,-0.009014,-1.913857,2.500626,0.978360,-1.194374,0.138309,3.105581,-0.074225,-0.053542,0.000000,0.244790,0.188510,0.000000
2.550000,-0.576463,0.193159,-1.474954,1.589750,0.140215,-0.002612,0.507033,-0.706200,0.000922,-1.926602,2.500726,1.008515,-1.354974,-0.117498,2.922622,-0.071775,-0.051644,0.000000,0.245232,0.190096,-0.000000
2.560000,-0.560540,0.194527,-1.474980,1.594724,0.133278,-0.002552,0.487693,-0.681205,0.011152,-1.941266,2.498112,1.036909,-1.508889,-0.364171,2.719063,-0.069322,-0.049729,0.000000,0.245429,0.191906,-0.000000
2.570000,-0.544569,0.195826,-1.475005,1.599504,0.126591,-0.002388,0.468202,-0.656246,0.021653,-1.957127,2.493257,1.063013,-1.663319,-0.606248,2.498946,-0.066867,-0.047796,0.000000,0.245430,0.193871,-0.000000
2.580000,-0.528551,0.197059,-1.475027,1.604088,0.120153,-0.002118,0.448545,-0.631347,0.032404,-1.974533,2.486003,1.086833,-1.817720,-0.843755,2.262475,-0.064414,-0.045843,0.000000,0.245217,0.196025,0.000000
2.590000,-0.512488,0.198230,-1.475047,1.608474,0.113963,-0.001739,0.428707,-0.606533,0.043382,-1.993480,2.476397,1.108208,-1.971550,-1.076716,2.009853,-0.061964,-0.043867,0.000000,0.244790,0.198366,-0.000000
2.600000,-0.496382,0.199339,-1.475062,1.612661,0.108022,-0.001249,0.408671,-0.581827,0.054560,-2.013960,2.464483,1.126977,-2.124266,-1.305158,1.741286,-0.059519,-0.041867,0.000000,0.244152,0.200896,-0.000000
2.610000,-0.480235,0.200391,-1.475071,1.616647,0.102326,-0.000647,0.388426,-0.557247,0.065914,-2.035657,2.450680,1.143158,-2.282970,-1.538503,1.452525,-0.057081,-0.039842,0.000000,0.243342,0.203579,0.000000
2.620000,-0.464050,0.201387,-1.475074,1.620429,0.096876,0.000069,0.367952,-0.532821,0.077413,-2.059268,2.434152,1.156177,-2.438539,-1.766228,1.148771,-0.054653,-0.037788,0.000000,0.242273,0.206489,-0.000000
2.630000,-0.447828,0.202329,-1.475070,1.624005,0.091669,0.000901,0.347235,-0.508572,0.089027,-2.084412,2.415378,1.166086,-2.589494,-1.987210,0.830772,-0.052236,-0.035705,0.000000,0.240990,0.209585,0.000000
2.640000,-0.431570,0.203221,-1.475056,1.627373,0.086704,0.001850,0.326259,-0.484521,0.100724,-2.111037,2.394434,1.172747,-2.734357,-2.200322,0.499276,-0.049833,-0.033590,0.000000,0.239497,0.212861,-0.000000
2.650000,-0.415281,0.204064,-1.475032,1.630529,0.081978,0.002916,0.305010,-0.460690,0.112471,-2.139074,2.371402,1.176029,-2.871648,-2.404440,0.155033,-0.047447,-0.031442,0.000000,0.237798,0.216307,0.000000
2.660000,-0.398961,0.204861,-1.474997,1.633472,0.077489,0.004099,0.283473,-0.437101,0.124235,-2.168410,2.346272,1.175970,-3.000656,-2.595750,-0.205320,-0.045078,-0.029259,0.000000,0.235888,0.219910,0.000000
2.670000,-0.382612,0.205615,-1.474950,1.636198,0.073235,0.005401,0.261637,-0.413771,0.135978,-2.199018,2.319403,1.172070,-3.119041,-2.776145,-0.576420,-0.042730,-0.027039,0.000000,0.233802,0.223667,0.000000
2.680000,-0.366237,0.206327,-1.474889,1.638704,0.069213,0.006819,0.239489,-0.390718,0.147663,-2.230750,2.290788,1.164410,-3.225231,-2.944828,-0.957014,-0.040403,-0.024781,0.000000,0.231533,0.227558,0.000000
2.690000,-0.349839,0.207000,-1.474813,1.640986,0.065420,0.008354,0.217019,-0.367960,0.159253,-2.263476,2.260548,1.152902,-3.317653,-3.101004,-1.345851,-0.038100,-0.022483,0.000000,0.229091,0.231567,0.000000
2.700000,-0.333418,0.207636,-1.474721,1.643043,0.061853,0.010003,0.194217,-0.345512,0.170708,-2.297052,2.228813,1.137470,-3.394735,-3.243876,-1.741678,-0.035822,-0.020146,0.000000,0.226485,0.235676,0.000000
2.710000,-0.316979,0.208237,-1.474613,1.644870,0.058509,0.011767,0.171071,-0.323392,0.181991,-2.331720,2.195441,1.118163,-3.444669,-3.365657,-2.146111,-0.033571,-0.017766,0.000000,0.223695,0.239906,0.000000
2.720000,-0.300522,0.208807,-1.474486,1.646463,0.055384,0.013642,0.147581,-0.301607,0.193058,-2.366345,2.161234,1.094662,-3.477371,-3.473399,-2.554680,-0.031348,-0.015345,0.000000,0.220801,0.244136,0.000000
2.730000,-0.284050,0.209346,-1.474339,1.647820,0.052475,0.015627,0.123744,-0.280170,0.203870,-2.401209,2.126020,1.067061,-3.492521,-3.567162,-2.965780,-0.029155,-0.012881,0.000000,0.217783,0.248389,-0.000000
2.740000,-0.267566,0.209857,-1.474173,1.648937,0.049779,0.017719,0.099557,-0.259090,0.214386,-2.436135,2.089937,1.035343,-3.489800,-3.647005,-3.377808,-0.026993,-0.010375,0.000000,0.214649,0.252641,-0.000000
2.750000,-0.251072,0.210342,-1.473985,1.649810,0.047292,0.019914,0.075021,-0.238374,0.224563,-2.470944,2.053126,0.999507,-3.468888,-3.712990,-3.789161,-0.024862,-0.007826,0.000000,0.211412,0.256870,0.000000
2.760000,-0.234571,0.210803,-1.473774,1.650436,0.045011,0.022209,0.050138,-0.218029,0.234363,-2.505549,2.015737,0.959617,-3.427000,-3.765523,-4.199470,-0.022765,-0.005236,0.000000,0.208083,0.261059,0.000000
2.770000,-0.218064,0.211243,-1.473540,1.650812,0.042931,0.024600,0.024912,-0.198061,0.243742,-2.539533,1.977877,0.915586,-3.366585,-3.804276,-4.605746,-0.020701,-0.002604,0.000000,0.204671,0.265160,-0.000000
2.780000,-0.201555,0.211663,-1.473282,1.650933,0.041048,0.027082,-0.000650,-0.178473,0.252661,-2.572819,1.939698,0.867521,-3.287626,-3.829264,-5.006234,-0.018672,0.000068,0.000000,0.201189,0.269158,0.000000
2.790000,-0.185047,0.212065,-1.472998,1.650798,0.039360,0.029651,-0.026541,-0.159268,0.261079,-2.605223,1.901337,0.815487,-3.190105,-3.840506,-5.399180,-0.016678,0.002780,0.000000,0.197648,0.273026,0.000000
2.800000,-0.168540,0.212451,-1.472688,1.650401,0.037862,0.032302,-0.052751,-0.140446,0.268958,-2.636559,1.862933,0.759568,-3.074005,-3.838019,-5.782829,-0.014719,0.005529,0.000000,0.194060,0.276740,0.000000
2.810000,-0.152039,0.212822,-1.472352,1.649742,0.036550,0.035029,-0.079271,-0.122010,0.276258,-2.666842,1.824512,0.699828,-2.934247,-3.819032,-6.154435,-0.012797,0.008315,0.000000,0.190427,0.280295,0.000000
2.820000,-0.135546,0.213182,-1.471988,1.648815,0.035420,0.037825,-0.106083,-0.103955,0.282942,-2.695410,1.786473,0.636478,-2.776496,-3.786693,-6.513356,-0.010910,0.011134,0.000000,0.186787,0.283613,0.000000
2.830000,-0.119064,0.213531,-1.471595,1.647619,0.034469,0.040685,-0.133173,-0.086279,0.288975,-2.722314,1.748822,0.569609,-2.601354,-3.741360,-6.857959,-0.009061,0.013986,0.000000,0.183141,0.286695,0.000000
2.840000,-0.102595,0.213872,-1.471174,1.646151,0.033693,0.043602,-0.160523,-0.068977,0.294323,-2.747381,1.711688,0.499372,-2.409425,-3.683393,-7.186610,-0.007248,0.016868,0.000000,0.179501,0.289517,0.000000
2.850000,-0.086142,0.214206,-1.470723,1.644408,0.033089,0.046569,-0.188114,-0.052043,0.298952,-2.770448,1.675195,0.425935,-2.201310,-3.613152,-7.497677,-0.005471,0.019776,0.000000,0.175878,0.292055,0.000000
