time,x,y,z,vx,vy,vz,ax,ay,az,jx,jy,jz,sx,sy,sz,roll,pitch,yaw,p,q,r
0.000000,-1.625046,-2.213207,-1.491426,0.001931,-0.016436,0.006906,0.158286,0.271923,0.002051,-3.852422,-6.914785,-0.031724,87.492779,190.967852,-0.810294,0.027714,-0.016137,0.000000,-0.704299,0.392585,-0.000000
0.010000,-1.625019,-2.213358,-1.491357,0.003336,-0.014032,0.006925,0.123982,0.211979,0.001693,-3.023540,-5.107558,-0.039723,78.394125,170.729650,-0.786336,0.021607,-0.012640,0.000000,-0.520457,0.308193,0.000000
0.020000,-1.624980,-2.213489,-1.491287,0.004437,-0.012140,0.006940,0.097523,0.169122,0.001257,-2.282373,-3.495251,-0.047391,69.945413,151.973642,-0.744494,0.017239,-0.009942,0.000000,-0.356260,0.232678,-0.000000
0.030000,-1.624931,-2.213602,-1.491218,0.005310,-0.010599,0.006950,0.078063,0.141473,0.000747,-1.622552,-2.063348,-0.054557,62.120537,134.638849,-0.686121,0.014421,-0.007958,0.000000,-0.210358,0.165427,0.000000
0.040000,-1.624874,-2.213702,-1.491148,0.006019,-0.009266,0.006954,0.064821,0.127300,0.000168,-1.037970,-0.797940,-0.061063,54.893390,118.664289,-0.612569,0.012976,-0.006608,0.000000,-0.081397,0.105837,0.000000
0.050000,-1.624811,-2.213788,-1.491079,0.006624,-0.008013,0.006953,0.057073,0.125004,-0.000471,-0.522779,0.314269,-0.066763,48.237865,103.988982,-0.525192,0.012741,-0.005817,0.000000,0.031946,0.053321,0.000000
0.060000,-1.624742,-2.213862,-1.491009,0.007177,-0.006731,0.006945,0.054153,0.133117,-0.001164,-0.071394,1.285967,-0.071525,42.127857,90.551947,-0.425342,0.013567,-0.005519,0.000000,0.130947,0.007316,-0.000000
0.070000,-1.624668,-2.213922,-1.490940,0.007721,-0.005321,0.006929,0.055450,0.150295,-0.001898,0.321510,2.129232,-0.075233,36.537259,78.292204,-0.314372,0.015316,-0.005651,0.000000,0.216830,-0.032719,-0.000000
0.080000,-1.624588,-2.213967,-1.490871,0.008298,-0.003699,0.006907,0.060405,0.175312,-0.002664,0.660995,2.855532,-0.077780,31.439965,67.148772,-0.193633,0.017864,-0.006156,0.000000,0.290757,-0.067299,-0.000000
0.090000,-1.624501,-2.213995,-1.490802,0.008940,-0.001792,0.006876,0.068508,0.207052,-0.003450,0.951866,3.475725,-0.079077,26.809867,57.060670,-0.064480,0.021095,-0.006981,0.000000,0.353829,-0.096914,0.000000
0.100000,-1.624408,-2.214002,-1.490733,0.009677,0.000461,0.006838,0.079295,0.244507,-0.004242,1.198663,4.000060,-0.079046,22.620861,47.966919,0.071735,0.024907,-0.008079,0.000000,0.407086,-0.122024,0.000000
0.110000,-1.624308,-2.213985,-1.490665,0.010533,0.003114,0.006791,0.092349,0.286766,-0.005026,1.405667,4.438175,-0.077623,18.846838,39.806536,0.213660,0.029207,-0.009409,0.000000,0.451506,-0.143068,0.000000
0.120000,-1.624197,-2.213938,-1.490597,0.011530,0.006210,0.006737,0.107290,0.333013,-0.005789,1.576896,4.799099,-0.074758,15.461694,32.518541,0.359941,0.033911,-0.010930,0.000000,0.488008,-0.160454,-0.000000
0.130000,-1.624076,-2.213859,-1.490530,0.012684,0.009785,0.006676,0.123780,0.382519,-0.006516,1.716110,5.091250,-0.070415,12.439320,26.041955,0.509227,0.038944,-0.012609,0.000000,0.517449,-0.174568,0.000000
0.140000,-1.623943,-2.213741,-1.490464,0.014010,0.013869,0.006607,0.141517,0.434635,-0.007193,1.826805,5.322439,-0.064568,9.753612,20.315796,0.660164,0.044239,-0.014414,0.000000,0.540629,-0.185767,0.000000
0.150000,-1.623796,-2.213580,-1.490398,0.015518,0.018485,0.006532,0.160232,0.488788,-0.007803,1.912217,5.499865,-0.057210,7.378462,15.279083,0.811400,0.049738,-0.016319,0.000000,0.558287,-0.194383,-0.000000
0.160000,-1.623632,-2.213369,-1.490333,0.017217,0.023650,0.006451,0.179687,0.544475,-0.008332,1.975322,5.630116,-0.048344,5.287764,10.870837,0.961582,0.055389,-0.018299,0.000000,0.571100,-0.200721,-0.000000
0.170000,-1.623451,-2.213105,-1.490269,0.019114,0.029378,0.006366,0.199673,0.601253,-0.008765,2.018834,5.719173,-0.037987,3.455412,7.030076,1.109357,0.061146,-0.020333,0.000000,0.579688,-0.205062,0.000000
0.180000,-1.623249,-2.212780,-1.490206,0.021212,0.035677,0.006276,0.220006,0.658739,-0.009087,2.045205,5.772406,-0.026169,1.855299,3.695820,1.253373,0.066970,-0.022402,0.000000,0.584607,-0.207658,-0.000000
0.190000,-1.623026,-2.212389,-1.490144,0.023514,0.042554,0.006184,0.240527,0.716598,-0.009283,2.056627,5.794574,-0.012936,0.461319,0.807088,1.392277,0.072828,-0.024490,0.000000,0.586354,-0.208735,-0.000000
0.200000,-1.622778,-2.211927,-1.490082,0.026022,0.050010,0.006091,0.261095,0.774541,-0.009341,2.055031,5.789829,0.001655,-0.752635,-1.697101,1.524716,0.078688,-0.026584,0.000000,0.585362,-0.208493,0.000000
0.210000,-1.622505,-2.211387,-1.490022,0.028735,0.058041,0.005998,0.281635,0.832430,-0.009247,2.046259,5.772173,0.017460,-1.918031,-4.141981,1.651144,0.084539,-0.028674,0.000000,0.583059,-0.207529,-0.000000
0.220000,-1.622203,-2.210764,-1.489962,0.031653,0.066653,0.005907,0.301984,0.889908,-0.008988,2.021843,5.719770,0.034566,-2.942713,-6.291921,1.768181,0.090342,-0.030745,0.000000,0.577254,-0.204986,-0.000000
0.230000,-1.621871,-2.210052,-1.489904,0.034773,0.075837,0.005819,0.322040,0.946759,-0.008552,1.987829,5.647223,0.052788,-3.839884,-8.175544,1.874252,0.096077,-0.032787,0.000000,0.569439,-0.201482,-0.000000
0.240000,-1.621507,-2.209246,-1.489846,0.038093,0.085586,0.005736,0.341713,1.002794,-0.007928,1.945426,5.557051,0.072009,-4.622750,-9.821473,1.967784,0.101725,-0.034791,0.000000,0.559879,-0.197141,-0.000000
0.250000,-1.621108,-2.208339,-1.489789,0.041606,0.095890,0.005661,0.360924,1.057848,-0.007109,1.895711,5.451490,0.092096,-5.304515,-11.258331,2.047203,0.107269,-0.036748,0.000000,0.548812,-0.192076,-0.000000
0.260000,-1.620674,-2.207326,-1.489733,0.045309,0.106737,0.005595,0.379629,1.111830,-0.006082,1.841718,5.337245,0.113087,-5.951149,-12.634948,2.106219,0.112702,-0.038655,0.000000,0.536922,-0.186596,-0.000000
0.270000,-1.620202,-2.206202,-1.489677,0.049196,0.118120,0.005540,0.397738,1.164550,-0.004845,1.779314,5.204713,0.134375,-6.516631,-13.845020,2.148551,0.118004,-0.040502,0.000000,0.523251,-0.180282,0.000000
0.280000,-1.619689,-2.204962,-1.489622,0.053261,0.130024,0.005499,0.415197,1.215887,-0.003393,1.711634,5.060854,0.155999,-7.007705,-14.902452,2.173203,0.123163,-0.042284,0.000000,0.508508,-0.173454,0.000000
0.290000,-1.619136,-2.203600,-1.489567,0.057498,0.142433,0.005473,0.431956,1.265734,-0.001725,1.639386,4.907126,0.177777,-7.431115,-15.821145,2.179178,0.128171,-0.043996,0.000000,0.492843,-0.166183,0.000000
0.300000,-1.618539,-2.202112,-1.489512,0.061898,0.155333,0.005465,0.447972,1.314001,0.000162,1.563214,4.744847,0.199517,-7.793605,-16.615004,2.165480,0.133018,-0.045634,0.000000,0.476393,-0.158534,-0.000000
0.310000,-1.617897,-2.200492,-1.489458,0.066454,0.168707,0.005477,0.463220,1.360630,0.002268,1.484730,4.577341,0.221347,-8.128078,-17.352118,2.122793,0.137699,-0.047195,0.000000,0.459496,-0.150670,-0.000000
0.320000,-1.617209,-2.198736,-1.489403,0.071159,0.182539,0.005511,0.477656,1.405525,0.004587,1.401989,4.400569,0.242276,-8.411916,-17.985570,2.059458,0.142206,-0.048675,0.000000,0.441738,-0.142391,0.000000
0.330000,-1.616474,-2.196839,-1.489347,0.076004,0.196812,0.005569,0.491251,1.448622,0.007112,1.316649,4.217951,0.262468,-8.648659,-18.522629,1.975498,0.146532,-0.050071,0.000000,0.423464,-0.133864,0.000000
0.340000,-1.615689,-2.194798,-1.489291,0.080981,0.211506,0.005654,0.503982,1.489868,0.009833,1.229161,4.030414,0.281717,-8.841849,-18.970564,1.870935,0.150673,-0.051381,0.000000,0.404763,-0.125132,-0.000000
0.350000,-1.614854,-2.192608,-1.489234,0.086081,0.226603,0.005766,0.515829,1.529217,0.012742,1.139945,3.838812,0.299818,-8.995027,-19.336643,1.745792,0.154626,-0.052602,0.000000,0.385717,-0.116235,-0.000000
0.360000,-1.613967,-2.190265,-1.489176,0.091295,0.242083,0.005909,0.526782,1.566643,0.015829,1.049888,3.644892,0.316906,-9.124495,-19.652446,1.591458,0.158388,-0.053733,0.000000,0.366497,-0.107262,0.000000
0.370000,-1.613027,-2.187765,-1.489116,0.096614,0.257929,0.006083,0.536823,1.602105,0.019075,0.958140,3.447083,0.331967,-9.219470,-19.897954,1.417646,0.161955,-0.054774,0.000000,0.346929,-0.098119,-0.000000
0.380000,-1.612034,-2.185105,-1.489054,0.102028,0.274119,0.006291,0.545942,1.635578,0.022462,0.865607,3.247153,0.345198,-9.281930,-20.077460,1.225433,0.165326,-0.055722,0.000000,0.327187,-0.088898,-0.000000
0.390000,-1.610986,-2.182282,-1.488990,0.107529,0.290633,0.006533,0.554133,1.667043,0.025972,0.772603,3.045740,0.356418,-9.313854,-20.195254,1.015898,0.168499,-0.056576,0.000000,0.307324,-0.079626,-0.000000
0.400000,-1.609883,-2.179291,-1.488923,0.113108,0.307453,0.006811,0.561394,1.696490,0.029583,0.679425,2.843439,0.365462,-9.317218,-20.255629,0.790122,0.171472,-0.057337,0.000000,0.287393,-0.070331,0.000000
0.410000,-1.608724,-2.176132,-1.488854,0.118754,0.324556,0.007125,0.567725,1.723916,0.033276,0.586584,2.641234,0.372423,-9.299967,-20.273732,0.542789,0.174247,-0.058004,0.000000,0.267484,-0.061062,0.000000
0.420000,-1.607508,-2.172799,-1.488781,0.124459,0.341924,0.007476,0.573126,1.749315,0.037023,0.493776,2.438616,0.376558,-9.257383,-20.241671,0.282154,0.176822,-0.058577,0.000000,0.247529,-0.051783,-0.000000
0.430000,-1.606235,-2.169292,-1.488704,0.130214,0.359536,0.007865,0.577602,1.772690,0.040798,0.401516,2.236558,0.378028,-9.190714,-20.162408,0.010081,0.179198,-0.059056,0.000000,0.227618,-0.042545,-0.000000
0.440000,-1.604904,-2.165608,-1.488623,0.136008,0.377371,0.008292,0.581159,1.794049,0.044575,0.310038,2.035516,0.376728,-9.101207,-20.038905,-0.271569,0.181375,-0.059442,0.000000,0.207789,-0.033368,0.000000
0.450000,-1.603514,-2.161744,-1.488538,0.141834,0.395410,0.008757,0.583806,1.813405,0.048323,0.219564,1.835917,0.372571,-8.990111,-19.874124,-0.560934,0.183354,-0.059735,0.000000,0.188075,-0.024273,0.000000
0.460000,-1.602067,-2.157699,-1.488448,0.147681,0.413633,0.009259,0.585556,1.830776,0.052017,0.130402,1.638352,0.365599,-8.861154,-19.675859,-0.858910,0.185137,-0.059936,0.000000,0.168528,-0.015290,-0.000000
0.470000,-1.600561,-2.153471,-1.488353,0.153542,0.432019,0.009797,0.586419,1.846179,0.055625,0.042516,1.442736,0.355504,-8.712799,-19.441651,-1.160539,0.186725,-0.060046,0.000000,0.149129,-0.006413,0.000000
0.480000,-1.598996,-2.149058,-1.488252,0.159407,0.450550,0.010371,0.586411,1.859639,0.059117,-0.043793,1.249631,0.342383,-8.545990,-19.173871,-1.463621,0.188120,-0.060067,0.000000,0.129927,0.002329,-0.000000
0.490000,-1.597373,-2.144460,-1.488145,0.165267,0.469205,0.010979,0.585549,1.871181,0.062463,-0.128345,1.059362,0.326234,-8.361671,-18.874890,-1.765958,0.189324,-0.059999,0.000000,0.110952,0.010918,0.000000
0.500000,-1.595691,-2.139674,-1.488032,0.171115,0.487967,0.011619,0.583851,1.880837,0.065632,-0.210971,0.872229,0.307074,-8.160788,-18.547080,-2.065349,0.190340,-0.059845,0.000000,0.092226,0.019336,-0.000000
0.510000,-1.593950,-2.134700,-1.487913,0.176941,0.506816,0.012291,0.581337,1.888638,0.068594,-0.291479,0.688600,0.284899,-7.945038,-18.195122,-2.358451,0.191170,-0.059606,0.000000,0.073783,0.027565,-0.000000
0.520000,-1.592152,-2.129537,-1.487786,0.182739,0.525734,0.012990,0.578029,1.894621,0.071320,-0.369789,0.508511,0.259878,-7.714519,-17.818795,-2.644347,0.191816,-0.059284,0.000000,0.055626,0.035595,0.000000
0.530000,-1.590296,-2.124185,-1.487653,0.188499,0.544702,0.013716,0.573949,1.898821,0.073782,-0.445723,0.332299,0.232043,-7.470081,-17.420186,-2.920980,0.192283,-0.058882,0.000000,0.037786,0.043406,0.000000
0.540000,-1.588382,-2.118643,-1.487512,0.194215,0.563704,0.014465,0.569122,1.901280,0.075952,-0.519147,0.160175,0.201496,-7.212576,-17.001383,-3.186287,0.192573,-0.058401,0.000000,0.020284,0.050985,0.000000
0.550000,-1.586412,-2.112911,-1.487363,0.199879,0.582722,0.015234,0.563575,1.902039,0.077804,-0.589934,-0.007669,0.168362,-6.942855,-16.564475,-3.438211,0.192690,-0.057844,0.000000,0.003140,0.058316,-0.000000
0.560000,-1.584385,-2.106989,-1.487207,0.205485,0.601740,0.016020,0.557333,1.901142,0.079309,-0.657963,-0.170997,0.132609,-6.661848,-16.113163,-3.670281,0.192637,-0.057213,0.000000,-0.013623,0.065386,0.000000
0.570000,-1.582302,-2.100876,-1.487043,0.211024,0.620740,0.016819,0.550425,1.898635,0.080448,-0.723132,-0.329813,0.094816,-6.370319,-15.647724,-3.885387,0.192419,-0.056512,0.000000,-0.029996,0.072179,0.000000
0.580000,-1.580165,-2.094574,-1.486871,0.216491,0.639707,0.017628,0.542880,1.894562,0.081199,-0.785337,-0.483911,0.054963,-6.069110,-15.170050,-4.082011,0.192039,-0.055744,0.000000,-0.045957,0.078685,0.000000
0.590000,-1.577973,-2.088082,-1.486690,0.221880,0.658626,0.018442,0.534729,1.888972,0.081541,-0.844485,-0.633179,0.013242,-5.759063,-14.682031,-4.258632,0.191501,-0.054910,0.000000,-0.061490,0.084889,0.000000
0.600000,-1.575727,-2.081402,-1.486502,0.227184,0.677482,0.019257,0.526001,1.881915,0.081458,-0.900492,-0.777524,-0.030138,-5.441020,-14.185559,-4.413732,0.190811,-0.054015,0.000000,-0.076581,0.090781,-0.000000
0.610000,-1.573429,-2.074533,-1.486305,0.232398,0.696260,0.020070,0.516729,1.873439,0.080931,-0.953279,-0.916793,-0.075212,-5.115894,-13.684431,-4.539315,0.189971,-0.053062,0.000000,-0.091212,0.096351,-0.000000
0.620000,-1.571080,-2.067477,-1.486101,0.237517,0.714946,0.020874,0.506946,1.863596,0.079950,-1.002785,-1.051111,-0.121134,-4.784448,-13.178398,-4.641130,0.188988,-0.052054,0.000000,-0.105376,0.101587,-0.000000
0.630000,-1.568679,-2.060234,-1.485888,0.242535,0.733527,0.021667,0.496685,1.852434,0.078505,-1.048949,-1.180350,-0.167953,-4.447515,-12.669117,-4.718449,0.187865,-0.050995,0.000000,-0.119061,0.106481,0.000000
0.640000,-1.566229,-2.052807,-1.485667,0.247449,0.751990,0.022443,0.485979,1.840006,0.076589,-1.091720,-1.304488,-0.215419,-4.105929,-12.158243,-4.770547,0.186608,-0.049887,0.000000,-0.132254,0.111024,0.000000
0.650000,-1.563731,-2.045195,-1.485439,0.252253,0.770323,0.023197,0.474862,1.826361,0.074196,-1.131055,-1.423515,-0.263277,-3.760522,-11.647436,-4.796696,0.185222,-0.048736,0.000000,-0.144948,0.115210,-0.000000
0.660000,-1.561185,-2.037401,-1.485203,0.256945,0.788514,0.023925,0.463369,1.811554,0.071320,-1.166902,-1.537337,-0.311546,-3.412590,-11.141003,-4.789050,0.183711,-0.047544,0.000000,-0.157129,0.119032,-0.000000
0.670000,-1.558592,-2.029425,-1.484961,0.261519,0.806551,0.024622,0.451536,1.795632,0.067965,-1.199279,-1.646227,-0.359288,-3.062449,-10.637625,-4.754874,0.182081,-0.046316,0.000000,-0.168806,0.122486,-0.000000
0.680000,-1.555955,-2.021270,-1.484711,0.265974,0.824423,0.025283,0.439396,1.778646,0.064136,-1.228146,-1.750104,-0.406556,-2.710875,-10.138636,-4.694312,0.180337,-0.045055,0.000000,-0.179966,0.125569,-0.000000
0.690000,-1.553273,-2.012937,-1.484455,0.270306,0.842120,0.025903,0.426984,1.760646,0.059837,-1.253494,-1.849019,-0.453087,-2.358645,-9.645366,-4.607510,0.178483,-0.043765,0.000000,-0.190608,0.128276,-0.000000
0.700000,-1.550549,-2.004428,-1.484193,0.274513,0.859632,0.026478,0.414337,1.741682,0.055077,-1.275320,-1.943035,-0.498619,-2.006536,-9.159149,-4.494611,0.176526,-0.042449,0.000000,-0.200731,0.130606,0.000000
0.710000,-1.547783,-1.995745,-1.483926,0.278593,0.876951,0.027003,0.401490,1.721803,0.049866,-1.293589,-2.032096,-0.543147,-1.656317,-8.684713,-4.349320,0.174471,-0.041113,0.000000,-0.210326,0.132556,0.000000
0.720000,-1.544977,-1.986890,-1.483653,0.282543,0.894066,0.027474,0.388477,1.701055,0.044220,-1.308407,-2.116609,-0.585809,-1.307652,-8.219578,-4.179011,0.172321,-0.039758,0.000000,-0.219417,0.134133,-0.000000
0.730000,-1.542133,-1.977865,-1.483376,0.286362,0.910969,0.027886,0.375334,1.679486,0.038156,-1.319749,-2.196521,-0.626647,-0.961195,-7.764662,-3.984620,0.170084,-0.038391,0.000000,-0.227998,0.135335,0.000000
0.740000,-1.539251,-1.968671,-1.483096,0.290049,0.927653,0.028236,0.362094,1.657140,0.031694,-1.327640,-2.271939,-0.665425,-0.617602,-7.320882,-3.767079,0.167763,-0.037013,0.000000,-0.236074,0.136166,0.000000
0.750000,-1.536332,-1.959312,-1.482812,0.293603,0.944109,0.028519,0.348792,1.634062,0.024855,-1.332113,-2.342979,-0.701915,-0.277529,-6.889155,-3.527323,0.165364,-0.035630,0.000000,-0.243652,0.136628,-0.000000
0.760000,-1.533379,-1.949790,-1.482526,0.297025,0.960332,0.028732,0.335463,1.610296,0.017662,-1.333148,-2.409615,-0.736089,0.056941,-6.474191,-3.261509,0.162892,-0.034244,0.000000,-0.250729,0.136720,0.000000
0.770000,-1.530392,-1.940107,-1.482238,0.300313,0.976313,0.028871,0.322140,1.585883,0.010142,-1.330926,-2.472338,-0.767292,0.386756,-6.072648,-2.975932,0.160351,-0.032860,0.000000,-0.257343,0.136462,-0.000000
0.780000,-1.527373,-1.930265,-1.481949,0.303468,0.992047,0.028934,0.308856,1.560863,0.002326,-1.325430,-2.531115,-0.795547,0.711434,-5.684980,-2.672110,0.157747,-0.031481,0.000000,-0.263494,0.135852,0.000000
0.790000,-1.524323,-1.920267,-1.481659,0.306490,1.007528,0.028917,0.295642,1.535273,-0.005758,-1.316716,-2.586086,-0.820679,1.030497,-5.311638,-2.351564,0.155083,-0.030110,0.000000,-0.269192,0.134899,-0.000000
0.800000,-1.521244,-1.910115,-1.481370,0.309381,1.022751,0.028818,0.282532,1.509153,-0.014077,-1.304841,-2.637397,-0.842528,1.343462,-4.953074,-2.015812,0.152364,-0.028751,0.000000,-0.274452,0.133609,0.000000
0.810000,-1.518136,-1.899812,-1.481083,0.312141,1.037710,0.028635,0.269557,1.482539,-0.022599,-1.289805,-2.685052,-0.861052,1.648252,-4.613428,-1.663789,0.149595,-0.027408,0.000000,-0.279277,0.131986,-0.000000
0.820000,-1.515001,-1.889362,-1.480798,0.314772,1.052400,0.028365,0.256746,1.455463,-0.031286,-1.271827,-2.729551,-0.875879,1.946179,-4.289013,-1.299915,0.146780,-0.026083,0.000000,-0.283713,0.130053,0.000000
0.830000,-1.511841,-1.878765,-1.480516,0.317277,1.066818,0.028008,0.244130,1.427958,-0.040104,-1.250905,-2.770883,-0.887017,2.236959,-3.979830,-0.926023,0.143922,-0.024779,0.000000,-0.287761,0.127811,-0.000000
0.840000,-1.508656,-1.868026,-1.480238,0.319656,1.080958,0.027563,0.231737,1.400055,-0.049014,-1.227113,-2.809199,-0.894372,2.520307,-3.685881,-0.543948,0.141026,-0.023501,0.000000,-0.291441,0.125272,-0.000000
0.850000,-1.505448,-1.857147,-1.479965,0.321912,1.094817,0.027028,0.219597,1.371784,-0.057978,-1.200525,-2.844651,-0.897874,2.795940,-3.407166,-0.155525,0.138095,-0.022250,0.000000,-0.294769,0.122445,0.000000
0.860000,-1.502219,-1.846131,-1.479698,0.324049,1.108392,0.026403,0.207737,1.343173,-0.066959,-1.171164,-2.877274,-0.897480,3.062139,-3.146695,0.237710,0.135132,-0.021029,0.000000,-0.297753,0.119335,-0.000000
0.870000,-1.498968,-1.834980,-1.479437,0.326068,1.121680,0.025689,0.196182,1.314247,-0.075915,-1.139245,-2.907500,-0.893125,3.320229,-2.901091,0.633587,0.132141,-0.019842,0.000000,-0.300439,0.115966,-0.000000
0.880000,-1.495698,-1.823698,-1.479184,0.327973,1.134676,0.024885,0.184960,1.285031,-0.084808,-1.104787,-2.935344,-0.884806,3.570098,-2.669987,1.030232,0.129124,-0.018690,0.000000,-0.302833,0.112342,0.000000
0.890000,-1.492409,-1.812288,-1.478940,0.329768,1.147380,0.023993,0.174095,1.255547,-0.093598,-1.067871,-2.960947,-0.872524,3.811639,-2.453016,1.425775,0.126085,-0.017577,0.000000,-0.304955,0.108474,-0.000000
0.900000,-1.489103,-1.800752,-1.478705,0.331457,1.159787,0.023014,0.163611,1.225819,-0.102245,-1.028582,-2.984450,-0.856300,4.044740,-2.249810,1.818344,0.123026,-0.016504,0.000000,-0.306822,0.104371,0.000000
0.910000,-1.485780,-1.789093,-1.478480,0.333042,1.171895,0.021949,0.153531,1.195866,-0.110710,-0.986966,-3.005910,-0.836106,4.268325,-2.061984,2.204381,0.119949,-0.015475,0.000000,-0.308446,0.100042,-0.000000
0.920000,-1.482442,-1.777315,-1.478266,0.334529,1.183703,0.020800,0.143879,1.165707,-0.118954,-0.943201,-3.025644,-0.812159,4.483371,-1.886945,2.583906,0.116858,-0.014490,0.000000,-0.309866,0.095504,0.000000
0.930000,-1.479090,-1.765420,-1.478064,0.335921,1.195209,0.019571,0.134674,1.135359,-0.126941,-0.897328,-3.043689,-0.784455,4.689887,-1.724084,2.955255,0.113753,-0.013552,0.000000,-0.311089,0.090765,-0.000000
0.940000,-1.475724,-1.753412,-1.477875,0.337224,1.206410,0.018262,0.125939,1.104838,-0.134631,-0.849432,-3.060164,-0.753086,4.887883,-1.572789,3.316763,0.110636,-0.012663,0.000000,-0.312135,0.085833,0.000000
0.950000,-1.472346,-1.741293,-1.477699,0.338441,1.217305,0.016879,0.117692,1.074160,-0.141991,-0.799598,-3.075181,-0.718158,5.077366,-1.432452,3.666764,0.107511,-0.011825,0.000000,-0.313019,0.080719,-0.000000
0.960000,-1.468955,-1.729066,-1.477538,0.339579,1.227892,0.015424,0.109953,1.043339,-0.148982,-0.747899,-3.088815,-0.679670,5.258010,-1.303293,4.000442,0.104377,-0.011040,0.000000,-0.313753,0.075429,-0.000000
0.970000,-1.465554,-1.716736,-1.477391,0.340642,1.238171,0.013901,0.102740,1.012388,-0.155573,-0.694451,-3.101242,-0.638057,5.430202,-1.183769,4.319669,0.101236,-0.010309,0.000000,-0.314365,0.069977,-0.000000
0.980000,-1.462143,-1.704304,-1.477260,0.341636,1.248140,0.012314,0.096070,0.981318,-0.161732,-0.639323,-3.112520,-0.593329,5.593992,-1.073168,4.623165,0.098090,-0.009634,0.000000,-0.314865,0.064370,0.000000
0.990000,-1.458722,-1.691774,-1.477145,0.342565,1.257797,0.010668,0.089959,0.950141,-0.167430,-0.582599,-3.122733,-0.545651,5.749432,-0.970776,4.909652,0.094939,-0.009016,0.000000,-0.315265,0.058615,0.000000
1.000000,-1.455292,-1.679149,-1.477047,0.343437,1.267142,0.008967,0.084423,0.918867,-0.172636,-0.524362,-3.131960,-0.495197,5.896571,-0.875882,5.177850,0.091785,-0.008457,0.000000,-0.315581,0.052720,-0.000000
1.010000,-1.451853,-1.666432,-1.476966,0.344256,1.276174,0.007217,0.079476,0.887505,-0.177323,-0.464707,-3.140284,-0.441999,6.035756,-0.787504,5.422437,0.088628,-0.007958,0.000000,-0.315823,0.046695,-0.000000
1.020000,-1.448407,-1.653627,-1.476903,0.345028,1.284892,0.005422,0.075133,0.856064,-0.181468,-0.403688,-3.147743,-0.386636,6.166706,-0.705233,5.646671,0.085468,-0.007520,0.000000,-0.316004,0.040543,0.000000
1.030000,-1.444953,-1.640735,-1.476857,0.345761,1.293295,0.003589,0.071407,0.824553,-0.185049,-0.341400,-3.154407,-0.329136,6.289434,-0.628390,5.849769,0.082308,-0.007144,0.000000,-0.316134,0.034274,-0.000000
1.040000,-1.441492,-1.627762,-1.476831,0.346459,1.301383,0.001723,0.068309,0.792978,-0.188045,-0.277927,-3.160326,-0.269714,6.403954,-0.556294,6.030946,0.079146,-0.006832,0.000000,-0.316222,0.027893,0.000000
1.050000,-1.438024,-1.614709,-1.476823,0.347129,1.309155,-0.000170,0.065852,0.761349,-0.190438,-0.213349,-3.165546,-0.208592,6.510279,-0.488267,6.189418,0.075983,-0.006585,0.000000,-0.316278,0.021408,0.000000
1.060000,-1.434549,-1.601580,-1.476834,0.347778,1.316610,-0.002084,0.064045,0.729669,-0.192210,-0.147777,-3.170144,-0.145831,6.609148,-0.422592,6.320037,0.072820,-0.006403,0.000000,-0.316311,0.014828,0.000000
1.070000,-1.431068,-1.588378,-1.476865,0.348412,1.323748,-0.004012,0.062899,0.697948,-0.193350,-0.081225,-3.174054,-0.082076,6.699763,-0.359754,6.426916,0.069657,-0.006288,0.000000,-0.316322,0.008151,-0.000000
1.080000,-1.427581,-1.575106,-1.476915,0.349038,1.330569,-0.005948,0.062424,0.666190,-0.193848,-0.013809,-3.177347,-0.017372,6.782049,-0.299202,6.509806,0.066494,-0.006240,0.000000,-0.316319,0.001388,0.000000
1.090000,-1.424087,-1.561767,-1.476984,0.349663,1.337072,-0.007887,0.062626,0.634403,-0.193695,0.054388,-3.180044,0.048039,6.855931,-0.240384,6.568456,0.063331,-0.006260,0.000000,-0.316306,-0.005456,-0.000000
1.100000,-1.420588,-1.548366,-1.477072,0.350293,1.343257,-0.009820,0.063514,0.602591,-0.192886,0.123281,-3.182158,0.113915,6.921335,-0.182747,6.602618,0.060168,-0.006349,0.000000,-0.316289,-0.012374,0.000000
1.110000,-1.417081,-1.534903,-1.477180,0.350935,1.349123,-0.011742,0.065093,0.570761,-0.191414,0.192754,-3.183758,0.180176,6.979001,-0.124292,6.607830,0.057005,-0.006508,0.000000,-0.316273,-0.019358,0.000000
1.120000,-1.413569,-1.521384,-1.477307,0.351597,1.354672,-0.013646,0.067371,0.538918,-0.189283,0.262796,-3.184710,0.246178,7.027941,-0.066092,6.588568,0.053842,-0.006737,0.000000,-0.316251,-0.026408,-0.000000
1.130000,-1.410049,-1.507811,-1.477453,0.352285,1.359902,-0.015526,0.070351,0.507069,-0.186492,0.333283,-3.185079,0.311867,7.067979,-0.007772,6.545099,0.050680,-0.007037,0.000000,-0.316228,-0.033515,-0.000000
1.140000,-1.406523,-1.494187,-1.477617,0.353006,1.364813,-0.017374,0.074037,0.475218,-0.183047,0.404125,-3.184864,0.377000,7.098941,0.051044,6.477688,0.047518,-0.007409,0.000000,-0.316204,-0.040672,-0.000000
1.150000,-1.402989,-1.480516,-1.477800,0.353768,1.369406,-0.019185,0.078434,0.443373,-0.178955,0.475231,-3.184056,0.441341,7.120654,0.110730,6.386601,0.044356,-0.007852,0.000000,-0.316181,-0.047872,-0.000000
1.160000,-1.399447,-1.466800,-1.478001,0.354577,1.373681,-0.020951,0.083542,0.411539,-0.174222,0.546486,-3.182705,0.504801,7.133464,0.173185,6.268407,0.041194,-0.008367,0.000000,-0.316160,-0.055107,-0.000000
1.170000,-1.395897,-1.453043,-1.478219,0.355441,1.377637,-0.022667,0.089364,0.379721,-0.168863,0.617844,-3.180655,0.566799,7.136612,0.237073,6.127520,0.038033,-0.008955,0.000000,-0.316129,-0.062374,-0.000000
1.180000,-1.392338,-1.439248,-1.478454,0.356367,1.381275,-0.024326,0.095899,0.347928,-0.162891,0.689185,-3.177958,0.627278,7.129858,0.302582,5.964660,0.034872,-0.009616,0.000000,-0.316089,-0.069662,0.000000
1.190000,-1.388770,-1.425419,-1.478705,0.357362,1.384596,-0.025923,0.103147,0.316164,-0.156323,0.760408,-3.174597,0.686021,7.112966,0.369901,5.780544,0.031711,-0.010349,0.000000,-0.316039,-0.076963,-0.000000
1.200000,-1.385191,-1.411558,-1.478972,0.358432,1.387599,-0.027451,0.111107,0.284438,-0.149177,0.831410,-3.170554,0.742820,7.085695,0.439218,5.575890,0.028551,-0.011156,0.000000,-0.315974,-0.084269,0.000000
1.210000,-1.381601,-1.397668,-1.479254,0.359586,1.390285,-0.028905,0.119774,0.252755,-0.141473,0.902092,-3.165858,0.797588,7.047654,0.512051,5.348521,0.025391,-0.012035,0.000000,-0.315895,-0.091571,0.000000
1.220000,-1.377999,-1.383753,-1.479550,0.360830,1.392654,-0.030278,0.129147,0.221123,-0.133233,0.972334,-3.160365,0.849857,6.998777,0.587095,5.102406,0.022233,-0.012988,0.000000,-0.315786,-0.098857,-0.000000
1.230000,-1.374384,-1.369816,-1.479860,0.362172,1.394707,-0.031567,0.139219,0.189550,-0.124484,1.042031,-3.154109,0.899577,6.938846,0.664377,4.838617,0.019076,-0.014013,0.000000,-0.315646,-0.106119,0.000000
1.240000,-1.370755,-1.355860,-1.480181,0.363617,1.396445,-0.032767,0.149985,0.158044,-0.115251,1.111073,-3.147069,0.946574,6.867640,0.743921,4.558228,0.015920,-0.015110,0.000000,-0.315470,-0.113345,0.000000
1.250000,-1.367111,-1.341888,-1.480515,0.365174,1.397868,-0.033871,0.161438,0.126612,-0.105562,1.179346,-3.139223,0.990690,6.784940,0.825753,4.262310,0.012767,-0.016280,0.000000,-0.315252,-0.120524,0.000000
1.260000,-1.363451,-1.327903,-1.480858,0.366848,1.398978,-0.034876,0.173570,0.095262,-0.095446,1.246765,-3.130585,1.031847,6.689719,0.910876,3.950056,0.009615,-0.017521,0.000000,-0.314989,-0.127647,0.000000
1.270000,-1.359774,-1.313909,-1.481212,0.368647,1.399774,-0.035779,0.186370,0.064003,-0.084936,1.313137,-3.121042,1.069731,6.582664,0.998218,3.624649,0.006467,-0.018833,0.000000,-0.314666,-0.134694,0.000000
1.280000,-1.356078,-1.299909,-1.481574,0.370578,1.400258,-0.036574,0.199829,0.032844,-0.074063,1.378378,-3.110614,1.104300,6.463655,1.087684,3.287394,0.003322,-0.020215,0.000000,-0.314281,-0.141655,-0.000000
1.290000,-1.352362,-1.285905,-1.481943,0.372646,1.400431,-0.037259,0.213934,0.001794,-0.062861,1.442370,-3.099281,1.135444,6.332573,1.179181,2.939593,0.000182,-0.021665,0.000000,-0.313825,-0.148517,0.000000
1.300000,-1.348625,-1.271901,-1.482318,0.374858,1.400294,-0.037830,0.228671,-0.029139,-0.051366,1.504989,-3.087024,1.163061,6.189297,1.272613,2.582550,-0.002954,-0.023184,0.000000,-0.313293,-0.155265,0.000000
1.310000,-1.344864,-1.257900,-1.482699,0.377221,1.399849,-0.038285,0.244029,-0.059944,-0.039612,1.566171,-3.073841,1.187097,6.032270,1.368333,2.216834,-0.006084,-0.024770,0.000000,-0.312679,-0.161892,-0.000000
1.320000,-1.341080,-1.243906,-1.483084,0.379741,1.399096,-0.038622,0.259989,-0.090612,-0.027636,1.625658,-3.059672,1.207409,5.862985,1.465746,1.844573,-0.009207,-0.026422,0.000000,-0.311971,-0.168368,0.000000
1.330000,-1.337269,-1.229920,-1.483471,0.382423,1.398037,-0.038837,0.276536,-0.121134,-0.015476,1.683390,-3.044521,1.223971,5.681497,1.564701,1.467157,-0.012323,-0.028137,0.000000,-0.311165,-0.174684,0.000000
1.340000,-1.333431,-1.215946,-1.483860,0.385274,1.396674,-0.038931,0.293651,-0.151499,-0.003169,1.739247,-3.028373,1.236740,5.487863,1.665050,1.085981,-0.015430,-0.029915,0.000000,-0.310252,-0.180824,-0.000000
1.350000,-1.329563,-1.201987,-1.484249,0.388298,1.395008,-0.038900,0.311315,-0.181698,0.009246,1.793107,-3.011215,1.245683,5.282136,1.766643,0.702437,-0.018528,-0.031754,0.000000,-0.309227,-0.186773,-0.000000
1.360000,-1.325664,-1.188047,-1.484638,0.391502,1.393040,-0.038746,0.329509,-0.211721,0.021731,1.845077,-2.993056,1.250761,5.058628,1.869833,0.318516,-0.021614,-0.033651,0.000000,-0.308085,-0.192537,-0.000000
1.370000,-1.321732,-1.174127,-1.485024,0.394890,1.390774,-0.038466,0.348208,-0.241556,0.034248,1.894499,-2.973838,1.252028,4.823843,1.973907,-0.065060,-0.024689,-0.035605,0.000000,-0.306814,-0.198046,0.000000
1.380000,-1.317766,-1.160232,-1.485407,0.398467,1.388210,-0.038061,0.367391,-0.271194,0.046759,1.941519,-2.953576,1.249466,4.578541,2.078655,-0.446971,-0.027750,-0.037612,0.000000,-0.305411,-0.203310,0.000000
1.390000,-1.313762,-1.146364,-1.485785,0.402239,1.385351,-0.037531,0.387030,-0.300624,0.059225,1.986037,-2.932264,1.243098,4.323481,2.183867,-0.825900,-0.030797,-0.039671,0.000000,-0.303869,-0.208313,0.000000
1.400000,-1.309720,-1.132526,-1.486157,0.406209,1.382198,-0.036876,0.407103,-0.329836,0.071608,2.027959,-2.909898,1.232962,4.059423,2.289331,-1.200526,-0.033827,-0.041780,0.000000,-0.302183,-0.213042,-0.000000
1.410000,-1.305637,-1.118721,-1.486522,0.410382,1.378755,-0.036099,0.427580,-0.358818,0.083871,2.067111,-2.886469,1.219041,3.789328,2.394634,-1.567867,-0.036840,-0.043934,0.000000,-0.300347,-0.217474,-0.000000
1.420000,-1.301512,-1.104952,-1.486878,0.414762,1.375023,-0.035199,0.448436,-0.387561,0.095977,2.103621,-2.861996,1.201553,3.511484,2.499793,-1.928470,-0.039834,-0.046131,0.000000,-0.298360,-0.221617,0.000000
1.430000,-1.297341,-1.091222,-1.487225,0.419352,1.371004,-0.034180,0.469643,-0.416055,0.107890,2.137316,-2.836474,1.180498,3.226381,2.604623,-2.281218,-0.042807,-0.048369,0.000000,-0.296215,-0.225448,0.000000
1.440000,-1.293124,-1.077533,-1.487561,0.424156,1.366702,-0.033042,0.491172,-0.444287,0.119575,2.168126,-2.809906,1.155959,2.934509,2.708939,-2.624996,-0.045757,-0.050643,0.000000,-0.293909,-0.228957,0.000000
1.450000,-1.288858,-1.063888,-1.487886,0.429177,1.362120,-0.031789,0.512995,-0.472249,0.130998,2.195986,-2.782297,1.128031,2.636358,2.812556,-2.958687,-0.048684,-0.052951,0.000000,-0.291441,-0.232130,-0.000000
1.460000,-1.284540,-1.050291,-1.488197,0.434417,1.357258,-0.030423,0.535082,-0.499930,0.142124,2.220844,-2.753624,1.096724,2.332158,2.914440,-3.278710,-0.051586,-0.055290,0.000000,-0.288802,-0.234959,0.000000
1.470000,-1.280168,-1.036744,-1.488494,0.439879,1.352122,-0.028948,0.557402,-0.527318,0.152922,2.242623,-2.723974,1.062387,2.022691,3.015358,-3.586717,-0.054460,-0.057656,0.000000,-0.286001,-0.237431,0.000000
1.480000,-1.275741,-1.023250,-1.488776,0.445566,1.346713,-0.027366,0.579924,-0.554406,0.163362,2.261282,-2.693320,1.025033,1.708478,3.115226,-3.881893,-0.057305,-0.060044,0.000000,-0.283032,-0.239538,0.000000
1.490000,-1.271256,-1.009811,-1.489041,0.451478,1.341035,-0.025682,0.602617,-0.581181,0.173413,2.276778,-2.661673,0.984795,1.390039,3.213963,-4.163424,-0.060120,-0.062453,0.000000,-0.279894,-0.241273,0.000000
1.500000,-1.266711,-0.996430,-1.489289,0.457618,1.335090,-0.023899,0.625449,-0.607636,0.183049,2.289071,-2.629045,0.941813,1.067897,3.311487,-4.430496,-0.062902,-0.064877,0.000000,-0.276587,-0.242626,-0.000000
1.510000,-1.262103,-0.983110,-1.489519,0.463988,1.328883,-0.022022,0.648390,-0.633759,0.192240,2.298325,-2.595437,0.896118,0.737545,3.407445,-4.679324,-0.065651,-0.067314,0.000000,-0.273111,-0.243613,0.000000
1.520000,-1.257431,-0.969853,-1.489729,0.470586,1.322416,-0.020056,0.671405,-0.659541,0.200963,2.304039,-2.560889,0.848146,0.405148,3.502059,-4.912429,-0.068364,-0.069759,0.000000,-0.269469,-0.244179,0.000000
1.530000,-1.252691,-0.956662,-1.489919,0.477416,1.315694,-0.018005,0.694460,-0.684974,0.209195,2.306425,-2.525401,0.797923,0.071843,3.595281,-5.129360,-0.071040,-0.072208,0.000000,-0.265663,-0.244345,0.000000
1.540000,-1.247881,-0.943540,-1.490089,0.484476,1.308718,-0.015874,0.717522,-0.710046,0.216914,2.305477,-2.488988,0.745614,-0.261232,3.687062,-5.329668,-0.073677,-0.074657,0.000000,-0.261694,-0.244107,-0.000000
1.550000,-1.243000,-0.930489,-1.490237,0.491766,1.301494,-0.013668,0.740558,-0.734750,0.224101,2.301204,-2.451664,0.691387,-0.592942,3.777352,-5.512901,-0.076273,-0.077102,0.000000,-0.257564,-0.243466,0.000000
1.560000,-1.238045,-0.917511,-1.490362,0.499287,1.294024,-0.011394,0.763534,-0.759077,0.230735,2.293519,-2.413435,0.635301,-0.919427,3.865832,-5.675744,-0.078827,-0.079539,0.000000,-0.253275,-0.242412,-0.000000
1.570000,-1.233014,-0.904609,-1.490464,0.507037,1.286314,-0.009055,0.786418,-0.783016,0.236802,2.282705,-2.374341,0.577803,-1.242605,3.952757,-5.820963,-0.081338,-0.081964,0.000000,-0.248834,-0.240975,0.000000
1.580000,-1.227904,-0.891786,-1.490543,0.515015,1.278365,-0.006659,0.809177,-0.806561,0.242287,2.268680,-2.334385,0.518941,-1.561672,4.038113,-5.948460,-0.083804,-0.084373,0.000000,-0.244245,-0.239147,0.000000
1.590000,-1.222713,-0.879043,-1.490597,0.523220,1.270184,-0.004212,0.831781,-0.829701,0.247177,2.251488,-2.293584,0.458893,-1.875825,4.121884,-6.058136,-0.086223,-0.086762,0.000000,-0.239512,-0.236933,0.000000
1.600000,-1.217439,-0.866383,-1.490627,0.531650,1.261773,-0.001718,0.854197,-0.852429,0.251461,2.231183,-2.251953,0.397838,-2.184259,4.204054,-6.149891,-0.088593,-0.089128,0.000000,-0.234639,-0.234341,-0.000000
1.610000,-1.212079,-0.853808,-1.490631,0.540303,1.253137,0.000816,0.876394,-0.874737,0.255130,2.207778,-2.209497,0.335858,-2.484994,4.284326,-6.221178,-0.090915,-0.091466,0.000000,-0.229630,-0.231373,0.000000
1.620000,-1.206632,-0.841321,-1.490611,0.549177,1.244279,0.003383,0.898342,-0.896617,0.258176,2.181454,-2.166259,0.273364,-2.778547,4.363002,-6.274647,-0.093186,-0.093773,0.000000,-0.224494,-0.228053,0.000000
1.630000,-1.201095,-0.828923,-1.490564,0.558269,1.235206,0.005977,0.920013,-0.918060,0.260595,2.152234,-2.122242,0.210424,-3.064258,4.440100,-6.310496,-0.095404,-0.096046,0.000000,-0.219237,-0.224384,-0.000000
1.640000,-1.195466,-0.816617,-1.490491,0.567576,1.225920,0.008592,0.941378,-0.939059,0.262384,2.120198,-2.077462,0.147213,-3.341467,4.515638,-6.328927,-0.097570,-0.098281,0.000000,-0.213863,-0.220380,-0.000000
1.650000,-1.189743,-0.804405,-1.490392,0.577095,1.216426,0.011223,0.962408,-0.959607,0.263539,2.085435,-2.031935,0.083903,-3.609514,4.589637,-6.330140,-0.099681,-0.100474,0.000000,-0.208379,-0.216053,0.000000
1.660000,-1.183923,-0.792290,-1.490266,0.586823,1.206729,0.013861,0.983077,-0.979695,0.264061,2.047973,-1.985673,0.020596,-3.866042,4.662068,-6.312550,-0.101737,-0.102622,0.000000,-0.202790,-0.211408,-0.000000
1.670000,-1.178006,-0.780272,-1.490115,0.596755,1.196834,0.016502,1.003359,-0.999318,0.263952,2.008073,-1.938696,-0.042372,-4.112296,4.733003,-6.278362,-0.103737,-0.104723,0.000000,-0.197106,-0.206480,0.000000
1.680000,-1.171988,-0.768353,-1.489936,0.606889,1.186744,0.019138,1.023230,-1.018467,0.263215,1.965763,-1.891018,-0.104918,-4.347824,4.802466,-6.227994,-0.105679,-0.106773,0.000000,-0.191331,-0.201276,-0.000000
1.690000,-1.165867,-0.756537,-1.489732,0.617219,1.176466,0.021764,1.042667,-1.037136,0.261856,1.921153,-1.842652,-0.166880,-4.572173,4.870482,-6.161866,-0.107563,-0.108770,0.000000,-0.185473,-0.195812,0.000000
1.700000,-1.159642,-0.744825,-1.489501,0.627741,1.166003,0.024373,1.061646,-1.055318,0.259880,1.874358,-1.793613,-0.228104,-4.784893,4.937075,-6.080397,-0.109388,-0.110711,0.000000,-0.179537,-0.190104,0.000000
1.710000,-1.153312,-0.733218,-1.489244,0.638450,1.155361,0.026960,1.080146,-1.073006,0.257296,1.825414,-1.743921,-0.288479,-4.983468,5.002418,-5.982972,-0.111154,-0.112594,0.000000,-0.173531,-0.184161,0.000000
1.720000,-1.146873,-0.721718,-1.488962,0.649342,1.144545,0.029517,1.098148,-1.090194,0.254114,1.774638,-1.693576,-0.347761,-5.169762,5.066369,-5.871170,-0.112859,-0.114417,0.000000,-0.167460,-0.178023,-0.000000
1.730000,-1.140324,-0.710327,-1.488654,0.660411,1.133559,0.032040,1.115633,-1.106875,0.250345,1.722060,-1.642598,-0.405856,-5.343573,5.128937,-5.745538,-0.114503,-0.116177,0.000000,-0.161332,-0.171698,0.000000
1.740000,-1.133664,-0.699048,-1.488321,0.671653,1.122409,0.034522,1.132584,-1.123044,0.246001,1.667808,-1.591001,-0.462628,-5.504702,5.190127,-5.606622,-0.116085,-0.117873,0.000000,-0.155152,-0.165204,0.000000
1.750000,-1.126891,-0.687880,-1.487964,0.683061,1.111100,0.036958,1.148984,-1.138693,0.241097,1.612009,-1.538800,-0.517946,-5.652950,5.249947,-5.454968,-0.117605,-0.119503,0.000000,-0.148926,-0.158559,-0.000000
1.760000,-1.120002,-0.676826,-1.487582,0.694631,1.099637,0.039342,1.164818,-1.153818,0.235647,1.554709,-1.486018,-0.571700,-5.786000,5.308693,-5.290771,-0.119063,-0.121065,0.000000,-0.142663,-0.151774,-0.000000
1.770000,-1.112998,-0.665888,-1.487177,0.706355,1.088025,0.041669,1.180074,-1.168412,0.229669,1.496238,-1.432644,-0.623739,-5.906027,5.366046,-5.114971,-0.120459,-0.122559,0.000000,-0.136364,-0.144887,-0.000000
1.780000,-1.105875,-0.655066,-1.486749,0.718230,1.076270,0.043934,1.194739,-1.182469,0.223179,1.436632,-1.378702,-0.673963,-6.013092,5.421979,-4.928155,-0.121791,-0.123984,0.000000,-0.130036,-0.137907,0.000000
1.790000,-1.098632,-0.644363,-1.486299,0.730248,1.064378,0.046131,1.208803,-1.195984,0.216196,1.376019,-1.324209,-0.722267,-6.107253,5.476462,-4.730912,-0.123059,-0.125338,0.000000,-0.123686,-0.130852,0.000000
1.800000,-1.091269,-0.633779,-1.485827,0.742404,1.052353,0.048256,1.222257,-1.208951,0.208740,1.314530,-1.269178,-0.768549,-6.188570,5.529468,-4.523831,-0.124264,-0.126621,0.000000,-0.117319,-0.123740,-0.000000
1.810000,-1.083784,-0.623316,-1.485334,0.754691,1.040201,0.050304,1.235090,-1.221366,0.200832,1.252215,-1.213639,-0.812706,-6.255195,5.581344,-4.307656,-0.125406,-0.127832,0.000000,-0.110940,-0.116580,-0.000000
1.820000,-1.076175,-0.612975,-1.484821,0.767104,1.027927,0.052271,1.247299,-1.233222,0.192493,1.189382,-1.157573,-0.854666,-6.309328,5.631640,-4.082801,-0.126483,-0.128971,0.000000,-0.104552,-0.109407,0.000000
1.830000,-1.068441,-0.602758,-1.484289,0.779635,1.015538,0.054153,1.258876,-1.244516,0.183746,1.126069,-1.101012,-0.894335,-6.351262,5.680280,-3.849836,-0.127497,-0.130037,0.000000,-0.098160,-0.102230,-0.000000
1.840000,-1.060582,-0.592665,-1.483738,0.792279,1.003039,0.055945,1.269819,-1.255241,0.174615,1.062397,-1.043973,-0.931637,-6.381290,5.727188,-3.609329,-0.128446,-0.131032,0.000000,-0.091769,-0.095063,-0.000000
1.850000,-1.052596,-0.582697,-1.483170,0.805029,0.990435,0.057644,1.280124,-1.265394,0.165122,0.998482,-0.986474,-0.966499,-6.399706,5.772291,-3.361851,-0.129332,-0.131955,0.000000,-0.085383,-0.087922,-0.000000
1.860000,-1.044481,-0.572857,-1.482586,0.817880,0.977733,0.059246,1.289788,-1.274969,0.155293,0.934381,-0.928550,-0.998836,-6.405295,5.815925,-3.108392,-0.130154,-0.132805,0.000000,-0.079008,-0.080815,0.000000
1.870000,-1.036238,-0.563143,-1.481986,0.830823,0.964938,0.060749,1.298811,-1.283963,0.145154,0.870345,-0.870181,-1.028628,-6.400042,5.857553,-2.849048,-0.130912,-0.133585,0.000000,-0.072645,-0.073770,-0.000000
1.880000,-1.027864,-0.553558,-1.481371,0.843854,0.952055,0.062148,1.307195,-1.292371,0.134729,0.806414,-0.811406,-1.055799,-6.384424,5.897050,-2.584338,-0.131607,-0.134294,0.000000,-0.066297,-0.066792,0.000000
1.890000,-1.019360,-0.544102,-1.480743,0.856965,0.939092,0.063443,1.314940,-1.300190,0.124047,0.742690,-0.752247,-1.080299,-6.358918,5.934292,-2.314780,-0.132238,-0.134933,0.000000,-0.059970,-0.059895,0.000000
1.900000,-1.010725,-0.534776,-1.480103,0.870150,0.926054,0.064629,1.322050,-1.307415,0.113132,0.679267,-0.692728,-1.102081,-6.324000,5.969151,-2.040890,-0.132806,-0.135502,0.000000,-0.053667,-0.053088,-0.000000
1.910000,-1.001957,-0.525581,-1.479451,0.883404,0.912946,0.065705,1.328526,-1.314044,0.102014,0.616200,-0.632888,-1.121086,-6.279155,6.001883,-1.763633,-0.133312,-0.136004,0.000000,-0.047393,-0.046379,0.000000
1.920000,-0.993056,-0.516518,-1.478789,0.896719,0.899775,0.066668,1.334375,-1.320072,0.090720,0.553668,-0.572716,-1.137322,-6.225975,6.031937,-1.483026,-0.133754,-0.136439,0.000000,-0.041146,-0.039785,-0.000000
1.930000,-0.984022,-0.507586,-1.478118,0.910089,0.886546,0.067518,1.339602,-1.325497,0.079277,0.491706,-0.512259,-1.150737,-6.165060,6.059142,-1.199533,-0.134135,-0.136807,0.000000,-0.034933,-0.033312,-0.000000
1.940000,-0.974855,-0.498787,-1.477439,0.923509,0.873267,0.068253,1.344212,-1.330316,0.067715,0.430390,-0.451544,-1.161305,-6.097008,6.083325,-0.913618,-0.134453,-0.137111,0.000000,-0.028755,-0.026967,0.000000
1.950000,-0.965552,-0.490121,-1.476753,0.936971,0.859942,0.068872,1.348212,-1.334527,0.056061,0.369788,-0.390603,-1.169003,-6.022419,6.104315,-0.625744,-0.134710,-0.137352,0.000000,-0.022617,-0.020756,-0.000000
1.960000,-0.956115,-0.481588,-1.476062,0.950471,0.846578,0.069374,1.351610,-1.338128,0.044344,0.309944,-0.329475,-1.173804,-5.941450,6.122106,-0.336648,-0.134906,-0.137531,0.000000,-0.016522,-0.014684,-0.000000
1.970000,-0.946543,-0.473189,-1.475366,0.964002,0.833182,0.069759,1.354414,-1.341116,0.032594,0.250957,-0.268180,-1.175720,-5.855196,6.136341,-0.046486,-0.135041,-0.137649,0.000000,-0.010472,-0.008759,-0.000000
1.980000,-0.936835,-0.464925,-1.474667,0.977557,0.819758,0.070026,1.356632,-1.343491,0.020840,0.192856,-0.206761,-1.174732,-5.764310,6.146827,0.244311,-0.135115,-0.137708,0.000000,-0.004468,-0.002985,0.000000
1.990000,-0.926991,-0.456794,-1.473966,0.991132,0.806314,0.070176,1.358274,-1.345251,0.009109,0.135684,-0.145256,-1.170833,-5.669444,6.153374,0.535312,-0.135130,-0.137710,0.000000,0.001484,0.002636,0.000000
2.000000,-0.917012,-0.448799,-1.473264,1.004721,0.792855,0.070209,1.359349,-1.346396,-0.002567,0.079478,-0.083707,-1.164026,-5.571252,6.155790,0.826087,-0.135086,-0.137655,0.000000,0.007383,0.008102,-0.000000
2.010000,-0.906897,-0.440937,-1.472562,1.018317,0.779388,0.070125,1.359867,-1.346925,-0.014161,0.024272,-0.022146,-1.154314,-5.470482,6.153666,1.116222,-0.134983,-0.137547,0.000000,0.013226,0.013411,-0.000000
2.020000,-0.896646,-0.433211,-1.471862,1.031916,0.765919,0.069926,1.359838,-1.346839,-0.025644,-0.029921,0.039361,-1.141706,-5.367681,6.147054,1.405268,-0.134821,-0.137385,0.000000,0.019008,0.018563,0.000000
2.030000,-0.886259,-0.425619,-1.471164,1.045512,0.752453,0.069613,1.359272,-1.346138,-0.036986,-0.083077,0.100779,-1.126214,-5.263489,6.135787,1.692795,-0.134603,-0.137172,0.000000,0.024729,0.023557,-0.000000
2.040000,-0.875736,-0.418162,-1.470470,1.059100,0.738998,0.069187,1.358179,-1.344824,-0.048159,-0.135188,0.162061,-1.107857,-5.158549,6.119702,1.978369,-0.134327,-0.136910,0.000000,0.030384,0.028394,-0.000000
2.050000,-0.865077,-0.410839,-1.469781,1.072674,0.725559,0.068650,1.356571,-1.342898,-0.059134,-0.186248,0.223157,-1.086655,-5.053501,6.098632,2.261560,-0.133995,-0.136600,0.000000,0.035971,0.033077,0.000000
2.060000,-0.854282,-0.403650,-1.469097,1.086230,0.712142,0.068005,1.354458,-1.340361,-0.069883,-0.236239,0.284026,-1.062648,-4.949521,6.072151,2.542256,-0.133608,-0.136243,0.000000,0.041489,0.037605,-0.000000
2.070000,-0.843352,-0.396596,-1.468421,1.099762,0.698754,0.067253,1.351850,-1.337218,-0.080377,-0.285218,0.344594,-1.035835,-4.846652,6.040387,2.819665,-0.133166,-0.135842,0.000000,0.046932,0.041987,-0.000000
2.080000,-0.832287,-0.389675,-1.467753,1.113265,0.685400,0.066398,1.348757,-1.333471,-0.090590,-0.333177,0.404816,-1.006267,-4.745468,6.003207,3.093314,-0.132669,-0.135397,0.000000,0.052298,0.046223,0.000000
2.090000,-0.821087,-0.382888,-1.467093,1.126735,0.672086,0.065442,1.345190,-1.329123,-0.100494,-0.380135,0.464639,-0.973983,-4.646545,5.960476,3.362733,-0.132120,-0.134909,0.000000,0.057585,0.050319,-0.000000
2.100000,-0.809752,-0.376233,-1.466444,1.140167,0.658819,0.064389,1.341158,-1.324179,-0.110061,-0.426118,0.524007,-0.939028,-4.550461,5.912063,3.627448,-0.131518,-0.134382,0.000000,0.062790,0.054279,0.000000
2.110000,-0.798284,-0.369711,-1.465806,1.153557,0.645605,0.063242,1.336671,-1.318645,-0.119266,-0.471121,0.582865,-0.901473,-4.458664,5.857729,3.887545,-0.130864,-0.133815,0.000000,0.067912,0.058107,0.000000
2.120000,-0.786681,-0.363321,-1.465180,1.166899,0.632448,0.062005,1.331738,-1.312524,-0.128082,-0.515265,0.641146,-0.861321,-4.370750,5.797459,4.141929,-0.130160,-0.133210,0.000000,0.072944,0.061815,-0.000000
2.130000,-0.774946,-0.357062,-1.464566,1.180190,0.619356,0.060682,1.326369,-1.305824,-0.136484,-0.558551,0.698794,-0.818655,-4.287187,5.731131,4.390058,-0.129406,-0.132568,0.000000,0.077886,0.065407,0.000000
2.140000,-0.763078,-0.350934,-1.463966,1.193425,0.606334,0.059277,1.320570,-1.298550,-0.144447,-0.601025,0.755748,-0.773542,-4.208444,5.658624,4.631394,-0.128603,-0.131891,0.000000,0.082735,0.068890,-0.000000
2.150000,-0.751078,-0.344935,-1.463381,1.206600,0.593387,0.057795,1.314351,-1.290711,-0.151947,-0.642737,0.811946,-0.726052,-4.134990,5.579817,4.865397,-0.127751,-0.131179,0.000000,0.087488,0.072273,0.000000
2.160000,-0.738946,-0.339066,-1.462810,1.219711,0.580521,0.056240,1.307718,-1.282314,-0.158960,-0.683697,0.867332,-0.676286,-4.068461,5.494368,5.092159,-0.126853,-0.130434,0.000000,0.092143,0.075559,0.000000
2.170000,-0.726684,-0.333324,-1.462256,1.232753,0.567742,0.054617,1.300679,-1.273368,-0.165465,-0.724074,0.921821,-0.624265,-4.008015,5.402406,5.310431,-0.125909,-0.129656,0.000000,0.096695,0.078767,0.000000
2.180000,-0.714291,-0.327711,-1.461718,1.245723,0.555056,0.052932,1.293239,-1.263881,-0.171438,-0.763879,0.975358,-0.570107,-3.953979,5.303836,5.519596,-0.124920,-0.128847,0.000000,0.101142,0.081901,-0.000000
2.190000,-0.701769,-0.322223,-1.461198,1.258617,0.542467,0.051190,1.285403,-1.253864,-0.176860,-0.803177,1.027876,-0.513906,-3.906679,5.198567,5.719037,-0.123886,-0.128006,0.000000,0.105481,0.084972,0.000000
2.200000,-0.689119,-0.316861,-1.460695,1.271430,0.529980,0.049397,1.277177,-1.243327,-0.181710,-0.842036,1.079307,-0.455761,-3.866440,5.086504,5.908136,-0.122810,-0.127134,0.000000,0.109708,0.087988,-0.000000
2.210000,-0.676341,-0.311623,-1.460210,1.284159,0.517602,0.047558,1.268564,-1.232281,-0.185969,-0.880479,1.129660,-0.395799,-3.834872,4.965601,6.086766,-0.121693,-0.126233,0.000000,0.113830,0.090955,-0.000000
2.220000,-0.663436,-0.306508,-1.459744,1.296800,0.505336,0.045680,1.259568,-1.220738,-0.189620,-0.918701,1.178684,-0.334086,-3.810861,4.837957,6.253761,-0.120534,-0.125302,0.000000,0.117824,0.093895,-0.000000
2.230000,-0.650405,-0.301516,-1.459296,1.309349,0.493189,0.043768,1.250191,-1.208711,-0.192646,-0.956722,1.226397,-0.270765,-3.794575,4.703717,6.408442,-0.119336,-0.124341,0.000000,0.121696,0.096813,-0.000000
2.240000,-0.637250,-0.296644,-1.458868,1.321802,0.481164,0.041829,1.240434,-1.196215,-0.195031,-0.994619,1.272736,-0.205961,-3.786183,4.563029,6.550135,-0.118101,-0.123352,0.000000,0.125442,0.099721,0.000000
2.250000,-0.623970,-0.291892,-1.458460,1.334156,0.469266,0.039869,1.230298,-1.183262,-0.196761,-1.032473,1.317637,-0.139808,-3.785855,4.416037,6.678160,-0.116828,-0.122333,0.000000,0.129062,0.102629,0.000000
2.260000,-0.610567,-0.287259,-1.458071,1.346407,0.457500,0.037896,1.219785,-1.169867,-0.197823,-1.070283,1.361020,-0.072448,-3.795786,4.263318,6.791906,-0.115520,-0.121285,0.000000,0.132549,0.105540,0.000000
2.270000,-0.597042,-0.282742,-1.457702,1.358551,0.445870,0.035915,1.208892,-1.156046,-0.198206,-1.108325,1.402864,-0.004022,-3.813870,4.104534,6.890622,-0.114178,-0.120208,0.000000,0.135906,0.108486,0.000000
2.280000,-0.583396,-0.278341,-1.457353,1.370584,0.434380,0.033934,1.197618,-1.141815,-0.197900,-1.146588,1.443090,0.065312,-3.840026,3.939780,6.973626,-0.112802,-0.119101,0.000000,0.139128,0.111468,-0.000000
2.290000,-0.569631,-0.274054,-1.457023,1.382502,0.423035,0.031960,1.185960,-1.127190,-0.196897,-1.185152,1.481640,0.135395,-3.874175,3.769148,7.040232,-0.111395,-0.117964,0.000000,0.142213,0.114498,-0.000000
2.300000,-0.555747,-0.269879,-1.456714,1.394302,0.411838,0.029999,1.173914,-1.112188,-0.195190,-1.224098,1.518454,0.206060,-3.916238,3.592732,7.089754,-0.109958,-0.116796,0.000000,0.145157,0.117587,0.000000
2.310000,-0.541745,-0.265816,-1.456423,1.405979,0.400792,0.028058,1.161477,-1.096827,-0.192774,-1.263430,1.553501,0.277157,-3.967967,3.409982,7.120860,-0.108493,-0.115598,0.000000,0.147961,0.120739,0.000000
2.320000,-0.527627,-0.261863,-1.456152,1.417530,0.389902,0.026145,1.148643,-1.081124,-0.189646,-1.303400,1.586664,0.348445,-4.027226,3.221713,7.133593,-0.107000,-0.114367,0.000000,0.150617,0.123983,0.000000
2.330000,-0.513395,-0.258018,-1.455900,1.428950,0.379171,0.024268,1.135407,-1.065100,-0.185805,-1.343999,1.617917,0.419766,-4.093711,3.028098,7.127347,-0.105481,-0.113104,0.000000,0.153123,0.127323,0.000000
2.340000,-0.499049,-0.254279,-1.455667,1.440237,0.368601,0.022432,1.121761,-1.048773,-0.181252,-1.385298,1.647209,0.490926,-4.167118,2.829308,7.101518,-0.103938,-0.111806,0.000000,0.155479,0.130768,0.000000
2.350000,-0.484591,-0.250645,-1.455451,1.451384,0.358196,0.020645,1.107698,-1.032162,-0.175988,-1.427363,1.674487,0.561729,-4.247143,2.625516,7.055500,-0.102372,-0.110474,0.000000,0.157680,0.134328,-0.000000
2.360000,-0.470022,-0.247115,-1.455254,1.462389,0.347959,0.018914,1.093212,-1.015288,-0.170018,-1.470190,1.699854,0.632032,-4.335285,2.413074,6.987056,-0.100785,-0.109105,0.000000,0.159738,0.138008,0.000000
2.370000,-0.455343,-0.243686,-1.455073,1.473247,0.337891,0.017247,1.078291,-0.998172,-0.163350,-1.514008,1.722905,0.701472,-4.429217,2.196441,6.897412,-0.099178,-0.107699,0.000000,0.161618,0.141834,-0.000000
2.380000,-0.440557,-0.240356,-1.454909,1.483953,0.327996,0.015650,1.062928,-0.980837,-0.155992,-1.558792,1.743771,0.769908,-4.528414,1.976259,6.786163,-0.097553,-0.106254,0.000000,0.163332,0.145808,0.000000
2.390000,-0.425665,-0.237125,-1.454760,1.494504,0.318275,0.014129,1.047112,-0.963304,-0.147956,-1.604592,1.762420,0.837122,-4.632351,1.753165,6.652904,-0.095912,-0.104768,0.000000,0.164878,0.149939,0.000000
2.400000,-0.410668,-0.233990,-1.454626,1.504894,0.308731,0.012693,1.030833,-0.945596,-0.139255,-1.651453,1.778827,0.902891,-4.740503,1.527801,6.497229,-0.094256,-0.103241,0.000000,0.166256,0.154234,0.000000
2.410000,-0.395567,-0.230950,-1.454506,1.515119,0.299364,0.011346,1.014080,-0.927735,-0.129902,-1.699315,1.792987,0.967101,-4.854855,1.300397,6.315927,-0.092587,-0.101669,0.000000,0.167464,0.158691,-0.000000
2.420000,-0.380366,-0.228002,-1.454398,1.525174,0.290176,0.010097,0.996843,-0.909744,-0.119919,-1.748448,1.804850,1.029259,-4.972066,1.072052,6.111743,-0.090907,-0.100053,0.000000,0.168500,0.163343,0.000000
2.430000,-0.365065,-0.225146,-1.454303,1.535054,0.281169,0.008950,0.979108,-0.891646,-0.109324,-1.798763,1.814427,1.089260,-5.091304,0.843457,5.884613,-0.089218,-0.098388,0.000000,0.169364,0.168183,-0.000000
2.440000,-0.349665,-0.222378,-1.454219,1.544755,0.272344,0.007912,0.960863,-0.873463,-0.098142,-1.850278,1.821721,1.146874,-5.211736,0.615301,5.634477,-0.087520,-0.096675,0.000000,0.170057,0.173217,-0.000000
2.450000,-0.334170,-0.219698,-1.454145,1.554270,0.263700,0.006989,0.942098,-0.855219,-0.086396,-1.902999,1.826737,1.201872,-5.332533,0.388275,5.361272,-0.085817,-0.094910,0.000000,0.170578,0.178449,0.000000
2.460000,-0.318581,-0.217104,-1.454079,1.563595,0.255239,0.006186,0.922800,-0.836936,-0.074112,-1.956854,1.829499,1.254178,-5.454704,0.162895,5.061010,-0.084109,-0.093092,0.000000,0.170928,0.183872,0.000000
2.470000,-0.302899,-0.214593,-1.454020,1.572724,0.246962,0.005508,0.902957,-0.818636,-0.061323,-2.012006,1.830011,1.303192,-5.575349,-0.059955,4.738036,-0.082399,-0.091219,0.000000,0.171109,0.189511,-0.000000
2.480000,-0.287127,-0.212164,-1.453968,1.581652,0.238867,0.004961,0.882556,-0.800343,-0.048059,-2.068352,1.828311,1.348865,-5.693410,-0.279562,4.392769,-0.080688,-0.089288,0.000000,0.171123,0.195355,-0.000000
2.490000,-0.271266,-0.209815,-1.453921,1.590373,0.230955,0.004549,0.861586,-0.782078,-0.034357,-2.125862,1.824433,1.390975,-5.807830,-0.495215,4.025630,-0.078977,-0.087298,0.000000,0.170969,0.201404,0.000000
2.500000,-0.255320,-0.207544,-1.453877,1.598882,0.223225,0.004275,0.840035,-0.763861,-0.020252,-2.184493,1.818422,1.429306,-5.917550,-0.706202,3.637036,-0.077269,-0.085247,0.000000,0.170652,0.207654,-0.000000
2.510000,-0.239290,-0.205350,-1.453835,1.607172,0.215677,0.004145,0.817893,-0.745716,-0.005782,-2.244163,1.810352,1.463831,-6.022290,-0.912442,3.222713,-0.075565,-0.083132,0.000000,0.170175,0.214098,-0.000000
2.520000,-0.223177,-0.203230,-1.453793,1.615238,0.208310,0.004161,0.795148,-0.727661,0.009010,-2.304881,1.800222,1.493903,-6.120119,-1.112517,2.788349,-0.073866,-0.080952,0.000000,0.169539,0.220742,-0.000000
2.530000,-0.206986,-0.201183,-1.453751,1.623073,0.201124,0.004326,0.771792,-0.709718,0.024081,-2.366539,1.788125,1.519535,-6.209887,-1.305638,2.334937,-0.072174,-0.078705,0.000000,0.168749,0.227571,-0.000000
2.540000,-0.190717,-0.199207,-1.453706,1.630671,0.194116,0.004643,0.747815,-0.691905,0.039385,-2.429048,1.774135,1.540541,-6.290439,-1.491017,1.863473,-0.070491,-0.076388,0.000000,0.167809,0.234578,-0.000000
2.550000,-0.174373,-0.197300,-1.453658,1.638027,0.187285,0.005114,0.723209,-0.674241,0.054876,-2.492313,1.758333,1.556747,-6.360625,-1.667866,1.374949,-0.068819,-0.074001,0.000000,0.166724,0.241751,-0.000000
2.560000,-0.157957,-0.195461,-1.453604,1.645133,0.180630,0.005741,0.697966,-0.656744,0.070506,-2.556250,1.740781,1.568178,-6.418591,-1.834692,0.865528,-0.067157,-0.071541,0.000000,0.165496,0.249079,-0.000000
2.570000,-0.141471,-0.193687,-1.453542,1.651984,0.174150,0.006525,0.672082,-0.639431,0.086222,-2.620674,1.721641,1.574225,-6.463970,-1.991496,0.341628,-0.065509,-0.069008,0.000000,0.164140,0.256543,0.000000
2.580000,-0.124918,-0.191977,-1.453473,1.658573,0.167841,0.007466,0.645551,-0.622317,0.101973,-2.685484,1.700987,1.574968,-6.495696,-2.137578,-0.195167,-0.063875,-0.066399,0.000000,0.162660,0.264127,-0.000000
2.590000,-0.108301,-0.190330,-1.453393,1.664893,0.161702,0.008564,0.618371,-0.605416,0.117703,-2.750539,1.678928,1.570284,-6.512700,-2.272236,-0.743271,-0.062256,-0.063714,0.000000,0.161063,0.271813,0.000000
2.600000,-0.091621,-0.188742,-1.453301,1.670938,0.155732,0.009819,0.590540,-0.588742,0.133360,-2.815685,1.655582,1.560070,-6.513917,-2.394766,-1.301099,-0.060654,-0.060952,0.000000,0.159356,0.279580,0.000000
2.610000,-0.074883,-0.187214,-1.453196,1.676702,0.149927,0.011231,0.562057,-0.572309,0.148888,-2.880857,1.631006,1.544399,-6.495848,-2.502728,-1.871205,-0.059070,-0.058112,0.000000,0.157542,0.287414,-0.000000
2.620000,-0.058088,-0.185743,-1.453076,1.682177,0.144285,0.012796,0.532924,-0.556126,0.164229,-2.945652,1.605494,1.522810,-6.460155,-2.597371,-2.447358,-0.057504,-0.055193,0.000000,0.155647,0.295269,0.000000
2.630000,-0.041240,-0.184328,-1.452939,1.687358,0.138803,0.014514,0.503145,-0.540202,0.179325,-3.009999,1.579105,1.495439,-6.406068,-2.678208,-3.027464,-0.055957,-0.052197,0.000000,0.153674,0.303127,-0.000000
2.640000,-0.024342,-0.182967,-1.452785,1.692238,0.133480,0.016382,0.472726,-0.524546,0.194118,-3.073710,1.551978,1.462255,-6.332820,-2.744748,-3.609430,-0.054430,-0.049121,0.000000,0.151633,0.310960,-0.000000
2.650000,-0.007396,-0.181658,-1.452611,1.696811,0.128312,0.018396,0.441674,-0.509164,0.208550,-3.136589,1.524259,1.423251,-6.239640,-2.796503,-4.191164,-0.052924,-0.045968,0.000000,0.149535,0.318738,0.000000
2.660000,0.009593,-0.180400,-1.452416,1.701069,0.123296,0.020552,0.409996,-0.494063,0.222565,-3.198599,1.495988,1.378537,-6.121586,-2.830196,-4.773036,-0.051440,-0.042738,0.000000,0.147381,0.326445,-0.000000
2.670000,0.026624,-0.179192,-1.452200,1.705008,0.118429,0.022845,0.377706,-0.479245,0.236102,-3.259137,1.467582,1.327916,-5.982573,-2.848467,-5.350189,-0.049977,-0.039431,0.000000,0.145210,0.334009,-0.000000
2.680000,0.043692,-0.178031,-1.451959,1.708622,0.113710,0.025272,0.344818,-0.464712,0.249104,-3.318179,1.439071,1.271557,-5.822343,-2.851168,-5.920230,-0.048536,-0.036050,0.000000,0.143022,0.341414,-0.000000
2.690000,0.060795,-0.176917,-1.451694,1.711903,0.109134,0.027825,0.311348,-0.450464,0.261514,-3.375512,1.410611,1.209543,-5.640639,-2.838151,-6.480764,-0.047117,-0.032596,0.000000,0.140830,0.348624,0.000000
2.700000,0.077929,-0.175848,-1.451402,1.714847,0.104700,0.030500,0.277314,-0.436499,0.273276,-3.430920,1.382361,1.141981,-5.437202,-2.809269,-7.029399,-0.045719,-0.029070,0.000000,0.138648,0.355604,0.000000
2.710000,0.095091,-0.174822,-1.451083,1.717447,0.100403,0.033289,0.242735,-0.422817,0.284336,-3.484403,1.354338,1.068996,-5.206217,-2.760819,-7.563573,-0.044344,-0.025477,0.000000,0.136473,0.362339,-0.000000
2.720000,0.112277,-0.173839,-1.450736,1.719700,0.096242,0.036184,0.207634,-0.409411,0.294639,-3.535220,1.327038,0.990758,-4.953663,-2.696643,-8.081079,-0.042990,-0.021818,0.000000,0.134356,0.368739,0.000000
2.730000,0.129484,-0.172897,-1.450359,1.721598,0.092214,0.039179,0.172039,-0.396274,0.304134,-3.583406,1.300457,0.907438,-4.679963,-2.617030,-8.579545,-0.041656,-0.018096,0.000000,0.132292,0.374792,-0.000000
2.740000,0.146708,-0.171995,-1.449952,1.723139,0.088316,0.042264,0.135976,-0.383399,0.312771,-3.628750,1.274748,0.819238,-4.385539,-2.522266,-9.056596,-0.040343,-0.014316,0.000000,0.130295,0.380462,-0.000000
2.750000,0.163945,-0.171130,-1.449514,1.724317,0.084545,0.045431,0.099474,-0.370775,0.320503,-3.671049,1.250061,0.726385,-4.070813,-2.412640,-9.509859,-0.039050,-0.010482,0.000000,0.128379,0.385715,0.000000
2.760000,0.181193,-0.170303,-1.449043,1.725127,0.080900,0.048671,0.062563,-0.358395,0.327283,-3.710334,1.226397,0.628996,-3.730320,-2.284725,-9.933607,-0.037776,-0.006598,0.000000,0.126542,0.390540,0.000000
2.770000,0.198447,-0.169512,-1.448540,1.725567,0.077377,0.051973,0.025279,-0.346243,0.333069,-3.745856,1.204247,0.527657,-3.371091,-2.142978,-10.329232,-0.036519,-0.002667,0.000000,0.124832,0.394846,0.000000
2.780000,0.215703,-0.168755,-1.448004,1.725632,0.073974,0.055329,-0.012342,-0.334305,0.337823,-3.777697,1.183581,0.422511,-2.994269,-1.988140,-10.694769,-0.035279,0.001303,0.000000,0.123244,0.398630,0.000000
2.790000,0.232958,-0.168032,-1.447433,1.725319,0.070690,0.058726,-0.050262,-0.322566,0.341508,-3.805686,1.164526,0.313869,-2.600996,-1.820953,-11.028257,-0.034054,0.005308,0.000000,0.121790,0.401863,-0.000000
2.800000,0.250208,-0.167341,-1.446829,1.724625,0.067522,0.062155,-0.088442,-0.311009,0.344090,-3.829666,1.147201,0.202059,-2.192417,-1.642160,-11.327732,-0.032842,0.009343,0.000000,0.120480,0.404520,-0.000000
2.810000,0.267449,-0.166681,-1.446190,1.723549,0.064469,0.065604,-0.126843,-0.299618,0.345537,-3.849680,1.131563,0.087186,-1.764817,-1.448578,-11.584983,-0.031644,0.013401,0.000000,0.119310,0.406598,-0.000000
2.820000,0.284678,-0.166051,-1.445517,1.722088,0.061530,0.069062,-0.165421,-0.288371,0.345826,-3.865137,1.118086,-0.029795,-1.324792,-1.245355,-11.805061,-0.030456,0.017477,0.000000,0.118324,0.408028,0.000000
2.830000,0.301890,-0.165450,-1.444809,1.720240,0.058702,0.072517,-0.204131,-0.277249,0.344934,-3.876140,1.106684,-0.148787,-0.874078,-1.033713,-11.986769,-0.029277,0.021563,0.000000,0.117514,0.408816,-0.000000
2.840000,0.319081,-0.164877,-1.444067,1.718005,0.055984,0.075957,-0.242929,-0.266230,0.342845,-3.882589,1.097436,-0.269399,-0.414416,-0.814876,-12.128908,-0.028105,0.025655,0.000000,0.116885,0.408950,-0.000000
