time,x,y,z,vx,vy,vz,ax,ay,az,jx,jy,jz,sx,sy,sz,roll,pitch,yaw,p,q,r
0.000000,-2.001903,-1.556879,-1.494345,0.004630,-0.011633,0.006978,0.025115,0.072752,0.004778,0.151310,1.251281,0.137157,0.561213,16.913942,2.044874,0.007420,-0.002561,0.000000,0.127710,-0.015467,0.000000
0.050000,-2.001671,-1.557460,-1.493996,0.005886,-0.007995,0.007216,0.032680,0.135316,0.011636,0.179370,2.096979,0.239400,1.929691,23.452631,2.528555,0.013809,-0.003335,0.000000,0.214308,-0.018386,0.000000
0.100000,-2.001314,-1.557678,-1.493623,0.007898,0.001899,0.008141,0.043052,0.282449,0.028718,0.344279,3.596545,0.390012,5.666699,26.988111,2.110573,0.028868,-0.004401,0.000000,0.368533,-0.035358,-0.000000
0.150000,-2.000881,-1.557271,-1.493182,0.010191,0.020250,0.010088,0.067108,0.494970,0.050637,0.746040,4.795790,0.450458,7.811388,17.937134,0.577298,0.050673,-0.006876,0.000000,0.492440,-0.076659,0.000000
0.200000,-2.000295,-1.555653,-1.492614,0.014609,0.051396,0.013205,0.117656,0.762028,0.073764,1.125418,5.390258,0.447742,5.429009,4.231099,-0.469568,0.078102,-0.012084,0.000000,0.553686,-0.115775,-0.000000
0.250000,-1.999421,-1.552131,-1.491861,0.021956,0.096452,0.017465,0.179650,1.033996,0.095411,1.288941,5.218900,0.403501,2.364848,-7.577511,-1.118260,0.106020,-0.018491,0.000000,0.535227,-0.132654,-0.000000
0.300000,-1.998099,-1.546008,-1.490868,0.032574,0.154795,0.022746,0.246550,1.283918,0.114114,1.361902,4.632507,0.335916,1.135777,-13.892766,-1.512291,0.131611,-0.025423,0.000000,0.473441,-0.140030,0.000000
0.350000,-1.996163,-1.536651,-1.489587,0.046611,0.224844,0.028876,0.315840,1.497247,0.129003,1.402519,3.829623,0.252272,0.736763,-16.991520,-1.828765,0.153362,-0.032613,0.000000,0.389362,-0.143860,0.000000
0.400000,-1.993438,-1.523524,-1.487980,0.064158,0.304520,0.035646,0.386802,1.666881,0.139341,1.435579,2.933355,0.153039,0.664812,-18.041386,-2.154769,0.170554,-0.039976,0.000000,0.296003,-0.146682,-0.000000
0.450000,-1.989747,-1.506199,-1.486022,0.085292,0.391532,0.042810,0.459398,1.790582,0.144307,1.469000,2.025484,0.036795,0.663890,-17.718135,-2.486633,0.182973,-0.047493,0.000000,0.201778,-0.149285,0.000000
0.500000,-1.984909,-1.484370,-1.483699,0.110098,0.483578,0.050077,0.533702,1.869429,0.143020,1.501968,1.161541,-0.095624,0.600313,-16.477550,-2.755186,0.190742,-0.055153,0.000000,0.112233,-0.151555,0.000000
0.550000,-1.978738,-1.457842,-1.481014,0.138662,0.578475,0.057112,0.609595,1.906736,0.134744,1.529031,0.377729,-0.238724,0.403604,-14.669233,-2.864016,0.194205,-0.062922,0.000000,0.030981,-0.152932,-0.000000
0.600000,-1.971043,-1.426523,-1.477988,0.171057,0.674252,0.063551,0.686605,1.907202,0.119148,1.542328,-0.305382,-0.382025,0.039238,-12.579494,-2.727922,0.193847,-0.070733,0.000000,-0.039802,-0.152665,0.000000
0.650000,-1.961632,-1.390416,-1.474659,0.207322,0.769195,0.069027,0.763828,1.876198,0.096542,1.532955,-0.880220,-0.511516,-0.503795,-10.443388,-2.302101,0.190232,-0.078475,0.000000,-0.099118,-0.149977,-0.000000
0.700000,-1.950311,-1.349603,-1.471085,0.247440,0.861872,0.073205,0.839901,1.819180,0.067997,1.491949,-1.349721,-0.612236,-1.219023,-8.444696,-1.597166,0.183943,-0.086002,0.000000,-0.146991,-0.144164,-0.000000
0.750000,-1.936888,-1.304229,-1.467339,0.291312,0.951113,0.075827,0.913022,1.741226,0.035318,1.411053,-1.724690,-0.671233,-2.085985,-6.713143,-0.679403,0.175539,-0.093137,0.000000,-0.184327,-0.134649,-0.000000
0.800000,-1.921179,-1.254492,-1.463503,0.338742,1.035994,0.076737,0.981006,1.646711,0.000873,1.283350,-2.021035,-0.680176,-3.072684,-5.323633,0.341132,0.165514,-0.099678,0.000000,-0.212710,-0.120994,-0.000000
0.850000,-1.903014,-1.200630,-1.459665,0.389413,1.115785,0.075914,1.041357,1.539122,-0.032699,1.103784,-2.257053,-0.637119,-4.137363,-4.299613,1.330258,0.154269,-0.105408,0.000000,-0.234156,-0.102892,0.000000
0.900000,-1.882238,-1.142914,-1.455911,0.442878,1.189906,0.073467,1.091384,1.421006,-0.062839,0.869614,-2.450996,-0.547150,-5.229638,-3.620822,2.152277,0.142095,-0.110097,0.000000,-0.250829,-0.080150,0.000000
0.950000,-1.858726,-1.081639,-1.452318,0.498551,1.257885,0.069630,1.128319,1.294023,-0.087414,0.580821,-2.619135,-0.421892,-6.291085,-3.234269,2.691409,0.129179,-0.113511,0.000000,-0.264781,-0.052691,0.000000
1.000000,-1.832383,-1.017125,-1.448948,0.555710,1.319309,0.064726,1.149466,1.159092,-0.105028,0.240505,-2.774423,-0.278009,-7.255779,-3.066446,2.869075,0.115607,-0.115416,0.000000,-0.277748,-0.020589,0.000000
1.050000,-1.803155,-0.949708,-1.445845,0.613498,1.373794,0.059127,1.152369,1.016580,-0.115215,-0.144757,-2.925780,-0.134984,-8.051605,-3.034914,2.655396,0.101392,-0.115588,0.000000,-0.290999,0.015867,-0.000000
1.100000,-1.771033,-0.879746,-1.443035,0.670947,1.420967,0.053204,1.134991,0.866514,-0.118526,-0.564655,-3.077915,-0.012470,-8.603296,-3.057906,2.074225,0.086494,-0.113822,0.000000,-0.305257,0.056070,0.000000
1.150000,-1.736060,-0.807612,-1.440525,0.726997,1.460446,0.047275,1.095904,0.708789,-0.116462,-1.005087,-3.231570,0.072438,-8.837930,-3.061296,1.201588,0.070854,-0.109957,0.000000,-0.320674,0.098989,-0.000000
1.200000,-1.698334,-0.733701,-1.438308,0.780537,1.491846,0.041558,1.034482,0.543357,-0.111282,-1.448448,-3.384044,0.107689,-8.693123,-2.983231,0.157621,0.054418,-0.103894,0.000000,-0.336846,0.143092,0.000000
1.250000,-1.658007,-0.658427,-1.436369,0.830445,1.514782,0.036146,0.951059,0.370385,-0.105693,-1.874399,-3.529893,0.088200,-8.127637,-2.777297,-0.907664,0.037166,-0.095622,0.000000,-0.352881,0.186336,0.000000
1.300000,-1.615289,-0.582223,-1.434693,0.875643,1.528884,0.030989,0.847042,0.190368,-0.102462,-2.261212,-3.661774,0.016923,-7.133380,-2.414706,-1.833963,0.019133,-0.085245,0.000000,-0.367532,0.226278,-0.000000
1.350000,-1.570442,-0.505539,-1.433270,0.915149,1.533818,0.025900,0.724938,0.004207,-0.104001,-2.587737,-3.771364,-0.095196,-5.741806,-1.885344,-2.473487,0.000423,-0.072993,0.000000,-0.379391,0.260329,0.000000
1.400000,-1.523774,-0.428841,-1.432103,0.948137,1.529305,0.020589,0.588268,-0.186769,-0.111982,-2.835393,-3.850308,-0.230426,-4.018848,-1.196997,-2.713195,-0.018789,-0.059220,0.000000,-0.387124,0.286089,0.000000
1.450000,-1.475629,-0.352608,-1.431211,0.973976,1.515141,0.014702,0.441399,-0.380824,-0.127044,-2.989622,-3.891064,-0.366515,-2.060419,-0.371024,-2.491923,-0.038267,-0.044390,0.000000,-0.389716,0.301678,-0.000000
1.500000,-1.426376,-0.277327,-1.430633,0.992277,1.491222,0.007884,0.289306,-0.575875,-0.148633,-3.041435,-3.887411,-0.479618,0.012271,0.565469,-1.809506,-0.057738,-0.029043,0.000000,-0.386630,0.306036,-0.000000
1.550000,-1.376401,-0.203486,-1.430423,1.002907,1.457554,-0.000161,0.137255,-0.769565,-0.175006,-2.988395,-3.834517,-0.547466,2.077873,1.585828,-0.727680,-0.076913,-0.013745,0.000000,-0.377840,0.299098,0.000000
1.600000,-1.326086,-0.131572,-1.430649,1.006002,1.414266,-0.009616,-0.009533,-0.959327,-0.203380,-2.833647,-3.728828,-0.552386,4.041740,2.664938,0.636551,-0.095513,0.000952,0.000000,-0.363735,0.281644,-0.000000
1.650000,-1.275801,-0.062059,-1.431385,1.001954,1.361621,-0.020499,-0.146110,-1.142447,-0.230244,-2.584221,-3.568023,-0.483811,5.837398,3.777945,2.124498,-0.113288,0.014551,0.000000,-0.344962,0.254986,-0.000000
1.700000,-1.225890,0.004591,-1.432699,0.991391,1.300021,-0.032641,-0.267956,-1.316129,-0.251761,-2.249907,-3.351033,-0.339936,7.419452,4.898954,3.554756,-0.130021,0.026625,0.000000,-0.322226,0.220674,0.000000
1.750000,-1.176662,0.067943,-1.434649,0.975158,1.230008,-0.045675,-0.371100,-1.477551,-0.264238,-1.842276,-3.078128,-0.128335,8.760116,5.999355,4.745110,-0.145531,0.036820,0.000000,-0.296126,0.180228,0.000000
1.800000,-1.128375,0.127591,-1.437267,0.954281,1.152266,-0.059064,-0.452183,-1.623942,-0.264595,-1.373896,-2.751098,0.134575,9.841297,7.046260,5.534827,-0.159659,0.044853,0.000000,-0.267037,0.134958,-0.000000
1.850000,-1.081234,0.183169,-1.440555,0.929940,1.067614,-0.072135,-0.508490,-1.752661,-0.250780,-0.858146,-2.373502,0.425148,10.643374,8.002224,5.804857,-0.172261,0.050499,0.000000,-0.235085,0.085918,-0.000000
1.900000,-1.035381,0.234353,-1.444480,0.903432,0.977000,-0.084142,-0.537998,-1.861292,-0.222080,-0.309558,-1.950875,0.715060,11.136661,8.826706,5.493707,-0.183191,0.053576,0.000000,-0.200176,0.034001,0.000000
1.950000,-0.990890,0.280869,-1.448969,0.876140,0.881485,-0.094343,-0.539446,-1.947748,-0.179274,0.255520,-1.490831,0.974518,11.278553,9.479320,4.607147,-0.192294,0.053950,0.000000,-0.162089,-0.019879,-0.000000
2.000000,-0.947767,0.322501,-1.453914,0.849488,0.782225,-0.102070,-0.512446,-2.010375,-0.124628,0.818297,-1.002943,1.175775,11.017848,9.924969,3.220332,-0.199406,0.051536,0.000000,-0.120605,-0.074554,0.000000
2.050000,-0.905942,0.359092,-1.459176,0.824895,0.680448,-0.106806,-0.457616,-2.048042,-0.061697,1.357305,-0.498334,1.296551,10.305891,10.140296,1.471451,-0.204351,0.046323,0.000000,-0.075657,-0.128396,-0.000000
2.100000,-0.865277,0.390546,-1.464595,0.803726,0.577421,-0.108240,-0.376715,-2.060208,0.005027,1.848886,0.011086,1.322920,9.112065,10.119101,-0.453181,-0.206958,0.038402,0.000000,-0.027466,-0.179204,0.000000
2.150000,-0.825569,0.416834,-1.470000,0.787224,0.474427,-0.106303,-0.272728,-2.046934,0.070595,2.268511,0.513576,1.251233,7.439688,9.873893,-2.341536,-0.207076,0.027995,0.000000,0.023343,-0.224248,0.000000
2.200000,-0.786555,0.437989,-1.475225,0.776453,0.372728,-0.101180,-0.149864,-2.008851,0.130150,2.592855,0.998475,1.088766,5.337929,9.434762,-3.983356,-0.204601,0.015481,0.000000,0.075684,-0.260507,0.000000
2.250000,-0.747924,0.454107,-1.480118,0.772237,0.273542,-0.093288,-0.013442,-1.947086,0.179472,2.802304,1.457052,0.852898,2.906444,8.847704,-5.198897,-0.199489,0.001396,0.000000,0.128073,-0.285089,-0.000000
2.300000,-0.709331,0.465343,-1.484554,0.775109,0.178019,-0.083233,0.130366,-1.863146,0.215440,2.883499,1.883246,0.568877,0.291330,8.167676,-5.864259,-0.191783,-0.013587,0.000000,0.178805,-0.295761,-0.000000
2.350000,-0.670413,0.471909,-1.488442,0.785274,0.087227,-0.071744,0.274908,-1.758762,0.236360,2.831437,2.273820,0.266472,-2.328916,7.447735,-5.928590,-0.181610,-0.028707,0.000000,0.226233,-0.291435,0.000000
2.400000,-0.630804,0.474066,-1.491729,0.802600,0.002143,-0.059597,0.413510,-1.635764,0.242087,2.650608,2.628019,-0.023982,-4.767137,6.734989,-5.419614,-0.169172,-0.043192,0.000000,0.269034,-0.272460,-0.000000
2.450000,-0.590153,0.472123,-1.494401,0.826625,-0.076349,-0.047535,0.539969,-1.495960,0.233961,2.354724,2.947319,-0.275489,-6.855148,6.067219,-4.435947,-0.154725,-0.056328,0.000000,0.306466,-0.240592,-0.000000
2.500000,-0.548141,0.466431,-1.496482,0.856597,-0.147453,-0.036201,0.648982,-1.341032,0.214539,1.965093,3.234741,-0.467577,-8.467623,5.460500,-3.127405,-0.138545,-0.067531,0.000000,0.338449,-0.198659,0.000000
2.550000,-0.504493,0.457378,-1.498021,0.891523,-0.210452,-0.026081,0.736478,-1.172486,0.187204,1.507961,3.493369,-0.588230,-9.536642,4.901216,-1.667628,-0.120897,-0.076386,0.000000,0.365410,-0.150040,-0.000000
2.600000,-0.458989,0.445386,-1.499090,0.930244,-0.264702,-0.017480,0.799779,-0.991695,0.155716,1.011429,3.724863,-0.634340,-10.053254,4.351798,-0.225681,-0.102015,-0.082653,0.000000,0.388004,-0.098132,-0.000000
2.650000,-0.411469,0.430907,-1.499769,0.971501,-0.309622,-0.010510,0.837621,-0.799999,0.123770,0.502636,3.928548,-0.610798,-10.057354,3.761712,1.056789,-0.082099,-0.086261,0.000000,0.406835,-0.045939,0.000000
2.700000,-0.361839,0.414423,-1.500141,1.014006,-0.344702,-0.005103,0.850042,-0.598840,0.094636,0.005693,4.101034,-0.528661,-9.622016,3.078361,2.078992,-0.061327,-0.087272,0.000000,0.422239,0.004136,-0.000000
2.750000,-0.310068,0.396437,-1.500280,1.056505,-0.369506,-0.001046,0.838190,-0.389896,0.070904,-0.459566,4.236385,-0.402899,-8.837662,2.257952,2.784590,-0.039866,-0.085853,0.000000,0.434172,0.050335,0.000000
2.800000,-0.256188,0.377473,-1.500246,1.097825,-0.383691,0.001987,0.804086,-0.175202,0.054346,-0.878073,4.326829,-0.250202,-7.799020,1.274140,3.157441,-0.017896,-0.082237,0.000000,0.442204,0.091484,-0.000000
2.850000,-0.200286,0.358068,-1.500081,1.136914,-0.387026,0.004388,0.750383,0.042787,0.045883,-1.239468,4.363799,-0.087155,-6.595426,0.123988,3.212539,0.004369,-0.076700,0.000000,0.445603,0.126877,0.000000
2.900000,-0.142497,0.338770,-1.499807,1.172864,-0.379413,0.006575,0.680139,0.261178,0.045630,-1.537616,4.339228,0.071052,-5.304015,-1.167651,2.985257,0.026677,-0.069543,0.000000,0.443489,0.156152,0.000000
2.950000,-0.082999,0.320127,-1.499424,1.204928,-0.360908,0.008951,0.596621,0.476710,0.052989,-1.769869,4.247033,0.211371,-3.988637,-2.553319,2.521647,0.048728,-0.061072,0.000000,0.435026,0.179186,0.000000
3.000000,-0.022004,0.302679,-1.498912,1.232526,-0.331742,0.011874,0.503152,0.685882,0.066767,-1.936479,4.083896,0.323217,-2.703118,-3.977486,1.871388,0.070187,-0.051595,0.000000,0.419566,0.196030,-0.000000
3.050000,0.040253,0.286953,-1.498236,1.255243,-0.292320,0.015628,0.402973,0.885099,0.085310,-2.040181,3.849285,0.398510,-1.490747,-5.381224,1.083469,0.090688,-0.041414,0.000000,0.396715,0.206885,0.000000
3.100000,0.103520,0.273447,-1.497349,1.272823,-0.243232,0.020405,0.299134,1.070810,0.106618,-2.085554,3.545774,0.431564,-0.382403,-6.699544,0.204522,0.109858,-0.030818,0.000000,0.366416,0.212071,0.000000
3.150000,0.167536,0.262630,-1.496196,1.285156,-0.185239,0.026290,0.194418,1.239677,0.128467,-2.078421,3.179330,0.418962,0.600114,-7.868605,-0.720442,0.127327,-0.020079,0.000000,0.329022,0.211994,0.000000
3.200000,0.232036,0.254923,-1.494720,1.292265,-0.119264,0.033252,0.091292,1.388743,0.148515,-2.025543,2.758913,0.359520,1.440745,-8.835075,-1.645961,0.142756,-0.009449,0.000000,0.285284,0.207152,0.000000
3.250000,0.296762,0.250703,-1.492870,1.294286,-0.046365,0.041141,-0.008136,1.515568,0.164419,-1.934347,2.295823,0.254366,2.129343,-9.558619,-2.524014,0.155851,0.000844,0.000000,0.236301,0.198133,0.000000
3.300000,0.361465,0.250287,-1.490606,1.291451,0.032293,0.049694,-0.102143,1.618325,0.173951,-1.812608,1.803051,0.107118,2.662125,-10.013042,-3.302794,0.166383,0.010600,0.000000,0.183462,0.185605,-0.000000
3.350000,0.425907,0.253932,-1.487901,1.284071,0.115468,0.058537,-0.189397,1.695873,0.175130,-1.668134,1.294519,-0.075914,3.041456,-10.188185,-3.927098,0.174197,0.019655,0.000000,0.128371,0.170297,0.000000
3.400000,0.489872,0.261834,-1.484752,1.272512,0.201880,0.067207,-0.268956,1.747777,0.166360,-1.508463,0.784233,-0.285592,3.275616,-10.090746,-4.340761,0.179222,0.027882,0.000000,0.072751,0.152983,0.000000
3.450000,0.553158,0.274120,-1.481180,1.257176,0.290246,0.075173,-0.340244,1.774296,0.146571,-1.340573,0.285444,-0.509990,3.378429,-9.743456,-4.491108,0.181477,0.035195,0.000000,0.018336,0.134454,0.000000
3.500000,0.615589,0.290858,-1.477235,1.238487,0.379310,0.081864,-0.403014,1.776322,0.115361,-1.170620,-0.190113,-0.734702,3.368582,-9.182488,-4.334975,0.181064,0.041547,0.000000,-0.033246,0.115477,0.000000
3.550000,0.677007,0.312051,-1.472994,1.216874,0.467878,0.086709,-0.457305,1.755285,0.073101,-1.003714,-0.632805,-0.943487,3.268557,-8.453153,-3.845492,0.178164,0.046932,0.000000,-0.080586,0.096760,0.000000
3.600000,0.737277,0.337646,-1.468564,1.192757,0.554838,0.089174,-0.503385,1.713041,0.021012,-0.843764,-1.035428,-1.119252,3.103148,-7.604316,-3.018600,0.173018,0.051378,0.000000,-0.122593,0.078908,0.000000
3.650000,0.796283,0.367535,-1.464077,1.166536,0.639182,0.088810,-0.541682,1.651742,-0.038824,-0.693400,-1.393236,-1.245347,2.897579,-6.682368,-1.878252,0.165917,0.054944,0.000000,-0.158559,0.062390,-0.000000
3.700000,0.853930,0.401564,-1.459683,1.138588,0.720012,0.085292,-0.572725,1.573718,-0.103523,-0.554006,-1.703665,-1.307077,2.675250,-5.725847,-0.479339,0.157173,0.057708,0.000000,-0.188176,0.047513,0.000000
3.750000,0.910142,0.439536,-1.455547,1.109263,0.796554,0.078458,-0.597083,1.481376,-0.169532,-0.425875,-1.965821,-1.293281,2.455459,-4.762188,1.092399,0.147106,0.059759,0.000000,-0.211501,0.034421,0.000000
3.800000,0.964857,0.481220,-1.451837,1.078880,0.868150,0.068338,-0.615312,1.377136,-0.232851,-0.308460,-2.179884,-1.197837,2.250105,-3.806774,2.723878,0.136024,0.061192,0.000000,-0.228885,0.023104,-0.000000
3.850000,1.018030,0.526351,-1.448714,1.047732,0.934267,0.055173,-0.627929,1.263387,-0.289315,-0.200864,-2.346498,-1.020893,2.055925,-2.864514,4.281792,0.124212,0.062095,0.000000,-0.240866,0.013447,0.000000
3.900000,1.069630,0.574646,-1.446320,1.016087,0.994489,0.039407,-0.635399,1.142486,-0.334940,-0.102868,-2.466335,-0.769658,1.854332,-1.940231,5.623813,0.111926,0.062550,0.000000,-0.248066,0.005334,0.000000
3.950000,1.119638,0.625800,-1.444773,0.984192,1.048516,0.021679,-0.638215,1.016754,-0.366281,-0.015431,-2.540522,-0.458512,1.636569,-1.052959,6.614896,0.099390,0.062634,0.000000,-0.251149,-0.001298,0.000000
4.000000,1.168049,0.679498,-1.444152,0.952266,1.096164,0.002779,-0.636942,0.888434,-0.380791,0.060789,-2.571631,-0.108168,1.413786,-0.225155,7.147231,0.086792,0.062421,0.000000,-0.250846,-0.006578,0.000000
4.050000,1.214865,0.735417,-1.444495,0.920498,1.137359,-0.016401,-0.632136,0.759591,-0.377098,0.125948,-2.563037,0.256211,1.181122,0.544695,7.157887,0.074284,0.061973,0.000000,-0.247819,-0.010732,0.000000
4.100000,1.260099,0.793234,-1.445792,0.889052,1.172123,-0.034931,-0.624347,0.632130,-0.355170,0.178901,-2.517162,0.607621,0.914574,1.269172,6.637735,0.061989,0.061343,0.000000,-0.242463,-0.013849,0.000000
4.150000,1.303770,0.852629,-1.447988,0.858063,1.200572,-0.051918,-0.614246,0.507875,-0.316336,0.217405,-2.436120,0.919985,0.618098,1.932101,5.630272,0.050020,0.060584,0.000000,-0.234946,-0.015880,-0.000000
4.200000,1.345905,0.913291,-1.450984,0.827628,1.222911,-0.066565,-0.602607,0.388518,-0.263172,0.240711,-2.323951,1.170648,0.322476,2.490260,4.223767,0.038482,0.059752,0.000000,-0.225448,-0.016871,0.000000
4.250000,1.386533,0.974920,-1.454645,0.797803,1.239424,-0.078235,-0.590175,0.275479,-0.199271,0.249653,-2.187094,1.342362,0.046206,2.902301,2.540493,0.027468,0.058895,0.000000,-0.214254,-0.016969,0.000000
4.300000,1.425685,1.037233,-1.458807,0.768610,1.250459,-0.086492,-0.577641,0.169808,-0.128935,0.245332,-2.033721,1.424697,-0.206019,3.137116,0.724406,0.017055,0.058054,0.000000,-0.201757,-0.016295,-0.000000
4.350000,1.463394,1.099966,-1.463294,0.740038,1.256405,-0.091128,-0.565642,0.072107,-0.056801,0.229051,-1.873382,1.414802,-0.427139,3.173701,-1.072486,0.007296,0.057265,0.000000,-0.188494,-0.014945,-0.000000
4.400000,1.499689,1.162874,-1.467920,0.712046,1.257669,-0.092172,-0.554736,-0.017530,0.012545,0.202618,-1.716351,1.317448,-0.606633,3.009019,-2.704292,-0.001786,0.056560,0.000000,-0.175144,-0.013025,-0.000000
4.450000,1.534599,1.225733,-1.472511,0.684565,1.254652,-0.089874,-0.545380,-0.099528,0.074943,0.168387,-1.572480,1.144373,-0.734218,2.664200,-4.044701,-0.010207,0.055964,0.000000,-0.162464,-0.010677,-0.000000
4.500000,1.568146,1.288339,-1.476908,0.657508,1.247717,-0.084678,-0.537898,-0.174778,0.126982,0.129196,-1.449931,0.912978,-0.801729,2.184096,-4.998392,-0.018020,0.055494,0.000000,-0.151167,-0.008079,-0.000000
4.550000,1.600349,1.350505,-1.480979,0.630775,1.237174,-0.077176,-0.532461,-0.244521,0.166241,0.088214,-1.354071,0.644534,-0.804704,1.632037,-5.509060,-0.025311,0.055157,0.000000,-0.141804,-0.005439,-0.000000
4.600000,1.631223,1.412056,-1.484625,0.604262,1.223265,-0.068053,-0.529076,-0.310185,0.191436,0.048726,-1.286728,0.362072,-0.743467,1.081192,-5.563068,-0.032189,0.054950,0.000000,-0.134651,-0.002985,-0.000000
4.650000,1.660776,1.472831,-1.487784,0.577867,1.206155,-0.058032,-0.527588,-0.373194,0.202448,0.013868,-1.245951,0.088227,-0.623489,0.604347,-5.188394,-0.038766,0.054859,0.000000,-0.129653,-0.000936,-0.000000
4.700000,1.689010,1.532672,-1.490428,0.551503,1.185945,-0.047809,-0.527689,-0.434780,0.200258,-0.013623,-1.226293,-0.156767,-0.454960,0.264104,-4.449173,-0.045145,0.054857,0.000000,-0.126421,0.000520,0.000000
4.750000,1.715926,1.591426,-1.492565,0.525098,1.162677,-0.038006,-0.528950,-0.495823,0.186772,-0.031628,-1.219541,-0.356690,-0.251662,0.105198,-3.436758,-0.051401,0.054911,0.000000,-0.124299,0.001244,-0.000000
4.800000,1.741520,1.648940,-1.494229,0.498608,1.136363,-0.029131,-0.530852,-0.556734,0.164589,-0.038789,-1.215773,-0.500443,-0.029369,0.150052,-2.258651,-0.057569,0.054981,0.000000,-0.122456,0.001161,0.000000
4.850000,1.765787,1.705062,-1.495478,0.472013,1.107004,-0.021547,-0.532829,-0.617400,0.136727,-0.034565,-1.204536,-0.582556,0.195905,0.397971,-1.026845,-0.063643,0.055027,0.000000,-0.120007,0.000255,0.000000
4.900000,1.788721,1.759640,-1.496384,0.445325,1.074623,-0.015459,-0.534309,-0.677188,0.106334,-0.019199,-1.175976,-0.603127,0.409538,0.827628,0.152993,-0.069569,0.055007,0.000000,-0.116116,-0.001436,-0.000000
4.950000,1.810319,1.812524,-1.497024,0.418582,1.039285,-0.010914,-0.534749,-0.734998,0.076415,0.006389,-1.121773,-0.567256,0.599563,1.401971,1.190397,-0.075255,0.054883,0.000000,-0.110070,-0.003836,0.000000
5.000000,1.830579,1.863569,-1.497475,0.391850,1.001123,-0.007817,-0.533670,-0.789365,0.049608,0.040757,-1.035779,-0.484088,0.757432,2.074358,2.016353,-0.080579,0.054623,0.000000,-0.101327,-0.006845,-0.000000
5.050000,1.849504,1.912636,-1.497806,0.365215,0.960349,-0.005953,-0.530673,-0.838576,0.028006,0.082132,-0.914337,-0.365621,0.878260,2.794686,2.586743,-0.085392,0.054197,0.000000,-0.089527,-0.010355,0.000000
5.100000,1.867101,1.959603,-1.498070,0.338783,0.917265,-0.005017,-0.525457,-0.880799,0.013046,0.128583,-0.756310,-0.225413,0.960570,3.514521,2.883103,-0.089536,0.053583,0.000000,-0.074491,-0.014260,0.000000
5.150000,1.883382,2.004363,-1.498307,0.312670,0.872269,-0.004648,-0.517815,-0.914207,0.005465,0.178189,-0.562885,-0.077311,1.005655,4.190583,2.911139,-0.092846,0.052765,0.000000,-0.056200,-0.018459,0.000000
5.200000,1.898368,2.046830,-1.498535,0.287001,0.825845,-0.004470,-0.507638,-0.937087,0.005315,0.229149,-0.337252,0.065701,1.016700,4.786307,2.697500,-0.095159,0.051729,0.000000,-0.034787,-0.022859,-0.000000
5.250000,1.912083,2.086947,-1.498754,0.261906,0.778560,-0.004117,-0.494900,-0.947932,0.012035,0.279859,-0.084254,0.192439,0.997780,5.271566,2.285347,-0.096326,0.050468,0.000000,-0.010522,-0.027373,0.000000
5.300000,1.924559,2.124686,-1.498947,0.237511,0.731052,-0.003267,-0.479652,-0.945513,0.024559,0.328927,0.189905,0.294235,0.952880,5.621049,1.729233,-0.096211,0.048978,0.000000,0.016179,-0.031915,0.000000
5.350000,1.935834,2.160053,-1.499081,0.213941,0.684009,-0.001661,-0.462007,-0.928941,0.041458,0.375147,0.477851,0.365363,0.885046,5.811929,1.089744,-0.094705,0.047260,0.000000,0.044742,-0.036389,-0.000000
5.400000,1.945953,2.193087,-1.499113,0.191311,0.638157,0.000879,-0.442137,-0.897728,0.061095,0.417432,0.771098,0.403210,0.795751,5.821414,0.428264,-0.091732,0.045321,0.000000,0.074410,-0.040687,0.000000
5.450000,1.954965,2.223868,-1.498993,0.169727,0.594236,0.004448,-0.420264,-0.851832,0.081779,0.454722,1.059992,0.408189,0.684503,5.624761,-0.197791,-0.087259,0.043174,0.000000,0.104221,-0.044676,-0.000000
5.500000,1.962925,2.252511,-1.498668,0.149284,0.552974,0.009057,-0.396665,-0.791728,0.101914,0.485882,1.333574,0.383430,0.548752,5.194119,-0.738958,-0.081306,0.040837,0.000000,0.132990,-0.048195,-0.000000
5.550000,1.969893,2.279166,-1.498087,0.130061,0.515063,0.014640,-0.371676,-0.718474,0.120122,0.509597,1.579404,0.334293,0.384071,4.498380,-1.156648,-0.073957,0.038338,0.000000,0.159299,-0.051052,-0.000000
5.600000,1.975931,2.304017,-1.497204,0.112117,0.481127,0.021069,-0.345705,-0.633788,0.135343,0.524289,1.783412,0.267766,0.184620,3.503918,-1.424837,-0.065375,0.035718,0.000000,0.181507,-0.053022,-0.000000
5.650000,1.981105,2.327278,-1.495980,0.095490,0.451685,0.028174,-0.319247,-0.540133,0.146899,0.528059,1.929796,0.191810,-0.056114,2.175871,-1.530389,-0.055808,0.033026,0.000000,0.197773,-0.053848,0.000000
5.700000,1.985480,2.349186,-1.494387,0.080192,0.427114,0.035759,-0.292899,-0.440808,0.154524,0.518678,2.000999,0.114727,-0.344290,0.479348,-1.472059,-0.045601,0.030326,0.000000,0.206099,-0.053254,-0.000000
5.750000,1.989124,2.369990,-1.492405,0.066200,0.407604,0.043627,-0.267379,-0.340033,0.158371,0.493630,1.977730,0.044604,-0.684282,-1.620259,-1.258331,-0.035203,0.027696,0.000000,0.204367,-0.050946,0.000000
5.800000,1.992100,2.389946,-1.490024,0.053454,0.393110,0.051596,-0.243536,-0.243035,0.158985,0.450249,1.838973,-0.011106,-1.076590,-4.159043,-0.904391,-0.025169,0.025229,0.000000,0.190365,-0.046638,0.000000
5.850000,1.994469,2.409301,-1.487245,0.041846,0.383300,0.059525,-0.222354,-0.156136,0.157261,0.385971,1.561826,-0.045835,3.093663,-6.531138,-4.187871,-0.016170,0.023031,0.000000,0.161778,-0.040069,0.000000
5.900000,1.996285,2.428276,-1.484072,0.031218,0.377497,0.067322,-0.204939,-0.086853,0.154401,0.759616,1.185859,-0.429893,7.087472,-8.679741,-7.412961,-0.008993,0.021222,0.000000,0.123163,-0.079577,0.000000
5.950000,1.997591,2.447051,-1.480513,0.021353,0.374615,0.074965,-0.146393,-0.037550,0.114271,1.094718,0.693852,-0.787131,2.588938,-7.842053,-3.417761,-0.003872,0.015098,0.000000,0.071861,-0.114106,0.000000
6.000000,1.998420,2.465738,-1.476575,0.016579,0.373742,0.078750,-0.095467,-0.017467,0.075688,1.018509,0.401654,-0.771670,-1.524178,-5.843969,0.309237,-0.001794,0.009807,0.000000,0.041400,-0.105398,-0.000000
