time,x,y,z,vx,vy,vz,ax,ay,az,jx,jy,jz,sx,sy,sz,roll,pitch,yaw,p,q,r
0.000000,-2.020496,-1.384397,-1.427540,-0.016322,0.008932,-0.021643,0.329825,-0.086217,0.049795,-8.808477,-0.938144,-0.222600,200.866890,158.872246,33.226463,-0.008828,-0.033780,0.000000,-0.096125,0.902194,-0.000000
0.010000,-2.020644,-1.384312,-1.427754,-0.013432,0.008049,-0.021151,0.251330,-0.087986,0.049163,-6.934802,0.552024,0.089652,174.272763,139.407715,29.268791,-0.009011,-0.025743,0.000000,0.056284,0.709736,-0.000000
0.020000,-2.020767,-1.384236,-1.427963,-0.011238,0.007219,-0.020650,0.190283,-0.075801,0.051460,-5.315113,1.854836,0.363658,150.051255,121.391009,25.575769,-0.007766,-0.019497,0.000000,0.189654,0.543713,-0.000000
0.030000,-2.020870,-1.384167,-1.428167,-0.009577,0.006573,-0.020113,0.144259,-0.051466,0.056317,-3.926237,2.984471,0.602017,128.091860,104.762421,22.137570,-0.005276,-0.014789,0.000000,0.305585,0.401533,0.000000
0.040000,-2.020960,-1.384104,-1.428365,-0.008310,0.006224,-0.019516,0.111062,-0.016644,0.063390,-2.746104,3.954512,0.807226,108.284070,89.462238,18.944370,-0.001708,-0.011394,0.000000,0.405558,0.280769,-0.000000
0.050000,-2.021038,-1.384042,-1.428557,-0.007319,0.006270,-0.018839,0.088711,0.027136,0.072359,-1.753752,4.777945,0.981688,90.517380,75.430752,15.986342,0.002787,-0.009110,0.000000,0.490929,0.179166,0.000000
0.060000,-2.021107,-1.383977,-1.428742,-0.006505,0.006792,-0.018063,0.075428,0.078468,0.082929,-0.929321,5.467157,1.127704,74.681281,62.608252,13.253662,0.008067,-0.007754,0.000000,0.562943,0.094632,-0.000000
0.070000,-2.021168,-1.383904,-1.428918,-0.005786,0.007860,-0.017176,0.069628,0.136071,0.094826,-0.254059,6.033941,1.247480,60.665266,50.935028,10.736504,0.014005,-0.007167,0.000000,0.622747,0.025227,0.000000
0.080000,-2.021222,-1.383817,-1.429085,-0.005093,0.009531,-0.016163,0.069908,0.198776,0.107798,0.289683,6.489490,1.343120,48.358830,40.351370,8.425041,0.020484,-0.007205,0.000000,0.671400,-0.030847,-0.000000
0.090000,-2.021270,-1.383711,-1.429241,-0.004371,0.011849,-0.015017,0.075038,0.265525,0.121615,0.718448,6.844401,1.416633,37.651464,30.797567,6.309449,0.027399,-0.007745,0.000000,0.709891,-0.075255,-0.000000
0.100000,-2.021310,-1.383578,-1.429385,-0.003579,0.014851,-0.013729,0.083945,0.335362,0.136063,1.047674,7.108675,1.469929,28.432662,22.213911,4.379901,0.034651,-0.008677,0.000000,0.739146,-0.109543,-0.000000
0.110000,-2.021341,-1.383412,-1.429515,-0.002683,0.018564,-0.012294,0.095708,0.407428,0.150952,1.291695,7.291714,1.504819,20.591916,14.540690,2.626573,0.042154,-0.009908,0.000000,0.760036,-0.135139,-0.000000
0.120000,-2.021363,-1.383205,-1.429630,-0.001658,0.023005,-0.010709,0.109540,0.480955,0.166104,1.463738,7.402325,1.523015,14.018721,7.718194,1.039639,0.049827,-0.011358,0.000000,0.773381,-0.153362,-0.000000
0.130000,-2.021374,-1.382949,-1.429729,-0.000488,0.028186,-0.008972,0.124783,0.555260,0.181362,1.575926,7.448715,1.526133,8.602568,1.686714,-0.390727,0.057599,-0.012959,0.000000,0.779957,-0.165422,0.000000
0.140000,-2.021372,-1.382638,-1.429809,0.000840,0.034111,-0.007082,0.140895,0.629741,0.196582,1.639277,7.438497,1.515690,4.232951,-3.613460,-1.674351,0.065406,-0.014655,0.000000,0.780491,-0.172424,-0.000000
0.150000,-2.021356,-1.382264,-1.429870,0.002332,0.040779,-0.005041,0.157439,0.703865,0.211635,1.663705,7.378684,1.493103,0.799363,-8.242040,-2.821058,0.073191,-0.016401,0.000000,0.775665,-0.175366,0.000000
0.160000,-2.021325,-1.381820,-1.429909,0.003989,0.048185,-0.002850,0.174069,0.777170,0.226408,1.658016,7.275695,1.459692,-1.808703,-12.258734,-3.840674,0.080903,-0.018161,0.000000,0.766112,-0.175139,-0.000000
0.170000,-2.021276,-1.381298,-1.429926,0.005813,0.056318,-0.000514,0.190525,0.849254,0.240797,1.629914,7.135350,1.416680,-3.701754,-15.723253,-4.743024,0.088499,-0.019908,0.000000,0.752416,-0.172530,0.000000
0.180000,-2.021208,-1.380692,-1.429919,0.007799,0.065165,0.001964,0.206615,0.919770,0.254713,1.585996,6.962872,1.365190,-4.990298,-18.695307,-5.537934,0.095940,-0.021620,0.000000,0.735113,-0.168214,0.000000
0.190000,-2.021119,-1.379993,-1.429886,0.009943,0.074708,0.004579,0.222210,0.988420,0.268076,1.531755,6.762887,1.306247,-5.784840,-21.234606,-6.235229,0.103191,-0.023284,0.000000,0.714680,-0.162758,0.000000
0.200000,-2.021009,-1.379195,-1.429827,0.012241,0.084926,0.007324,0.237230,1.054950,0.280816,1.471578,6.539423,1.240778,-6.195889,-23.400861,-6.844735,0.110224,-0.024890,0.000000,0.691546,-0.156616,-0.000000
0.210000,-2.020874,-1.378292,-1.429740,0.014679,0.095795,0.010193,0.251902,1.119288,0.292879,1.433486,6.309350,1.170228,-6.958786,-25.593145,-7.391844,0.117029,-0.026462,0.000000,0.667467,-0.152717,-0.000000
0.220000,-2.020715,-1.377277,-1.429623,0.017268,0.107299,0.013179,0.265879,1.181069,0.304204,1.361093,6.043694,1.093870,-7.482693,-27.490251,-7.868909,0.123566,-0.027963,0.000000,0.639462,-0.145174,-0.000000
0.230000,-2.020528,-1.376144,-1.429476,0.019994,0.119407,0.016274,0.279109,1.240103,0.314742,1.284515,5.760468,1.013057,-7.801606,-29.110332,-8.283850,0.129812,-0.029386,0.000000,0.609417,-0.137133,0.000000
0.240000,-2.020314,-1.374887,-1.429297,0.022848,0.132091,0.019471,0.291561,1.296229,0.324452,1.205631,5.462351,0.928373,-7.949521,-30.471544,-8.644586,0.135748,-0.030728,0.000000,0.577634,-0.128792,-0.000000
0.250000,-2.020071,-1.373500,-1.429086,0.025822,0.145322,0.022760,0.303220,1.349309,0.333298,1.125981,5.151840,0.840320,-7.960436,-31.592042,-8.959037,0.141360,-0.031985,0.000000,0.544395,-0.120316,-0.000000
0.260000,-2.019798,-1.371979,-1.428842,0.028907,0.159066,0.026133,0.314165,1.399261,0.341262,1.054320,4.833982,0.750603,-8.059152,-32.558930,-9.267529,0.146636,-0.033167,0.000000,0.510259,-0.112630,-0.000000
0.270000,-2.019493,-1.370318,-1.428563,0.032100,0.173295,0.029582,0.324304,1.445960,0.348300,0.973624,4.504449,0.656531,-8.065497,-33.312972,-9.541607,0.151561,-0.034262,0.000000,0.474765,-0.103951,0.000000
0.280000,-2.019155,-1.368512,-1.428250,0.035391,0.187974,0.033096,0.333638,1.489329,0.354384,0.893283,4.168399,0.559873,-7.990102,-33.863879,-9.785222,0.156128,-0.035270,0.000000,0.438484,-0.095267,0.000000
0.290000,-2.018784,-1.366557,-1.427901,0.038770,0.203070,0.036666,0.342174,1.529313,0.359490,0.814059,3.827816,0.460915,-7.843601,-34.221365,-10.002325,0.160329,-0.036191,0.000000,0.401642,-0.086664,0.000000
0.300000,-2.018380,-1.364449,-1.427516,0.042232,0.218549,0.040283,0.349925,1.565876,0.363596,0.736612,3.484584,0.359902,-7.636626,-34.395142,-10.196868,0.164160,-0.037026,0.000000,0.364451,-0.078215,-0.000000
0.310000,-2.017940,-1.362184,-1.427095,0.045766,0.234376,0.043934,0.356936,1.599003,0.366696,0.663558,3.140672,0.258320,-7.431961,-34.399435,-10.405143,0.167618,-0.037780,0.000000,0.327151,-0.070202,-0.000000
0.320000,-2.017464,-1.359760,-1.426637,0.049367,0.250518,0.047613,0.363204,1.628692,0.368756,0.590453,2.797347,0.153305,-7.181701,-34.238892,-10.594801,0.170703,-0.038451,0.000000,0.289839,-0.062154,-0.000000
0.330000,-2.016952,-1.357173,-1.426143,0.053027,0.266939,0.051306,0.368754,1.654958,0.369756,0.520061,2.456413,0.046486,-6.890095,-33.922670,-10.765831,0.173416,-0.039042,0.000000,0.252738,-0.054370,-0.000000
0.340000,-2.016403,-1.354421,-1.425611,0.056740,0.283606,0.055004,0.373616,1.677833,0.369680,0.452775,2.119382,-0.061950,-6.561388,-33.459930,-10.918225,0.175759,-0.039556,0.000000,0.216015,-0.046894,0.000000
0.350000,-2.015817,-1.351500,-1.425043,0.060498,0.300484,0.058696,0.377821,1.697364,0.368512,0.388943,1.787672,-0.171816,-6.199827,-32.859832,-11.051974,0.177738,-0.039996,0.000000,0.179829,-0.039766,0.000000
0.360000,-2.015193,-1.348410,-1.424437,0.064294,0.317542,0.062370,0.381412,1.713608,0.366248,0.329342,1.462477,-0.282148,-5.821483,-32.128110,-11.186756,0.179358,-0.040366,0.000000,0.144328,-0.033073,0.000000
0.370000,-2.014531,-1.345149,-1.423795,0.068124,0.334746,0.066017,0.384421,1.726640,0.362865,0.273127,1.145352,-0.394602,-5.417332,-31.277768,-11.300464,0.180627,-0.040669,0.000000,0.109651,-0.026724,-0.000000
0.380000,-2.013831,-1.341715,-1.423117,0.071981,0.352064,0.069624,0.386889,1.736545,0.358353,0.221072,0.837285,-0.508079,-4.990172,-30.318385,-11.390679,0.181554,-0.040911,0.000000,0.075926,-0.020806,0.000000
0.390000,-2.013091,-1.338107,-1.422403,0.075860,0.369467,0.073180,0.388857,1.743419,0.352701,0.173391,0.539316,-0.622330,-4.542803,-29.259540,-11.454981,0.182149,-0.041094,0.000000,0.043272,-0.015344,0.000000
0.400000,-2.012313,-1.334326,-1.421654,0.079756,0.386923,0.076674,0.390372,1.747368,0.345904,0.130274,0.252394,-0.737084,-4.078024,-28.110811,-11.490952,0.182424,-0.041224,0.000000,0.011797,-0.010360,0.000000
0.410000,-2.011496,-1.330369,-1.420870,0.083666,0.404405,0.080094,0.391479,1.748507,0.337960,0.091982,-0.022555,-0.851952,-3.601229,-26.883724,-11.498538,0.182390,-0.041306,0.000000,-0.018388,-0.005884,-0.000000
0.420000,-2.010640,-1.326237,-1.420052,0.087585,0.421884,0.083429,0.392227,1.746959,0.328865,0.058405,-0.284957,-0.966837,-3.112304,-25.585673,-11.472663,0.182060,-0.041346,0.000000,-0.047217,-0.001906,0.000000
0.430000,-2.009745,-1.321931,-1.419202,0.091509,0.439335,0.086668,0.392664,1.742853,0.318624,0.029768,-0.534063,-1.081285,-2.613731,-24.225998,-11.410617,0.181450,-0.041347,0.000000,-0.074598,0.001548,0.000000
0.440000,-2.008810,-1.317451,-1.418319,0.095437,0.456733,0.089798,0.392839,1.736324,0.307243,0.006155,-0.769303,-1.194920,-2.107991,-22.814040,-11.309690,0.180573,-0.041316,0.000000,-0.100460,0.004469,-0.000000
0.450000,-2.007836,-1.312797,-1.417406,0.099365,0.474054,0.092809,0.392804,1.727514,0.294730,-0.012376,-0.990201,-1.307340,-1.597566,-21.359139,-11.167175,0.179446,-0.041258,0.000000,-0.124742,0.006849,-0.000000
0.460000,-2.006823,-1.307970,-1.416463,0.103293,0.491276,0.095689,0.392610,1.716573,0.281096,-0.025697,-1.196005,-1.418602,-1.087258,-19.879959,-10.968094,0.178084,-0.041179,0.000000,-0.147363,0.008676,-0.000000
0.470000,-2.005770,-1.302972,-1.415493,0.107217,0.508379,0.098427,0.392307,1.703644,0.266365,-0.034018,-1.387299,-1.527098,-0.576943,-18.375376,-10.723506,0.176504,-0.041084,0.000000,-0.168351,0.009968,-0.000000
0.480000,-2.004678,-1.297803,-1.414495,0.111139,0.525343,0.101013,0.391947,1.688878,0.250563,-0.037244,-1.563455,-1.632916,-0.068819,-16.853587,-10.432204,0.174723,-0.040978,0.000000,-0.187641,0.010716,-0.000000
0.490000,-2.003547,-1.292466,-1.413473,0.115056,0.542151,0.103435,0.391579,1.672426,0.233718,-0.035409,-1.724341,-1.735582,0.434918,-15.322792,-10.092980,0.172757,-0.040868,0.000000,-0.205211,0.010925,-0.000000
0.500000,-2.002377,-1.286961,-1.412427,0.118970,0.558786,0.105684,0.391255,1.654442,0.215863,-0.028567,-1.869908,-1.834612,0.932069,-13.791190,-9.704627,0.170625,-0.040758,0.000000,-0.221049,0.010602,0.000000
0.510000,-2.001168,-1.281290,-1.411360,0.122882,0.575235,0.107749,0.391026,1.635085,0.197031,-0.016642,-1.999569,-1.930288,1.416539,-12.282655,-9.246218,0.168343,-0.040654,0.000000,-0.235103,0.009743,-0.000000
0.520000,-1.999919,-1.275457,-1.410273,0.126791,0.591484,0.109622,0.390938,1.614501,0.177274,-0.000097,-2.114907,-2.020253,1.890506,-10.787791,-8.738679,0.165928,-0.040562,0.000000,-0.247497,0.008391,0.000000
0.530000,-1.998632,-1.269461,-1.409168,0.130701,0.607521,0.111292,0.391040,1.592837,0.156643,0.021127,-2.215391,-2.104902,2.352251,-9.312876,-8.183217,0.163398,-0.040486,0.000000,-0.258193,0.006545,-0.000000
0.540000,-1.997305,-1.263307,-1.408048,0.134613,0.623337,0.112752,0.391376,1.570241,0.135195,0.046901,-2.301252,-2.183761,2.800055,-7.864192,-7.581039,0.160770,-0.040431,0.000000,-0.267215,0.004221,-0.000000
0.550000,-1.995940,-1.256995,-1.406914,0.138529,0.638923,0.113993,0.391992,1.546860,0.112989,0.077076,-2.372783,-2.256371,3.232197,-6.448016,-6.933353,0.158059,-0.040402,0.000000,-0.274595,0.001437,-0.000000
0.560000,-1.994535,-1.250529,-1.405769,0.142454,0.654272,0.115010,0.392934,1.522841,0.090082,0.111686,-2.429568,-2.323032,3.641933,-5.090154,-6.222382,0.155284,-0.040404,0.000000,-0.280310,-0.001804,-0.000000
0.570000,-1.993091,-1.243911,-1.404614,0.146389,0.669378,0.115793,0.394239,1.498313,0.066553,0.150078,-2.473857,-2.381530,4.033184,-3.774969,-5.470641,0.152458,-0.040440,0.000000,-0.284564,-0.005440,0.000000
0.580000,-1.991607,-1.237143,-1.403454,0.150340,0.684237,0.116339,0.395948,1.473407,0.042477,0.192285,-2.505223,-2.432321,4.404845,-2.506349,-4.681662,0.149598,-0.040515,0.000000,-0.287339,-0.009469,-0.000000
0.590000,-1.990084,-1.230227,-1.402289,0.154310,0.698846,0.116641,0.398097,1.448250,0.017933,0.238106,-2.524152,-2.475051,4.755812,-1.288182,-3.858976,0.146716,-0.040633,0.000000,-0.288695,-0.013866,-0.000000
0.600000,-1.988521,-1.223166,-1.401122,0.158303,0.713202,0.116696,0.400721,1.422963,-0.006996,0.287328,-2.531168,-2.509400,5.084981,-0.124359,-3.006115,0.143828,-0.040797,0.000000,-0.288697,-0.018609,0.000000
0.610000,-1.986918,-1.215964,-1.399955,0.162326,0.727305,0.116500,0.403856,1.397673,-0.032231,0.339927,-2.526047,-2.535556,5.386251,0.961384,-2.114691,0.140947,-0.041010,0.000000,-0.287346,-0.023689,-0.000000
0.620000,-1.985274,-1.208621,-1.398792,0.166382,0.741155,0.116051,0.407530,1.372478,-0.057677,0.395198,-2.511253,-2.552154,5.664127,1.987437,-1.201615,0.138085,-0.041276,0.000000,-0.284885,-0.029039,-0.000000
0.630000,-1.983590,-1.201141,-1.397635,0.170478,0.754755,0.115346,0.411769,1.347481,-0.083243,0.453130,-2.486502,-2.559533,5.918115,2.952344,-0.271877,0.135253,-0.041597,0.000000,-0.281312,-0.034654,0.000000
0.640000,-1.981864,-1.193527,-1.396486,0.174619,0.768106,0.114386,0.416600,1.322779,-0.108837,0.513479,-2.452415,-2.557552,6.147722,3.854647,0.669531,0.132463,-0.041976,0.000000,-0.276703,-0.040508,-0.000000
0.650000,-1.980097,-1.185780,-1.395348,0.178812,0.781212,0.113170,0.422046,1.298462,-0.134363,0.576001,-2.409623,-2.546120,6.352456,4.692888,1.617617,0.129723,-0.042415,0.000000,-0.271139,-0.046577,0.000000
0.660000,-1.978288,-1.177904,-1.394224,0.183062,0.794076,0.111699,0.428128,1.274620,-0.159728,0.640596,-2.358122,-2.525270,6.527971,5.449100,2.569308,0.127043,-0.042916,0.000000,-0.264639,-0.052849,0.000000
0.670000,-1.976436,-1.169899,-1.393115,0.187377,0.806706,0.109976,0.434863,1.251323,-0.184837,0.706648,-2.300120,-2.494831,6.678099,6.140355,3.517460,0.124432,-0.043481,0.000000,-0.257432,-0.059266,0.000000
0.680000,-1.974540,-1.161770,-1.392025,0.191762,0.819105,0.108004,0.442266,1.228640,-0.209593,0.774074,-2.235529,-2.454950,6.802821,6.767219,4.456850,0.121897,-0.044111,0.000000,-0.249528,-0.065820,0.000000
0.690000,-1.972600,-1.153518,-1.390956,0.196224,0.831281,0.105786,0.450349,1.206633,-0.233905,0.842620,-2.164989,-2.405741,6.902115,7.330255,5.382250,0.119444,-0.044808,0.000000,-0.241004,-0.072487,-0.000000
0.700000,-1.970615,-1.145145,-1.389910,0.200771,0.843240,0.103327,0.459121,1.185358,-0.257678,0.912031,-2.089135,-2.347369,6.975960,7.830026,6.288434,0.117079,-0.045572,0.000000,-0.231937,-0.079245,0.000000
0.710000,-1.968585,-1.136654,-1.388890,0.205409,0.854990,0.100634,0.468592,1.164870,-0.280819,0.982136,-2.008181,-2.279754,7.022253,8.256582,7.162611,0.114807,-0.046404,0.000000,-0.222356,-0.086081,0.000000
0.720000,-1.966507,-1.128046,-1.387898,0.210145,0.866540,0.097713,0.478765,1.145207,-0.303244,1.052485,-1.923737,-2.203875,7.043312,8.622288,8.008047,0.112633,-0.047305,0.000000,-0.212439,-0.092951,0.000000
0.730000,-1.964381,-1.119324,-1.386937,0.214987,0.877897,0.094572,0.489642,1.126406,-0.324869,1.122919,-1.835932,-2.119703,7.039370,8.928998,8.820445,0.110560,-0.048275,0.000000,-0.202204,-0.099845,0.000000
0.740000,-1.962207,-1.110489,-1.386008,0.219941,0.889071,0.091219,0.501223,1.108498,-0.345612,1.193190,-1.745347,-2.027591,7.010661,9.178561,9.595505,0.108590,-0.049314,0.000000,-0.191716,-0.106743,-0.000000
0.750000,-1.959982,-1.101543,-1.385113,0.225014,0.900070,0.087663,0.513505,1.091507,-0.365395,1.263051,-1.652545,-1.927932,6.957420,9.372830,10.328927,0.106726,-0.050423,0.000000,-0.181038,-0.113625,0.000000
0.760000,-1.957706,-1.092488,-1.384255,0.230213,0.910904,0.083914,0.526482,1.075454,-0.384141,1.332276,-1.557919,-1.820608,6.879398,9.509867,11.002336,0.104970,-0.051600,0.000000,-0.170207,-0.120477,-0.000000
0.770000,-1.955377,-1.083325,-1.383435,0.235546,0.921583,0.079984,0.540147,1.060352,-0.401786,1.400580,-1.462349,-1.707419,6.777370,9.595776,11.627233,0.103322,-0.052845,0.000000,-0.159328,-0.127269,-0.000000
0.780000,-1.952995,-1.074057,-1.382656,0.241018,0.932115,0.075882,0.554490,1.046209,-0.418269,1.467745,-1.366166,-1.588234,6.651631,9.632873,12.201043,0.101783,-0.054158,0.000000,-0.148429,-0.133988,0.000000
0.790000,-1.950557,-1.064684,-1.381918,0.246638,0.942510,0.071622,0.569497,1.033029,-0.433532,1.533535,-1.269846,-1.463577,6.502473,9.623474,12.721192,0.100353,-0.055539,0.000000,-0.137558,-0.140616,0.000000
0.800000,-1.948061,-1.055207,-1.381224,0.252410,0.952778,0.067216,0.585155,1.020811,-0.447524,1.597717,-1.173844,-1.333997,6.330190,9.569895,13.185103,0.099032,-0.056985,0.000000,-0.126760,-0.147136,0.000000
0.810000,-1.945508,-1.045628,-1.380574,0.258343,0.962929,0.062676,0.601445,1.009549,-0.460191,1.660048,-1.078655,-1.199415,6.135434,9.476148,13.573656,0.097818,-0.058495,0.000000,-0.116077,-0.153532,0.000000
0.820000,-1.942894,-1.035949,-1.379971,0.264441,0.972973,0.058017,0.618349,0.999234,-0.471500,1.720335,-0.984529,-1.061983,5.918095,9.342644,13.902847,0.096710,-0.060070,0.000000,-0.105548,-0.159780,-0.000000
0.830000,-1.940218,-1.026169,-1.379414,0.270712,0.982917,0.053251,0.635845,0.989854,-0.481420,1.778336,-0.891928,-0.921558,5.678423,9.171490,14.172128,0.095706,-0.061706,0.000000,-0.095209,-0.165867,-0.000000
0.840000,-1.937479,-1.016291,-1.378906,0.277160,0.992773,0.048393,0.653908,0.981390,-0.489924,1.833829,-0.801218,-0.778742,5.416667,8.964794,14.380948,0.094805,-0.063402,0.000000,-0.085094,-0.171773,-0.000000
0.850000,-1.934675,-1.006314,-1.378447,0.283792,1.002548,0.043457,0.672512,0.973822,-0.496989,1.886596,-0.712743,-0.634143,5.133077,8.724663,14.528760,0.094003,-0.065156,0.000000,-0.075233,-0.177480,0.000000
0.860000,-1.931803,-0.996240,-1.378037,0.290612,1.012252,0.038458,0.691630,0.967124,-0.502596,1.936413,-0.627011,-0.487772,4.828063,8.457807,14.599854,0.093299,-0.066966,0.000000,-0.065668,-0.182974,-0.000000
0.870000,-1.928862,-0.986069,-1.377678,0.297626,1.021893,0.033410,0.711230,0.961272,-0.506743,1.983079,-0.543892,-0.341670,4.501693,8.161168,14.610698,0.092689,-0.068830,0.000000,-0.056397,-0.188226,-0.000000
0.880000,-1.925850,-0.975802,-1.377369,0.304838,1.031480,0.028328,0.731280,0.956236,-0.509430,2.026376,-0.463882,-0.195755,4.154198,7.836290,14.562597,0.092170,-0.070746,0.000000,-0.047459,-0.193223,0.000000
0.890000,-1.922764,-0.965440,-1.377111,0.312253,1.041021,0.023226,0.751745,0.951983,-0.510661,2.066093,-0.387255,-0.050610,3.785806,7.484717,14.456859,0.091739,-0.072710,0.000000,-0.038877,-0.197942,-0.000000
0.900000,-1.919604,-0.954982,-1.376905,0.319874,1.050522,0.018119,0.772589,0.948479,-0.510447,2.102023,-0.314271,0.093195,3.396748,7.107993,14.294790,0.091391,-0.074721,0.000000,-0.030675,-0.202365,-0.000000
0.910000,-1.916366,-0.944429,-1.376749,0.327706,1.059993,0.013022,0.793773,0.945683,-0.508799,2.134001,-0.245355,0.235535,2.986219,6.712239,14.066780,0.091124,-0.076774,0.000000,-0.022888,-0.206476,-0.000000
0.920000,-1.913049,-0.933782,-1.376644,0.335751,1.069438,0.007948,0.815255,0.943558,-0.505745,2.161727,-0.180306,0.374843,2.555610,6.293863,13.786390,0.090932,-0.078866,0.000000,-0.015503,-0.210237,-0.000000
0.930000,-1.909650,-0.923041,-1.376590,0.344012,1.078866,0.002911,0.836993,0.942062,-0.501312,2.185048,-0.119550,0.511097,2.105277,5.853847,13.456265,0.090812,-0.080995,0.000000,-0.008557,-0.213634,0.000000
0.940000,-1.906168,-0.912205,-1.376586,0.352491,1.088282,-0.002074,0.858941,0.941152,-0.495534,2.203768,-0.063298,0.643812,1.635575,5.393174,13.079048,0.090759,-0.083155,0.000000,-0.002068,-0.216644,0.000000
0.950000,-1.902600,-0.901275,-1.376631,0.361191,1.097691,-0.006995,0.881052,0.940781,-0.488449,2.217696,-0.011752,0.772530,1.146862,4.912830,12.657384,0.090769,-0.085344,0.000000,0.003944,-0.219243,-0.000000
0.960000,-1.898943,-0.890251,-1.376725,0.370113,1.107099,-0.011839,0.903279,0.940900,-0.480096,2.226749,0.034803,0.897025,0.636814,4.416148,12.188729,0.090836,-0.087557,0.000000,0.009453,-0.221420,0.000000
0.970000,-1.895197,-0.879133,-1.376868,0.379257,1.116510,-0.016593,0.925570,0.941460,-0.470525,2.230492,0.076406,1.016407,0.108795,3.901473,11.681550,0.090956,-0.089789,0.000000,0.014460,-0.223122,0.000000
0.980000,-1.891358,-0.867921,-1.377057,0.388624,1.125929,-0.021245,0.947871,0.942410,-0.459786,2.228867,0.112775,1.130539,-0.436510,3.369500,11.139125,0.091124,-0.092036,0.000000,0.018936,-0.224338,-0.000000
0.990000,-1.887424,-0.856615,-1.377292,0.398214,1.135360,-0.025785,0.970129,0.943697,-0.447933,2.221706,0.143740,1.239083,-0.998419,2.820925,10.564734,0.091333,-0.094293,0.000000,0.022864,-0.225045,0.000000
1.000000,-1.883393,-0.845214,-1.377572,0.408026,1.144804,-0.030200,0.992286,0.945267,-0.435024,2.208846,0.169140,1.341738,-1.576245,2.256444,9.961656,0.091579,-0.096554,0.000000,0.026227,-0.225217,0.000000
1.010000,-1.879262,-0.833718,-1.377896,0.418059,1.154266,-0.034482,1.014288,0.947062,-0.421119,2.190295,0.188850,1.438209,-2.173452,1.675953,9.333756,0.091856,-0.098815,0.000000,0.029009,-0.224846,-0.000000
1.020000,-1.875031,-0.822128,-1.378261,0.428311,1.163746,-0.038620,1.036072,0.949024,-0.406281,2.165515,0.202647,1.528313,-2.784701,1.081044,8.683656,0.092157,-0.101068,0.000000,0.031186,-0.223872,-0.000000
1.030000,-1.870695,-0.810443,-1.378667,0.438780,1.173246,-0.042605,1.057578,0.951094,-0.390575,2.134558,0.210426,1.611818,-3.408799,0.472511,8.014562,0.092478,-0.103309,0.000000,0.032745,-0.222287,-0.000000
1.040000,-1.866254,-0.798663,-1.379113,0.449462,1.182768,-0.046429,1.078742,0.953212,-0.374067,2.097300,0.212054,1.688551,-4.044553,-0.148852,7.329681,0.092810,-0.105531,0.000000,0.033668,-0.220071,-0.000000
1.050000,-1.861705,-0.786788,-1.379595,0.460353,1.192311,-0.050084,1.099502,0.955315,-0.356827,2.053632,0.207408,1.758370,-4.690773,-0.782252,6.632222,0.093149,-0.107727,0.000000,0.033939,-0.217200,-0.000000
1.060000,-1.857047,-0.774817,-1.380114,0.471450,1.201874,-0.053563,1.119795,0.957340,-0.338925,2.003646,0.196511,1.820964,-5.351120,-1.430419,5.930465,0.093487,-0.109892,0.000000,0.033554,-0.213672,0.000000
1.070000,-1.852276,-0.762750,-1.380666,0.482747,1.211457,-0.056860,1.139553,0.959223,-0.320431,1.946801,0.178924,1.876730,-6.018953,-2.088605,5.221922,0.093818,-0.112017,0.000000,0.032469,-0.209426,0.000000
1.080000,-1.847391,-0.750588,-1.381250,0.494239,1.221058,-0.059970,1.158709,0.960897,-0.301414,1.883248,0.154710,1.925388,-6.692485,-2.755585,4.509179,0.094134,-0.114096,0.000000,0.030683,-0.204464,0.000000
1.090000,-1.842390,-0.738329,-1.381865,0.505919,1.230674,-0.062887,1.177196,0.962295,-0.281947,1.812939,0.123787,1.966908,-7.369929,-3.430133,3.794823,0.094429,-0.116122,0.000000,0.028184,-0.198770,0.000000
1.100000,-1.837272,-0.725974,-1.382508,0.517781,1.240303,-0.065607,1.194945,0.963350,-0.262100,1.735843,0.086086,2.001288,-8.049498,-4.111025,3.081439,0.094695,-0.118087,0.000000,0.024957,-0.192330,-0.000000
1.110000,-1.832034,-0.713523,-1.383176,0.529816,1.249940,-0.068128,1.211892,0.963996,-0.241948,1.652125,0.041742,2.028261,-8.733884,-4.801904,2.378888,0.094926,-0.119984,0.000000,0.021009,-0.185145,0.000000
1.120000,-1.826675,-0.700976,-1.383869,0.542016,1.259581,-0.070445,1.227965,0.964162,-0.221558,1.561371,-0.009746,2.048558,-9.416274,-5.496079,1.681590,0.095113,-0.121804,0.000000,0.016291,-0.177172,-0.000000
1.130000,-1.821193,-0.688332,-1.384585,0.554372,1.269221,-0.072558,1.243096,0.963778,-0.201000,1.463814,-0.068184,2.061916,-10.094332,-6.191732,0.991241,0.095249,-0.123541,0.000000,0.010813,-0.168420,-0.000000
1.140000,-1.815587,-0.675591,-1.385320,0.566874,1.278854,-0.074465,1.257219,0.962775,-0.180343,1.359507,-0.133579,2.068412,-10.765722,-6.887039,0.309537,0.095327,-0.125185,0.000000,0.004568,-0.158885,0.000000
1.150000,-1.809855,-0.662754,-1.386073,0.579512,1.288474,-0.076165,1.270264,0.961083,-0.159654,1.248529,-0.205918,2.068141,-11.428111,-7.580181,-0.361827,0.095338,-0.126730,0.000000,-0.002447,-0.148563,-0.000000
1.160000,-1.803997,-0.649822,-1.386842,0.592276,1.298073,-0.077658,1.282169,0.958635,-0.139005,1.131099,-0.284993,2.060950,-12.082112,-8.273801,-1.014435,0.095275,-0.128168,0.000000,-0.010221,-0.137466,0.000000
1.170000,-1.798010,-0.636793,-1.387626,0.605152,1.307644,-0.078945,1.292865,0.955360,-0.118457,1.007066,-0.371173,2.047596,-12.722078,-8.961067,-1.654136,0.095131,-0.129489,0.000000,-0.018789,-0.125578,-0.000000
1.180000,-1.791893,-0.623669,-1.388421,0.618129,1.317178,-0.080028,1.302289,0.951189,-0.098074,0.876714,-0.464185,2.027913,-13.345315,-9.639610,-2.280057,0.094897,-0.130688,0.000000,-0.028132,-0.112916,0.000000
1.190000,-1.785647,-0.610450,-1.389226,0.631193,1.326665,-0.080908,1.310378,0.946054,-0.077919,0.740224,-0.563929,2.002043,-13.949126,-10.307062,-2.891326,0.094566,-0.131755,0.000000,-0.038246,-0.099492,0.000000
1.200000,-1.779269,-0.597136,-1.390038,0.644332,1.336095,-0.081587,1.317073,0.939888,-0.058053,0.597805,-0.670281,1.970138,-14.530815,-10.961057,-3.487070,0.094129,-0.132684,0.000000,-0.049121,-0.085320,-0.000000
1.210000,-1.772760,-0.583728,-1.390857,0.657530,1.345459,-0.082070,1.322316,0.932628,-0.038538,0.449705,-0.783001,1.932207,-15.088056,-11.601655,-4.062653,0.093581,-0.133467,0.000000,-0.060740,-0.070419,-0.000000
1.220000,-1.766118,-0.570227,-1.391679,0.670773,1.354744,-0.082359,1.326049,0.924207,-0.019428,0.296152,-0.902144,1.888773,-15.617736,-12.223761,-4.621428,0.092912,-0.134096,0.000000,-0.073108,-0.054813,-0.000000
1.230000,-1.759344,-0.556633,-1.392503,0.684045,1.363939,-0.082460,1.328222,0.914565,-0.000781,0.137451,-1.027405,1.839836,-16.117114,-12.824710,-5.162983,0.092116,-0.134566,0.000000,-0.086200,-0.038526,0.000000
1.240000,-1.752437,-0.542949,-1.393328,0.697332,1.373031,-0.082377,1.328782,0.903640,0.017351,-0.026080,-1.158559,1.785572,-16.583449,-13.401838,-5.686909,0.091186,-0.134868,0.000000,-0.099995,-0.021589,-0.000000
1.250000,-1.745398,-0.529173,-1.394150,0.710616,1.382007,-0.082115,1.327685,0.891375,0.034914,-0.194098,-1.295354,1.726158,-17.013998,-13.952478,-6.192792,0.090114,-0.134997,0.000000,-0.114469,-0.004037,0.000000
1.260000,-1.738225,-0.515309,-1.394969,0.723880,1.390854,-0.081680,1.324885,0.877714,0.051858,-0.366348,-1.437542,1.661794,-17.403079,-14.473206,-6.680627,0.088894,-0.134947,0.000000,-0.129598,0.014104,-0.000000
1.270000,-1.730920,-0.501357,-1.395783,0.737108,1.399557,-0.081080,1.320346,0.862607,0.068134,-0.542155,-1.584746,1.592627,-17.751251,-14.962208,-7.149549,0.087520,-0.134712,0.000000,-0.145345,0.032765,-0.000000
1.280000,-1.723483,-0.487318,-1.396590,0.750281,1.408101,-0.080320,1.314031,0.846004,0.083695,-0.721229,-1.736671,1.518867,-18.056132,-15.416914,-7.599096,0.085985,-0.134288,0.000000,-0.161678,0.051911,-0.000000
1.290000,-1.715915,-0.473195,-1.397389,0.763382,1.416471,-0.079409,1.305912,0.827859,0.098496,-0.903125,-1.892962,1.440711,-18.315341,-15.834750,-8.028807,0.084285,-0.133669,0.000000,-0.178558,0.071494,0.000000
1.300000,-1.708216,-0.458989,-1.398178,0.776393,1.424653,-0.078353,1.295961,0.808131,0.112495,-1.087375,-2.053235,1.358359,-18.526496,-16.213146,-8.438221,0.082413,-0.132851,0.000000,-0.195943,0.091460,0.000000
1.310000,-1.700387,-0.444703,-1.398956,0.789295,1.432629,-0.077161,1.284155,0.786780,0.125652,-1.273746,-2.217262,1.272174,-18.680674,-16.545056,-8.830865,0.080364,-0.131832,0.000000,-0.213802,0.111774,-0.000000
1.320000,-1.692430,-0.430338,-1.399721,0.802070,1.440383,-0.075843,1.270482,0.763776,0.137926,-1.461108,-2.384189,1.181992,-18.782836,-16.832929,-9.201802,0.078135,-0.130608,0.000000,-0.232047,0.132317,-0.000000
1.330000,-1.684346,-0.415896,-1.400472,0.814699,1.447899,-0.074406,1.254931,0.739088,0.149280,-1.649224,-2.553767,1.088213,-18.831402,-17.074739,-9.550084,0.075722,-0.129177,0.000000,-0.250642,0.153052,0.000000
1.340000,-1.676137,-0.401380,-1.401209,0.827162,1.455159,-0.072860,1.237497,0.712693,0.159679,-1.837552,-2.725523,0.991069,-18.824789,-17.268462,-9.874760,0.073121,-0.127538,0.000000,-0.269527,0.173911,-0.000000
1.350000,-1.667804,-0.386794,-1.401929,0.839442,1.462147,-0.071216,1.218181,0.684572,0.169091,-2.025531,-2.898969,0.890800,-18.761419,-17.412073,-10.174883,0.070331,-0.125689,0.000000,-0.288642,0.194822,0.000000
1.360000,-1.659349,-0.372138,-1.402633,0.851520,1.468845,-0.069482,1.196985,0.654706,0.177487,-2.212977,-3.073912,0.787856,-18.629820,-17.495439,-10.454542,0.067348,-0.123631,0.000000,-0.307952,0.215747,0.000000
1.370000,-1.650774,-0.357418,-1.403318,0.863376,1.475235,-0.067670,1.173927,0.623092,0.184839,-2.398373,-3.249062,0.682024,-18.439513,-17.525637,-10.707131,0.064171,-0.121365,0.000000,-0.327314,0.236522,0.000000
1.380000,-1.642082,-0.342635,-1.403986,0.874992,1.481301,-0.065789,1.149025,0.589725,0.191120,-2.581570,-3.424244,0.573809,-18.190128,-17.501636,-10.931085,0.060801,-0.118892,0.000000,-0.346689,0.257108,0.000000
1.390000,-1.633275,-0.327793,-1.404634,0.886350,1.487024,-0.063851,1.122304,0.554608,0.196308,-2.761977,-3.598911,0.463503,-17.881296,-17.422403,-11.124837,0.057238,-0.116214,0.000000,-0.366004,0.277426,-0.000000
1.400000,-1.624356,-0.312896,-1.405263,0.897432,1.492387,-0.061866,1.093797,0.517750,0.200384,-2.938997,-3.772505,0.351418,-17.512648,-17.286907,-11.286821,0.053482,-0.113335,0.000000,-0.385181,0.297392,0.000000
1.410000,-1.615327,-0.297946,-1.405871,0.908221,1.497373,-0.059847,1.063533,0.479159,0.203333,-3.112518,-3.944898,0.237968,-17.071480,-17.083013,-11.417744,0.049534,-0.110259,0.000000,-0.404185,0.316974,-0.000000
1.420000,-1.606193,-0.282949,-1.406459,0.918697,1.501965,-0.057804,1.031562,0.438860,0.205140,-3.280780,-4.114471,0.123282,-16.571267,-16.822153,-11.513487,0.045399,-0.106990,0.000000,-0.422828,0.335971,-0.000000
1.430000,-1.596955,-0.267909,-1.407027,0.928846,1.506145,-0.055748,0.997935,0.396879,0.205796,-3.443750,-4.281152,0.007821,-16.013149,-16.504654,-11.572208,0.041079,-0.103534,0.000000,-0.441078,0.354354,-0.000000
1.440000,-1.587617,-0.252828,-1.407574,0.938651,1.509897,-0.053692,0.962706,0.353248,0.205295,-3.600854,-4.444376,-0.108033,-15.398266,-16.130843,-11.592059,0.036579,-0.099899,0.000000,-0.458854,0.372043,-0.000000
1.450000,-1.578183,-0.237712,-1.408101,0.948095,1.513204,-0.051646,0.925939,0.308005,0.203635,-3.751530,-4.603582,-0.223884,-14.727759,-15.701048,-11.571199,0.031904,-0.096091,0.000000,-0.476073,0.388958,0.000000
1.460000,-1.568656,-0.222565,-1.408607,0.957165,1.516052,-0.049623,0.887694,0.261187,0.200817,-3.895742,-4.758709,-0.339477,-13.989771,-15.203024,-11.503689,0.027059,-0.092118,0.000000,-0.492708,0.405076,-0.000000
1.470000,-1.559041,-0.207393,-1.409094,0.965845,1.518423,-0.047633,0.848050,0.212848,0.196848,-4.031733,-4.908025,-0.453994,-13.200031,-14.651211,-11.392278,0.022052,-0.087990,0.000000,-0.508554,0.420191,0.000000
1.480000,-1.549341,-0.192199,-1.409560,0.974121,1.520304,-0.045689,0.807086,0.163045,0.191741,-4.159580,-5.051561,-0.567172,-12.361273,-14.047477,-11.235623,0.016891,-0.083716,0.000000,-0.523597,0.434295,0.000000
1.490000,-1.539560,-0.176988,-1.410008,0.981982,1.521679,-0.043802,0.764887,0.111838,0.185511,-4.278804,-5.188807,-0.678551,-11.476228,-13.393690,-11.032380,0.011583,-0.079306,0.000000,-0.537764,0.447322,0.000000
1.500000,-1.529702,-0.161767,-1.410437,0.989415,1.522536,-0.041983,0.721540,0.059292,0.178178,-4.388959,-5.319274,-0.787660,-10.547628,-12.691717,-10.781205,0.006139,-0.074772,0.000000,-0.550987,0.459213,-0.000000
1.510000,-1.519773,-0.146539,-1.410848,0.996410,1.522861,-0.040242,0.677135,0.005472,0.169762,-4.490015,-5.442907,-0.894460,-9.568242,-11.932827,-10.469414,0.000566,-0.070125,0.000000,-0.563249,0.469956,-0.000000
1.520000,-1.509776,-0.131311,-1.411242,1.002955,1.522642,-0.038591,0.631773,-0.049540,0.160300,-4.580646,-5.558260,-0.997390,-8.551986,-11.130783,-10.108393,-0.005123,-0.065377,0.000000,-0.574389,0.479399,-0.000000
1.530000,-1.499715,-0.116088,-1.411620,1.009042,1.521867,-0.037040,0.585556,-0.105665,0.149827,-4.660945,-5.665389,-1.096464,-7.502812,-10.288752,-9.698186,-0.010918,-0.060541,0.000000,-0.584408,0.487550,-0.000000
1.540000,-1.489596,-0.100876,-1.411983,1.014664,1.520525,-0.035598,0.538590,-0.162819,0.138385,-4.730605,-5.763912,-1.191190,-6.424672,-9.409899,-9.238840,-0.016807,-0.055630,0.000000,-0.593265,0.494378,-0.000000
1.550000,-1.479424,-0.085680,-1.412332,1.019812,1.518607,-0.034275,0.490981,-0.220914,0.126020,-4.789356,-5.853475,-1.281077,-5.321520,-8.497390,-8.730399,-0.022779,-0.050657,0.000000,-0.600926,0.499857,-0.000000
1.560000,-1.469202,-0.070506,-1.412669,1.024482,1.516104,-0.033080,0.442838,-0.279860,0.112775,-4.837077,-5.933949,-1.366264,-4.194498,-7.549572,-8.157011,-0.028822,-0.045635,0.000000,-0.607382,0.503984,0.000000
1.570000,-1.458936,-0.055360,-1.412994,1.028667,1.513008,-0.032022,0.394277,-0.339561,0.098714,-4.873315,-6.004592,-1.444770,-3.050711,-6.575019,-7.536566,-0.034923,-0.040578,0.000000,-0.612576,0.506715,0.000000
1.580000,-1.448630,-0.040248,-1.413310,1.032366,1.509311,-0.031108,0.345411,-0.399919,0.083901,-4.898049,-6.065373,-1.516845,-1.894456,-5.577485,-6.871053,-0.041069,-0.035499,0.000000,-0.616518,0.508067,-0.000000
1.590000,-1.438290,-0.025175,-1.413617,1.035575,1.505007,-0.030346,0.296355,-0.460835,0.068400,-4.911177,-6.116078,-1.582048,-0.730029,-4.560725,-6.162466,-0.047249,-0.030412,0.000000,-0.619209,0.508047,0.000000
1.600000,-1.427920,-0.010149,-1.413917,1.038293,1.500092,-0.029742,0.247226,-0.522206,0.052284,-4.912637,-6.156536,-1.639957,0.438273,-3.528495,-5.412796,-0.053449,-0.025331,0.000000,-0.620657,0.506670,0.000000
1.610000,-1.417526,0.004824,-1.414212,1.040520,1.494562,-0.029302,0.198143,-0.583930,0.035620,-4.902228,-6.186548,-1.690812,1.601476,-2.486094,-4.607894,-0.059658,-0.020269,0.000000,-0.620869,0.503940,0.000000
1.620000,-1.407111,0.019740,-1.414504,1.042256,1.488413,-0.029031,0.149220,-0.645902,0.018495,-4.880413,-6.206161,-1.732719,2.760535,-1.435544,-3.767869,-0.065863,-0.015239,0.000000,-0.619892,0.499928,-0.000000
1.630000,-1.396682,0.034591,-1.414793,1.043505,1.481643,-0.028934,0.100573,-0.708018,0.000994,-4.847043,-6.215243,-1.766066,3.911727,-0.380410,-2.896688,-0.072052,-0.010253,0.000000,-0.617747,0.494649,0.000000
1.640000,-1.386243,0.049371,-1.415083,1.044269,1.474252,-0.029012,0.052317,-0.770172,-0.016797,-4.802217,-6.213766,-1.790562,5.051328,0.675740,-1.998320,-0.078214,-0.005324,0.000000,-0.614469,0.488145,-0.000000
1.650000,-1.375798,0.064074,-1.415374,1.044553,1.466240,-0.029270,0.004567,-0.832258,-0.034787,-4.746068,-6.201737,-1.805955,6.175614,1.729342,-1.076733,-0.084337,-0.000464,0.000000,-0.610102,0.480461,-0.000000
1.660000,-1.365353,0.078693,-1.415669,1.044362,1.457608,-0.029708,-0.042563,-0.894169,-0.052890,-4.678415,-6.178975,-1.812502,7.271952,2.771151,-0.124033,-0.090412,0.004315,0.000000,-0.604666,0.471609,-0.000000
1.670000,-1.354913,0.093224,-1.415969,1.043704,1.448358,-0.030328,-0.088965,-0.955803,-0.071005,-4.600303,-6.146091,-1.808919,8.346620,3.803974,0.842497,-0.096427,0.009003,0.000000,-0.598276,0.461729,-0.000000
1.680000,-1.344481,0.107658,-1.416276,1.042586,1.438493,-0.031128,-0.134534,-1.017057,-0.089036,-4.511564,-6.102935,-1.795624,9.396986,4.824941,1.817438,-0.102374,0.013590,0.000000,-0.590956,0.450836,-0.000000
1.690000,-1.334062,0.121991,-1.416592,1.041016,1.428018,-0.032108,-0.179162,-1.077828,-0.106885,-4.412453,-6.049641,-1.772560,10.420417,5.831181,2.795368,-0.108244,0.018064,0.000000,-0.582763,0.438986,0.000000
1.700000,-1.323662,0.136217,-1.416919,1.039006,1.416938,-0.033265,-0.222749,-1.138016,-0.124454,-4.303254,-5.986370,-1.739725,11.414281,6.819824,3.770867,-0.114027,0.022418,0.000000,-0.573753,0.426236,0.000000
1.710000,-1.313284,0.150328,-1.417258,1.036565,1.405260,-0.034596,-0.265191,-1.197520,-0.141649,-4.183910,-5.913033,-1.697316,12.366730,7.780952,4.742227,-0.119716,0.026642,0.000000,-0.563956,0.412609,0.000000
1.720000,-1.302932,0.164320,-1.417611,1.033706,1.392990,-0.036096,-0.306396,-1.256245,-0.158369,-4.055620,-5.830511,-1.645092,13.285475,8.719603,5.699861,-0.125304,0.030727,0.000000,-0.553501,0.398250,-0.000000
1.730000,-1.292611,0.178186,-1.417981,1.030442,1.380138,-0.037761,-0.346273,-1.314099,-0.174519,-3.918318,-5.738723,-1.583384,14.169014,9.633772,6.637894,-0.130784,0.034667,0.000000,-0.542410,0.383174,-0.000000
1.740000,-1.282325,0.191921,-1.418367,1.026785,1.366712,-0.039584,-0.384734,-1.370990,-0.190005,-3.772362,-5.637924,-1.512419,15.015842,10.521449,7.550451,-0.136150,0.038454,0.000000,-0.530740,0.367436,-0.000000
1.750000,-1.272077,0.205518,-1.418773,1.022752,1.352722,-0.041559,-0.421693,-1.426829,-0.204737,-3.618128,-5.528389,-1.432480,15.824457,11.380627,8.431657,-0.141397,0.042082,0.000000,-0.518543,0.351090,-0.000000
1.760000,-1.261871,0.218973,-1.419199,1.018357,1.338179,-0.043676,-0.457067,-1.481527,-0.218624,-3.455752,-5.410169,-1.343659,16.586939,12.203135,9.269303,-0.146519,0.045545,0.000000,-0.505852,0.334162,-0.000000
1.770000,-1.251711,0.232280,-1.419647,1.013616,1.323095,-0.045928,-0.490783,-1.535005,-0.231583,-3.286238,-5.284157,-1.246952,17.308985,12.993884,10.064623,-0.151512,0.048836,0.000000,-0.492762,0.316757,0.000000
1.780000,-1.241600,0.245434,-1.420118,1.008547,1.307483,-0.048305,-0.522768,-1.587184,-0.243537,-3.109709,-5.150402,-1.142524,17.989877,13.751620,10.812520,-0.156373,0.051952,0.000000,-0.479295,0.298895,-0.000000
1.790000,-1.231541,0.258428,-1.420613,1.003167,1.291356,-0.050795,-0.552955,-1.637988,-0.254410,-2.926580,-5.009239,-1.030877,18.628895,14.475090,11.507893,-0.161097,0.054886,0.000000,-0.465492,0.280618,0.000000
1.800000,-1.221537,0.271259,-1.421134,0.997494,1.274728,-0.053389,-0.581279,-1.687345,-0.264132,-2.737273,-4.861018,-0.912559,19.225322,15.163041,12.145643,-0.165682,0.057636,0.000000,-0.451393,0.261965,0.000000
1.810000,-1.211592,0.283921,-1.421681,0.991548,1.257614,-0.056074,-0.607680,-1.735185,-0.272634,-2.542125,-4.705933,-0.787551,19.776101,15.809982,12.704956,-0.170124,0.060197,0.000000,-0.437024,0.242967,-0.000000
1.820000,-1.201707,0.296410,-1.422256,0.985347,1.240030,-0.058838,-0.632104,-1.781443,-0.279866,-2.341793,-4.544754,-0.657978,20.283138,16.419417,13.198373,-0.174422,0.062566,0.000000,-0.422431,0.223671,-0.000000
1.830000,-1.191886,0.308720,-1.422858,0.978912,1.221991,-0.061667,-0.654500,-1.826060,-0.285778,-2.136610,-4.377672,-0.523813,20.746001,16.990611,13.622717,-0.178572,0.064739,0.000000,-0.407634,0.204101,0.000000
1.840000,-1.182130,0.320848,-1.423489,0.972264,1.203514,-0.064549,-0.674822,-1.868978,-0.290329,-1.927021,-4.205072,-0.385764,21.164257,17.522831,13.974815,-0.182574,0.066713,0.000000,-0.392656,0.184285,0.000000
1.850000,-1.172441,0.332789,-1.424149,0.965423,1.184617,-0.067469,-0.693027,-1.910144,-0.293483,-1.713475,-4.027348,-0.244568,21.537475,18.015342,14.251489,-0.186425,0.068486,0.000000,-0.377517,0.164250,-0.000000
1.860000,-1.162822,0.344539,-1.424839,0.958410,1.165317,-0.070414,-0.709080,-1.949508,-0.295203,-1.496452,-3.844796,-0.100121,21.865949,18.464779,14.427458,-0.190124,0.070055,0.000000,-0.362240,0.144027,0.000000
1.870000,-1.153273,0.356094,-1.425558,0.951249,1.145633,-0.073369,-0.722946,-1.987026,-0.295481,-1.276342,-3.658071,0.044704,22.148430,18.873361,14.524362,-0.193669,0.071418,0.000000,-0.346825,0.123619,0.000000
1.880000,-1.143797,0.367451,-1.426306,0.943959,1.125583,-0.076319,-0.734598,-2.022657,-0.294307,-1.053639,-3.467466,0.190101,22.384399,19.240675,14.541732,-0.197060,0.072574,0.000000,-0.331289,0.103055,0.000000
1.890000,-1.134394,0.378605,-1.427084,0.936564,1.105186,-0.079250,-0.744012,-2.056364,-0.291679,-0.828810,-3.273396,0.335272,22.573333,19.566311,14.479100,-0.200294,0.073520,0.000000,-0.315642,0.082355,-0.000000
1.900000,-1.125066,0.389553,-1.427891,0.929086,1.084462,-0.082147,-0.751169,-2.088114,-0.287605,-0.602330,-3.076280,0.479415,22.714710,19.849855,14.335999,-0.203372,0.074254,0.000000,-0.299888,0.061540,-0.000000
1.910000,-1.115813,0.400293,-1.428727,0.921548,1.063431,-0.084997,-0.756055,-2.117880,-0.282087,-0.374722,-2.876452,0.622671,22.809167,20.088655,14.088008,-0.206292,0.074776,0.000000,-0.284045,0.040639,0.000000
1.920000,-1.106635,0.410821,-1.429591,0.913973,1.042111,-0.087785,-0.758661,-2.145636,-0.275161,-0.146361,-2.674549,0.761983,22.854883,20.284815,13.761545,-0.209053,0.075084,0.000000,-0.268092,0.019645,0.000000
1.930000,-1.097533,0.421134,-1.430482,0.906383,1.020525,-0.090496,-0.758982,-2.171365,-0.266860,0.082211,-2.470899,0.897648,22.851197,20.438195,13.359074,-0.211654,0.075177,0.000000,-0.252040,-0.001409,-0.000000
1.940000,-1.088508,0.431230,-1.431400,0.898801,0.998691,-0.093118,-0.757018,-2.195050,-0.257223,0.310496,-2.265928,1.028919,22.797446,20.548660,12.883061,-0.214093,0.075055,0.000000,-0.235893,-0.022501,0.000000
1.950000,-1.079557,0.441107,-1.432344,0.891250,0.976630,-0.095636,-0.752774,-2.216680,-0.246298,0.537991,-2.060069,1.155072,22.692966,20.616070,12.335971,-0.216371,0.074717,0.000000,-0.219652,-0.043609,-0.000000
1.960000,-1.070682,0.450762,-1.433313,0.883753,0.954364,-0.098040,-0.746262,-2.236248,-0.234132,0.764244,-1.853608,1.276228,22.535567,20.636672,11.699593,-0.218486,0.074162,0.000000,-0.203321,-0.064707,-0.000000
1.970000,-1.061882,0.460194,-1.434305,0.876332,0.931912,-0.100315,-0.737496,-2.253753,-0.220796,0.988597,-1.647317,1.389775,22.326302,20.614387,10.999599,-0.220437,0.073391,0.000000,-0.186894,-0.085768,0.000000
1.980000,-1.053155,0.469400,-1.435319,0.869010,0.909296,-0.102452,-0.726497,-2.269196,-0.206361,1.210596,-1.441462,1.496025,22.064694,20.549521,10.240987,-0.222224,0.072404,0.000000,-0.170377,-0.106761,-0.000000
1.990000,-1.044501,0.478379,-1.436353,0.861810,0.886535,-0.104439,-0.713293,-2.282585,-0.190902,1.429715,-1.236467,1.594416,21.750268,20.442379,9.428752,-0.223844,0.071202,0.000000,-0.153773,-0.127655,-0.000000
2.000000,-1.035919,0.487130,-1.437407,0.854752,0.863651,-0.106267,-0.697915,-2.293930,-0.174500,1.645424,-1.032754,1.684438,21.382548,20.293267,8.567892,-0.225299,0.069786,0.000000,-0.137088,-0.148413,0.000000
2.010000,-1.027406,0.495652,-1.438478,0.847858,0.840663,-0.107926,-0.680395,-2.303243,-0.157237,1.857428,-0.830513,1.766134,20.954963,20.096732,7.650647,-0.226586,0.068157,0.000000,-0.120317,-0.169016,-0.000000
2.020000,-1.018961,0.503943,-1.439565,0.841151,0.817593,-0.109409,-0.660781,-2.310547,-0.139209,2.064617,-0.630698,1.837897,20.473879,19.859542,6.696331,-0.227705,0.066318,0.000000,-0.103493,-0.189372,-0.000000
2.030000,-1.010582,0.512004,-1.440665,0.834649,0.794459,-0.110708,-0.639120,-2.315866,-0.120511,2.266728,-0.433454,1.899959,19.939567,19.582707,5.711505,-0.228655,0.064271,0.000000,-0.086615,-0.209457,0.000000
2.040000,-1.002267,0.519832,-1.441778,0.828375,0.771282,-0.111817,-0.615465,-2.319226,-0.101243,2.463232,-0.239173,1.952047,19.352298,19.267239,4.702725,-0.229437,0.062018,0.000000,-0.069696,-0.229223,0.000000
2.050000,-0.994014,0.527429,-1.442901,0.822347,0.748081,-0.112732,-0.589876,-2.320660,-0.081504,2.653599,-0.048235,1.993955,18.712343,18.914146,3.676551,-0.230049,0.059564,0.000000,-0.052750,-0.248614,0.000000
2.060000,-0.985819,0.534794,-1.444032,0.816584,0.724875,-0.113446,-0.562411,-2.320200,-0.061397,2.837713,0.139265,2.025612,18.009624,18.517451,2.637763,-0.230492,0.056912,0.000000,-0.035773,-0.267615,-0.000000
2.070000,-0.977681,0.541927,-1.445169,0.811104,0.701683,-0.113959,-0.533146,-2.317889,-0.041027,3.014083,0.322310,2.046776,17.256027,18.086009,1.594916,-0.230765,0.054068,0.000000,-0.018842,-0.286071,-0.000000
2.080000,-0.969596,0.548828,-1.446311,0.805926,0.678523,-0.114266,-0.502155,-2.313769,-0.020497,3.182670,0.500875,2.057520,16.453090,17.621686,0.554787,-0.230869,0.051037,0.000000,-0.001954,-0.303964,0.000000
2.090000,-0.961562,0.555497,-1.447454,0.801067,0.655414,-0.114368,-0.469520,-2.307887,0.000089,3.342986,0.674641,2.057904,15.602352,17.126349,-0.475849,-0.230804,0.047825,0.000000,0.014864,-0.321230,-0.000000
2.100000,-0.953574,0.561936,-1.448597,0.796541,0.632371,-0.114265,-0.435325,-2.300293,0.020627,3.494562,0.843305,2.048057,14.705350,16.601863,-1.490214,-0.230572,0.044440,0.000000,0.031585,-0.337803,-0.000000
2.110000,-0.945630,0.568145,-1.449739,0.792365,0.609413,-0.113956,-0.399654,-2.291036,0.041013,3.637427,1.006849,2.027790,13.751415,16.043474,-2.471788,-0.230173,0.040888,0.000000,0.048210,-0.353665,0.000000
2.120000,-0.937725,0.574125,-1.450876,0.788553,0.586556,-0.113445,-0.362609,-2.280175,0.061151,3.769997,1.164388,1.998282,12.755787,15.460480,-3.424731,-0.229608,0.037178,0.000000,0.064625,-0.368629,-0.000000
2.130000,-0.929857,0.579877,-1.452007,0.785117,0.563815,-0.112734,-0.324288,-2.267768,0.080947,3.892414,1.315986,1.959410,11.721498,14.855558,-4.343461,-0.228881,0.033320,0.000000,0.080832,-0.382685,-0.000000
2.140000,-0.922022,0.585402,-1.453130,0.782071,0.541205,-0.111828,-0.284795,-2.253876,0.100309,4.004308,1.461435,1.911545,10.651582,14.231385,-5.222395,-0.227992,0.029323,0.000000,0.096793,-0.395766,0.000000
2.150000,-0.914215,0.590701,-1.454243,0.779425,0.518742,-0.110730,-0.244238,-2.238561,0.119149,4.105337,1.600558,1.855113,9.549070,13.590637,-6.055950,-0.226946,0.025198,0.000000,0.112470,-0.407808,0.000000
2.160000,-0.906432,0.595777,-1.455344,0.777189,0.496439,-0.109446,-0.202722,-2.221884,0.137376,4.195598,1.733371,1.789847,8.406715,12.931707,-6.819615,-0.225744,0.020955,0.000000,0.127856,-0.418791,-0.000000
2.170000,-0.898669,0.600631,-1.456431,0.775373,0.474309,-0.107984,-0.160365,-2.203915,0.154922,4.273846,1.859348,1.718057,7.239090,12.262082,-7.529052,-0.224390,0.016608,0.000000,0.142832,-0.428556,-0.000000
2.180000,-0.890923,0.605264,-1.457503,0.773984,0.452364,-0.106351,-0.117284,-2.184720,0.171715,4.340310,1.978588,1.639457,6.050486,11.584962,-8.180995,-0.222888,0.012168,0.000000,0.157394,-0.437097,-0.000000
2.190000,-0.883188,0.609678,-1.458558,0.773029,0.430618,-0.104553,-0.073598,-2.164366,0.187690,4.394800,2.091033,1.554639,4.845194,10.903550,-8.772179,-0.221244,0.007649,0.000000,0.171504,-0.444366,-0.000000
2.200000,-0.875461,0.613877,-1.459594,0.772514,0.409081,-0.102600,-0.029428,-2.142922,0.202789,4.437172,2.196655,1.464227,3.627507,10.221047,-9.299337,-0.219460,0.003063,0.000000,0.185125,-0.450321,-0.000000
2.210000,-0.867737,0.617861,-1.460609,0.772442,0.387763,-0.100500,0.015106,-2.120456,0.216948,4.467508,2.295464,1.367953,2.397062,9.540581,-9.735877,-0.217543,-0.001575,0.000000,0.198240,-0.454944,0.000000
2.220000,-0.860011,0.621633,-1.461603,0.772817,0.366675,-0.098264,0.059881,-2.097035,0.230135,4.485310,2.387488,1.268694,1.163375,8.865437,-10.104718,-0.215497,-0.006251,0.000000,0.210768,-0.458163,-0.000000
2.230000,-0.852279,0.625195,-1.462574,0.773640,0.345825,-0.095901,0.104771,-2.072728,0.242311,4.490780,2.472801,1.166086,-0.068693,8.198824,-10.405449,-0.213329,-0.010950,0.000000,0.222702,-0.459979,-0.000000
2.240000,-0.844536,0.628550,-1.463521,0.774912,0.325223,-0.093421,0.149655,-2.047601,0.253447,4.483958,2.551504,1.060813,-1.294281,7.543955,-10.637663,-0.211045,-0.015659,0.000000,0.234015,-0.460379,-0.000000
2.250000,-0.836779,0.631700,-1.464442,0.776632,0.304876,-0.090835,0.194410,-2.021720,0.263521,4.464933,2.623730,0.953562,-2.508527,6.904039,-10.800949,-0.208651,-0.020362,0.000000,0.244686,-0.459360,0.000000
2.260000,-0.829002,0.634649,-1.465337,0.778799,0.284791,-0.088154,0.238912,-1.995150,0.272505,4.433708,2.689433,0.844161,-3.703195,6.287633,-10.873066,-0.206154,-0.025045,0.000000,0.254694,-0.456911,0.000000
2.270000,-0.821201,0.637397,-1.466205,0.781410,0.264975,-0.085388,0.283045,-1.967951,0.280403,4.390787,2.749313,0.735350,-4.877211,5.691947,-10.878111,-0.203559,-0.029693,0.000000,0.264033,-0.453084,0.000000
2.280000,-0.813373,0.639949,-1.467045,0.784459,0.245434,-0.082549,0.326689,-1.940183,0.287213,4.336247,2.803350,0.626815,-6.026127,5.119537,-10.818348,-0.200875,-0.034293,0.000000,0.272694,-0.447884,0.000000
2.290000,-0.805511,0.642307,-1.467856,0.787941,0.226173,-0.079648,0.369732,-1.911903,0.292942,4.270363,2.851790,0.519192,-7.145495,4.572959,-10.696042,-0.198108,-0.038830,0.000000,0.280674,-0.441342,0.000000
2.300000,-0.797612,0.644473,-1.468637,0.791851,0.207197,-0.076694,0.412060,-1.883165,0.297602,4.193451,2.894904,0.413095,-8.230866,4.054770,-10.513457,-0.195264,-0.043291,0.000000,0.287976,-0.433495,-0.000000
2.310000,-0.789672,0.646452,-1.469389,0.796180,0.188511,-0.073699,0.453560,-1.854026,0.301204,4.105437,2.932585,0.308521,-9.266773,3.577713,-10.257839,-0.192351,-0.047663,0.000000,0.294581,-0.424343,0.000000
2.320000,-0.781687,0.648245,-1.470111,0.800919,0.170118,-0.070673,0.494135,-1.824529,0.303782,4.007762,2.966111,0.207447,-10.261135,3.132909,-9.948310,-0.189375,-0.051933,0.000000,0.300572,-0.414052,-0.000000
2.330000,-0.773653,0.649855,-1.470803,0.806059,0.152022,-0.067627,0.533683,-1.794718,0.305364,3.900364,2.995355,0.109721,-11.210856,2.721666,-9.588973,-0.186341,-0.056091,0.000000,0.305938,-0.402628,-0.000000
2.340000,-0.765565,0.651286,-1.471464,0.811589,0.134225,-0.064569,0.572111,-1.764635,0.305989,3.783704,3.020660,0.015820,-12.112834,2.345293,-9.183931,-0.183258,-0.060124,0.000000,0.310701,-0.390135,-0.000000
2.350000,-0.757420,0.652541,-1.472094,0.817497,0.116730,-0.061510,0.609328,-1.734317,0.305695,3.658276,3.042381,-0.073819,-12.963972,2.005097,-8.737287,-0.180129,-0.064023,0.000000,0.314891,-0.376642,-0.000000
2.360000,-0.749214,0.653622,-1.472694,0.823772,0.099539,-0.058458,0.645243,-1.703803,0.304526,3.524019,3.060411,-0.159006,-13.746393,1.714416,-8.247971,-0.176962,-0.067777,0.000000,0.318496,-0.362159,-0.000000
2.370000,-0.740943,0.654532,-1.473263,0.830398,0.082654,-0.055422,0.679783,-1.673118,0.302532,3.382873,3.076257,-0.238900,-14.473585,1.461056,-7.725893,-0.173761,-0.071378,0.000000,0.321659,-0.346911,0.000000
2.380000,-0.732605,0.655276,-1.473802,0.837362,0.066077,-0.052410,0.712877,-1.642286,0.299766,3.234736,3.089756,-0.313430,-15.144259,1.244854,-7.175792,-0.170531,-0.074819,0.000000,0.324369,-0.330905,-0.000000
2.390000,-0.724195,0.655855,-1.474312,0.844650,0.049809,-0.049429,0.744457,-1.611329,0.296282,3.080180,3.101277,-0.382338,-15.757125,1.065644,-6.602403,-0.167275,-0.078092,0.000000,0.326669,-0.314218,-0.000000
2.400000,-0.715711,0.656273,-1.474791,0.852246,0.033851,-0.046487,0.774461,-1.580266,0.292138,2.919790,3.111191,-0.445416,-16.310894,0.923263,-6.010465,-0.163998,-0.081190,0.000000,0.328601,-0.296931,0.000000
2.410000,-0.707149,0.656533,-1.475242,0.860134,0.018204,-0.043589,0.802829,-1.549114,0.287395,2.753622,3.119453,-0.502334,-16.790584,0.827943,-5.408956,-0.160705,-0.084109,0.000000,0.330165,-0.279067,0.000000
2.420000,-0.698507,0.656638,-1.475663,0.868297,0.002869,-0.040741,0.829519,-1.517879,0.282112,2.583567,3.127403,-0.553374,-17.210275,0.767850,-4.797852,-0.157396,-0.086843,0.000000,0.331516,-0.260836,0.000000
2.430000,-0.689782,0.656591,-1.476057,0.876719,-0.012153,-0.037948,0.854488,-1.486567,0.276348,2.409615,3.134923,-0.598273,-17.570354,0.741544,-4.181370,-0.154075,-0.089390,0.000000,0.332649,-0.242250,0.000000
2.440000,-0.680972,0.656396,-1.476422,0.885381,-0.026862,-0.035215,0.877700,-1.455181,0.270167,2.232358,3.142342,-0.636997,-17.871209,0.747588,-3.563727,-0.150744,-0.091745,0.000000,0.333609,-0.223386,0.000000
2.450000,-0.672074,0.656055,-1.476761,0.894267,-0.041257,-0.032546,0.899126,-1.423720,0.263629,2.052387,3.149978,-0.669558,-18.113227,0.784544,-2.949141,-0.147403,-0.093908,0.000000,0.334441,-0.204313,0.000000
2.460000,-0.663086,0.655572,-1.477073,0.903358,-0.055336,-0.029944,0.918736,-1.392183,0.256801,1.869898,3.157857,-0.695593,-18.286936,0.857911,-2.352227,-0.144055,-0.095876,0.000000,0.335155,-0.185066,-0.000000
2.470000,-0.654006,0.654950,-1.477360,0.912636,-0.069100,-0.027411,0.936519,-1.360560,0.249737,1.686397,3.166917,-0.716172,-18.403789,0.958465,-1.765532,-0.140700,-0.097648,0.000000,0.335876,-0.165797,0.000000
2.480000,-0.644832,0.654191,-1.477622,0.922082,-0.082547,-0.024949,0.952461,-1.328841,0.242497,1.502006,3.177109,-0.730947,-18.465382,1.083918,-1.191998,-0.137338,-0.099225,0.000000,0.336604,-0.146526,-0.000000
2.490000,-0.635564,0.653300,-1.477859,0.931679,-0.095676,-0.022561,0.966558,-1.297013,0.235137,1.317269,3.188671,-0.740066,-18.473308,1.231984,-0.634571,-0.133968,-0.100607,0.000000,0.337378,-0.127313,0.000000
2.500000,-0.626198,0.652279,-1.478073,0.941407,-0.108487,-0.020247,0.978807,-1.265062,0.227714,1.132714,3.201816,-0.743702,-18.429162,1.400376,-0.096193,-0.130590,-0.101795,0.000000,0.338233,-0.108213,-0.000000
2.510000,-0.616735,0.651131,-1.478265,0.951249,-0.120977,-0.018007,0.989212,-1.232972,0.220286,0.948640,3.216614,-0.741571,-18.329148,1.589934,0.407761,-0.127203,-0.102790,0.000000,0.339182,-0.089261,-0.000000
2.520000,-0.607173,0.649860,-1.478434,0.961185,-0.133146,-0.015841,0.997784,-1.200723,0.212899,0.766051,3.233527,-0.735070,-18.180911,1.794861,0.888300,-0.123806,-0.103595,0.000000,0.340302,-0.070545,-0.000000
2.530000,-0.597511,0.648469,-1.478582,0.971198,-0.144991,-0.013749,1.004539,-1.168295,0.205600,0.585175,3.252554,-0.723887,-17.986706,2.012485,1.343999,-0.120397,-0.104213,0.000000,0.341598,-0.052091,0.000000
2.540000,-0.587749,0.646961,-1.478709,0.981270,-0.156511,-0.011729,1.009495,-1.135665,0.198436,0.406462,3.273810,-0.708278,-17.748788,2.240137,1.773439,-0.116973,-0.104646,0.000000,0.343092,-0.033939,-0.000000
2.550000,-0.577886,0.645340,-1.478816,0.991382,-0.167703,-0.009779,1.012677,-1.102811,0.191448,0.230338,3.297381,-0.688511,-17.469411,2.475145,2.175196,-0.113534,-0.104897,0.000000,0.344804,-0.016126,-0.000000
2.560000,-0.567921,0.643608,-1.478905,1.001518,-0.178566,-0.007899,1.014111,-1.069709,0.184683,0.057135,3.323328,-0.664435,-17.149072,2.714854,2.536843,-0.110076,-0.104971,0.000000,0.346747,0.001314,-0.000000
2.570000,-0.557855,0.641770,-1.478975,1.011659,-0.189097,-0.006085,1.013831,-1.036336,0.178171,-0.112600,3.351684,-0.637380,-16.791998,2.956576,2.869311,-0.106598,-0.104872,0.000000,0.348946,0.018347,0.000000
2.580000,-0.547688,0.639828,-1.479027,1.021789,-0.199292,-0.004335,1.011871,-1.002667,0.171946,-0.278591,3.382457,-0.607146,-16.400661,3.197642,3.172525,-0.103097,-0.104604,0.000000,0.351404,0.034945,-0.000000
2.590000,-0.537420,0.637785,-1.479062,1.031891,-0.209149,-0.002645,1.008272,-0.968679,0.166038,-0.440507,3.415626,-0.574027,-15.977528,3.435379,3.446410,-0.099569,-0.104171,0.000000,0.354128,0.051085,0.000000
2.600000,-0.527050,0.635646,-1.479080,1.041949,-0.218664,-0.001013,1.003076,-0.934347,0.160474,-0.598043,3.451145,-0.538316,-15.525071,3.667114,3.690892,-0.096013,-0.103579,0.000000,0.357121,0.066742,0.000000
2.610000,-0.516581,0.633413,-1.479082,1.051947,-0.227835,0.000566,0.996327,-0.899647,0.155282,-0.750879,3.489051,-0.500010,-15.046779,3.887366,3.898373,-0.092426,-0.102832,0.000000,0.360391,0.081891,-0.000000
2.620000,-0.506012,0.631090,-1.479069,1.061871,-0.236656,0.002094,0.988075,-0.864559,0.150480,-0.898852,3.528981,-0.460108,-14.543977,4.096616,4.077223,-0.088805,-0.101936,0.000000,0.363914,0.096530,0.000000
2.630000,-0.495344,0.628681,-1.479040,1.071704,-0.245125,0.003576,0.978368,-0.829061,0.146086,-1.041684,3.570939,-0.418558,-14.019011,4.292539,4.228287,-0.085147,-0.100895,0.000000,0.367692,0.110636,0.000000
2.640000,-0.484578,0.626189,-1.478997,1.081433,-0.253236,0.005017,0.967259,-0.793134,0.142114,-1.179166,3.614779,-0.375633,-13.474225,4.472804,4.352411,-0.081450,-0.099717,0.000000,0.371715,0.124194,-0.000000
2.650000,-0.473716,0.623617,-1.478940,1.091045,-0.260986,0.006420,0.954803,-0.756760,0.138577,-1.311110,3.660335,-0.331597,-12.911965,4.635086,4.450443,-0.077712,-0.098405,0.000000,0.375970,0.137194,0.000000
2.660000,-0.462758,0.620970,-1.478869,1.100525,-0.268370,0.007790,0.941057,-0.719920,0.135486,-1.437253,3.707617,-0.286572,-12.337135,4.771908,4.519792,-0.073930,-0.096967,0.000000,0.380461,0.149613,0.000000
2.670000,-0.451706,0.618251,-1.478784,1.109862,-0.275383,0.009131,0.926077,-0.682603,0.132847,-1.557695,3.755929,-0.241128,-11.749208,4.886721,4.565162,-0.070102,-0.095407,0.000000,0.385121,0.161471,-0.000000
2.680000,-0.440561,0.615464,-1.478686,1.119043,-0.282020,0.010449,0.909923,-0.644798,0.130665,-1.672201,3.805273,-0.195344,-11.150215,4.977826,4.587819,-0.066227,-0.093731,0.000000,0.389952,0.172748,-0.000000
2.690000,-0.429325,0.612612,-1.478575,1.128056,-0.288277,0.011746,0.892653,-0.606495,0.128941,-1.780669,3.855401,-0.149443,-10.542188,5.043527,4.589030,-0.062302,-0.091946,0.000000,0.394928,0.183437,0.000000
2.700000,-0.418000,0.609700,-1.478452,1.136892,-0.294148,0.013029,0.874330,-0.567688,0.127676,-1.883021,3.906053,-0.103631,-9.927158,5.082126,4.570063,-0.058328,-0.090057,0.000000,0.400025,0.193536,-0.000000
2.710000,-0.406588,0.606731,-1.478315,1.145540,-0.299629,0.014301,0.855015,-0.528370,0.126867,-1.979076,3.957229,-0.058109,-9.310184,5.084826,4.532294,-0.054301,-0.088071,0.000000,0.405242,0.203029,0.000000
2.720000,-0.395090,0.603708,-1.478166,1.153989,-0.304714,0.015568,0.834769,-0.488544,0.126512,-2.069079,4.007967,-0.013049,-8.689900,5.057898,4.476868,-0.050223,-0.085993,0.000000,0.410479,0.211942,-0.000000
2.730000,-0.383509,0.600638,-1.478004,1.162232,-0.309398,0.016833,0.813654,-0.448212,0.126604,-2.152869,4.058285,0.031374,-8.067967,5.000515,4.405036,-0.046091,-0.083829,0.000000,0.415737,0.220263,0.000000
2.740000,-0.371846,0.597522,-1.477829,1.170260,-0.313677,0.018101,0.791732,-0.407381,0.127137,-2.230438,4.107873,0.075001,-7.446047,4.911847,4.318053,-0.041908,-0.081585,0.000000,0.420983,0.227990,-0.000000
2.750000,-0.360104,0.594365,-1.477641,1.178064,-0.317544,0.019377,0.769066,-0.366058,0.128101,-2.301795,4.156415,0.117689,-6.825800,4.791067,4.217172,-0.037672,-0.079267,0.000000,0.426182,0.235125,0.000000
2.760000,-0.348286,0.591172,-1.477441,1.185639,-0.320996,0.020665,0.745718,-0.324253,0.129486,-2.366836,4.203939,0.159208,-6.212153,4.628403,4.106035,-0.033384,-0.076881,0.000000,0.431333,0.241658,-0.000000
2.770000,-0.336392,0.587947,-1.477228,1.192976,-0.324028,0.021968,0.721749,-0.281985,0.131281,-2.425908,4.249274,0.199664,-5.603101,4.433065,3.983214,-0.029046,-0.074433,0.000000,0.436313,0.247623,0.000000
2.780000,-0.324427,0.584693,-1.477002,1.200072,-0.326635,0.023292,0.697220,-0.239275,0.133475,-2.478917,4.292492,0.238837,-4.999906,4.205320,3.849670,-0.024658,-0.071928,0.000000,0.441125,0.253009,0.000000
2.790000,-0.312392,0.581416,-1.476762,1.206919,-0.328812,0.024639,0.672191,-0.196144,0.136053,-2.525930,4.333273,0.276624,-4.403829,3.945436,3.706364,-0.020224,-0.069373,0.000000,0.445732,0.257822,0.000000
2.800000,-0.300289,0.578118,-1.476509,1.213514,-0.330556,0.026014,0.646721,-0.152618,0.139002,-2.567022,4.371295,0.312935,-3.816131,3.653679,3.554257,-0.015745,-0.066773,0.000000,0.450096,0.262067,0.000000
2.810000,-0.288122,0.574806,-1.476242,1.219852,-0.331863,0.027420,0.620871,-0.108724,0.142305,-2.602165,4.406594,0.347552,-3.241081,3.321410,3.397641,-0.011223,-0.064133,0.000000,0.454217,0.265739,-0.000000
2.820000,-0.275893,0.571483,-1.475960,1.225930,-0.332730,0.028861,0.594697,-0.064498,0.145948,-2.631744,4.438020,0.380714,-2.676564,2.958893,3.233737,-0.006661,-0.061460,0.000000,0.457970,0.268875,-0.000000
2.830000,-0.263605,0.568153,-1.475664,1.231745,-0.333152,0.030340,0.568255,-0.019976,0.149914,-2.655735,4.465675,0.412204,-2.123473,2.567486,3.063099,-0.002064,-0.058757,0.000000,0.461360,0.271468,0.000000
