time,x,y,z,vx,vy,vz,ax,ay,az,jx,jy,jz,sx,sy,sz,roll,pitch,yaw,p,q,r
0.000000,-2.020496,-1.384397,-1.427540,-0.010835,0.007114,-0.020338,0.053952,0.021530,0.037864,0.450541,1.700740,0.685032,2.492238,32.959699,6.767032,0.002203,-0.005521,0.000000,0.174190,-0.046490,0.000000
0.050000,-2.021038,-1.384042,-1.428557,-0.008138,0.008191,-0.018444,0.076479,0.106567,0.072116,0.575153,3.348724,1.023384,3.886502,42.205531,6.901801,0.010943,-0.007854,0.000000,0.344979,-0.059882,0.000000
0.100000,-2.021310,-1.383578,-1.429385,-0.003187,0.017771,-0.013126,0.111467,0.356403,0.140203,0.839191,5.921293,1.375213,6.384284,34.504454,3.278756,0.036838,-0.011527,0.000000,0.616675,-0.088352,0.000000
0.150000,-2.021356,-1.382264,-1.429870,0.003009,0.043831,-0.004424,0.160398,0.698696,0.209637,1.213581,6.799170,1.351260,5.255470,3.277475,-2.121981,0.072640,-0.016706,0.000000,0.714424,-0.128386,-0.000000
0.200000,-2.021009,-1.379195,-1.429827,0.012852,0.087641,0.007838,0.232825,1.036320,0.275329,1.364738,6.249040,1.163014,-1.048369,-17.853968,-5.530454,0.108233,-0.024414,0.000000,0.660277,-0.145171,-0.000000
0.250000,-2.020071,-1.373500,-1.429086,0.026292,0.147463,0.023109,0.296872,1.323600,0.325939,1.108744,5.013773,0.798214,-6.061169,-27.816767,-8.288607,0.138598,-0.031292,0.000000,0.529313,-0.118278,-0.000000
0.300000,-2.018380,-1.364449,-1.427516,0.042540,0.220001,0.040432,0.343700,1.537697,0.355150,0.758621,3.467363,0.334154,-6.756054,-31.490872,-9.855775,0.161120,-0.036336,0.000000,0.362182,-0.080359,0.000000
0.350000,-2.015817,-1.351500,-1.425043,0.060662,0.301233,0.058624,0.372734,1.670337,0.359354,0.433139,1.864686,-0.187363,-5.711740,-30.726456,-10.722242,0.174803,-0.039420,0.000000,0.187492,-0.044294,0.000000
0.400000,-2.012313,-1.334326,-1.421654,0.079813,0.387034,0.076367,0.387014,1.724165,0.336414,0.187447,0.394718,-0.738070,-3.832026,-26.770536,-10.976157,0.179880,-0.040829,0.000000,0.026465,-0.016309,0.000000
0.450000,-2.007836,-1.312797,-1.417406,0.099363,0.473649,0.092265,0.391479,1.709808,0.285547,0.049936,-0.812368,-1.284979,-1.558614,-20.790179,-10.440589,0.177479,-0.041079,0.000000,-0.106007,0.000297,0.000000
0.500000,-2.002377,-1.286961,-1.412427,0.118961,0.558015,0.104922,0.392007,1.642929,0.207916,0.031586,-1.684300,-1.782129,0.789427,-13.899386,-8.884543,0.169322,-0.040803,0.000000,-0.201086,0.004219,-0.000000
0.550000,-1.995940,-1.256995,-1.406914,0.138564,0.637942,0.113057,0.394637,1.541378,0.107334,0.128879,-2.202306,-2.173433,2.947323,-7.075809,-6.213156,0.157417,-0.040651,0.000000,-0.255927,-0.004114,-0.000000
0.600000,-1.988521,-1.223166,-1.401122,0.158425,0.712153,0.115655,0.404895,1.422698,-0.009427,0.326318,-2.391881,-2.403445,4.708050,-1.075882,-2.573459,0.143764,-0.041211,0.000000,-0.273225,-0.022862,0.000000
0.650000,-1.980097,-1.185780,-1.395348,0.179053,0.780212,0.112114,0.427269,1.302190,-0.133010,0.599684,-2.309894,-2.430779,5.933382,3.616688,1.643916,0.130106,-0.042945,0.000000,-0.259917,-0.049295,0.000000
0.700000,-1.970615,-1.145145,-1.389910,0.201152,0.842372,0.102354,0.464864,1.191709,-0.252505,0.919656,-2.030212,-2.239053,6.553463,6.795080,5.888328,0.117757,-0.046165,0.000000,-0.225161,-0.080381,0.000000
0.750000,-1.959982,-1.101543,-1.385113,0.225540,0.899383,0.086863,0.519235,1.099169,-0.356916,1.255031,-1.630386,-1.841947,6.552909,8.485741,9.576792,0.107555,-0.051027,0.000000,-0.178264,-0.113235,-0.000000
0.800000,-1.948061,-1.055207,-1.381224,0.253075,0.952289,0.066662,0.590367,1.028670,-0.436700,1.574947,-1.181638,-1.281374,5.949315,8.870518,12.220726,0.099891,-0.057552,0.000000,-0.127226,-0.145285,-0.000000
0.850000,-1.934675,-1.006314,-1.378447,0.284576,1.002250,0.043193,0.676730,0.981005,-0.485053,1.849962,-0.743335,-0.619874,4.773172,8.198141,13.517290,0.094799,-0.065639,0.000000,-0.078160,-0.174195,-0.000000
0.900000,-1.919604,-0.954982,-1.376905,0.320748,1.050389,0.018157,0.775363,0.954336,-0.498687,2.052264,-0.361824,0.070355,3.057125,6.710167,13.388180,0.092054,-0.075073,0.000000,-0.035446,-0.197631,-0.000000
0.950000,-1.902600,-0.901275,-1.376631,0.362113,1.097683,-0.006675,0.881956,0.944823,-0.478018,2.155674,-0.072318,0.718944,0.838502,4.599098,11.965620,0.091248,-0.085517,0.000000,-0.002269,-0.213061,0.000000
1.000000,-1.883393,-0.845214,-1.377572,0.408944,1.144872,-0.029645,0.990930,0.947105,-0.426793,2.136115,0.098086,1.266917,-1.826171,2.003694,9.537627,0.091830,-0.096500,0.000000,0.018826,-0.217681,-0.000000
1.050000,-1.861705,-0.786788,-1.379595,0.461206,1.192394,-0.049355,1.095568,0.954631,-0.351326,1.973057,0.128051,1.672707,-4.840669,-0.966272,6.471174,0.093136,-0.107402,0.000000,0.025572,-0.208578,0.000000
1.100000,-1.837272,-0.725974,-1.382508,0.518500,1.240335,-0.064777,1.188236,0.959910,-0.259522,1.652048,0.001459,1.914034,-8.050856,-4.191677,3.133788,0.094390,-0.117460,0.000000,0.015941,-0.183114,-0.000000
1.150000,-1.809855,-0.662754,-1.386073,0.580029,1.288385,-0.075307,1.260772,0.954777,-0.159922,1.167972,-0.291116,1.986085,-11.236335,-7.509462,-0.167672,0.094725,-0.125790,0.000000,-0.011621,-0.139472,-0.000000
1.200000,-1.779269,-0.597136,-1.390038,0.644578,1.335813,-0.080769,1.305033,0.930798,-0.060914,0.528414,-0.749488,1.897267,-14.116815,-10.694965,-3.217394,0.093213,-0.131448,0.000000,-0.057760,-0.077251,-0.000000
1.250000,-1.745398,-0.529173,-1.394150,0.710533,1.381465,-0.081398,1.313614,0.879829,0.029804,-0.243710,-1.360613,1.664346,-16.374689,-13.467330,-5.884853,0.088924,-0.133515,0.000000,-0.121716,0.002017,0.000000
1.300000,-1.708216,-0.458989,-1.398178,0.775939,1.423795,-0.077789,1.280662,0.794737,0.105521,-1.109055,-2.096221,1.308782,-17.692163,-15.517202,-8.088447,0.081012,-0.131208,0.000000,-0.200859,0.094523,0.000000
1.350000,-1.667804,-0.386794,-1.401929,0.838599,1.460938,-0.070846,1.202708,0.670206,0.160682,-2.012926,-2.912333,0.855501,-17.798572,-16.550892,-9.745008,0.068814,-0.124002,0.000000,-0.290339,0.194075,0.000000
1.400000,-1.624356,-0.312896,-1.405263,0.896210,1.490816,-0.061721,1.079370,0.503504,0.191071,-2.888912,-3.751310,0.334281,-16.521341,-16.342615,-10.729073,0.051972,-0.111746,0.000000,-0.383007,0.292355,0.000000
1.450000,-1.578183,-0.237712,-1.408101,0.946536,1.511289,-0.051739,0.913817,0.295076,0.194111,-3.665060,-4.546594,-0.217406,-13.832138,-14.785481,-10.865824,0.030539,-0.094747,0.000000,-0.469850,0.379687,0.000000
1.500000,-1.529702,-0.161767,-1.410437,0.987592,1.520324,-0.042310,0.712864,0.048844,0.169330,-4.272126,-5.229858,-0.752301,-9.876788,-11.929886,-9.970800,0.005053,-0.073809,0.000000,-0.541215,0.446459,-0.000000
1.550000,-1.479424,-0.085680,-1.412332,1.017822,1.516173,-0.034806,0.486605,-0.227910,0.118880,-4.652739,-5.739583,-1.214486,-4.973195,-7.993810,-7.928111,-0.023484,-0.050169,0.000000,-0.588810,0.485039,-0.000000
1.600000,-1.427920,-0.010149,-1.413917,1.036252,1.497533,-0.030422,0.247590,-0.525114,0.047882,-4.769445,-6.029239,-1.545112,0.435737,-3.331762,-4.776713,-0.053722,-0.025357,0.000000,-0.607820,0.491554,-0.000000
1.650000,-1.375798,0.064074,-1.415374,1.042581,1.463662,-0.030018,0.009660,-0.830834,-0.035631,-4.609165,-6.072759,-1.692157,5.866843,1.632862,-0.767227,-0.084187,-0.000981,0.000000,-0.598074,0.466653,0.000000
1.700000,-1.323662,0.136217,-1.416919,1.037218,1.414449,-0.033985,-0.213327,-1.132390,-0.121334,-4.182761,-5.865953,-1.621835,10.886444,6.485432,3.636464,-0.113506,0.021477,0.000000,-0.563553,0.414781,-0.000000
1.750000,-1.272077,0.205518,-1.418773,1.021249,1.350423,-0.042151,-0.408616,-1.417429,-0.197814,-3.520521,-5.424216,-1.328511,15.168626,10.878078,7.817287,-0.140581,0.040807,0.000000,-0.510539,0.342370,-0.000000
1.800000,-1.221537,0.271259,-1.421134,0.996356,1.272706,-0.053766,-0.565379,-1.674812,-0.254185,-2.665898,-4.778145,-0.840106,18.505725,14.554226,11.115307,-0.164647,0.056118,0.000000,-0.445433,0.255874,0.000000
1.850000,-1.172441,0.332789,-1.424149,0.964711,1.182941,-0.067570,-0.675206,-1.895244,-0.281825,-1.669948,-3.968793,-0.216980,20.778930,17.343808,12.962680,-0.185233,0.066807,0.000000,-0.373211,0.160512,0.000000
1.900000,-1.125066,0.389553,-1.427891,0.928836,1.083182,-0.081949,-0.732373,-2.071691,-0.275883,-0.588005,-3.043764,0.456161,21.912319,19.143611,13.009957,-0.202070,0.072486,0.000000,-0.296886,0.060014,0.000000
1.950000,-1.079557,0.441107,-1.432344,0.891473,0.975772,-0.095158,-0.734006,-2.199620,-0.236209,0.521284,-2.054432,1.084016,21.837911,19.899671,11.212211,-0.214993,0.072933,0.000000,-0.217828,-0.042764,0.000000
2.000000,-1.035919,0.487130,-1.437407,0.855435,0.863220,-0.105570,-0.680245,-2.277134,-0.167481,1.595786,-1.053797,1.577383,20.492223,19.604357,7.852948,-0.223882,0.068073,0.000000,-0.136594,-0.144765,0.000000
2.050000,-0.994014,0.527429,-1.442901,0.823449,0.748059,-0.111906,-0.574428,-2.305000,-0.078471,2.570506,-0.093997,1.869310,17.848650,18.310611,3.497661,-0.228638,0.058025,0.000000,-0.053915,-0.241674,0.000000
2.100000,-0.953574,0.561936,-1.448597,0.797992,0.632720,-0.113417,-0.423194,-2.286534,0.019450,3.380651,0.777264,1.927149,13.971598,16.153495,-1.115424,-0.229226,0.043198,0.000000,0.028448,-0.327368,-0.000000
2.150000,-0.914215,0.590701,-1.454243,0.781129,0.519406,-0.109961,-0.236363,-2.227274,0.114244,3.967666,1.521353,1.757768,9.066202,13.363114,-5.224679,-0.225734,0.024373,0.000000,0.107305,-0.394293,-0.000000
2.200000,-0.875461,0.613877,-1.459594,0.774356,0.409992,-0.101992,-0.026428,-2.134399,0.195226,4.287271,2.113576,1.404681,3.496893,10.256297,-8.200143,-0.218448,0.002749,0.000000,0.178333,-0.434912,0.000000
2.250000,-0.836779,0.631700,-1.464442,0.778487,0.305966,-0.090439,0.192365,-2.015916,0.254712,4.317355,2.546983,0.937754,-2.241697,7.201659,-9.666231,-0.207884,-0.020129,0.000000,0.237171,-0.443854,0.000000
2.300000,-0.797612,0.644473,-1.468637,0.793593,0.208401,-0.076521,0.405308,-1.879700,0.289002,4.063101,2.833741,0.438058,-7.600660,4.560758,-9.560914,-0.194748,-0.042544,0.000000,0.280949,-0.419845,0.000000
2.350000,-0.757420,0.652541,-1.472094,0.819017,0.117996,-0.061538,0.598675,-1.732542,0.298518,3.557289,3.003058,-0.018338,-12.079119,2.618358,-8.117271,-0.179829,-0.062859,0.000000,0.309490,-0.366397,0.000000
2.400000,-0.715711,0.656273,-1.474791,0.853460,0.035147,-0.046669,0.761036,-1.579395,0.287168,2.855190,3.095577,-0.373669,-15.317554,1.524373,-5.776188,-0.163844,-0.079748,0.000000,0.325521,-0.290859,0.000000
2.450000,-0.672074,0.656055,-1.476761,0.895121,-0.039944,-0.032822,0.884194,-1.422984,0.261151,2.025534,3.155496,-0.595957,-17.148494,1.269146,-3.060425,-0.147312,-0.092334,0.000000,0.333773,-0.202374,0.000000
2.500000,-0.626198,0.652279,-1.478073,0.941879,-0.107152,-0.020554,0.963590,-1.263845,0.227572,1.140340,3.222492,-0.679712,-17.593030,1.698020,-0.450872,-0.130484,-0.100221,0.000000,0.339527,-0.109809,0.000000
2.550000,-0.577886,0.645340,-1.478816,0.991480,-0.166328,-0.010064,0.998228,-1.100735,0.193180,0.266230,3.325298,-0.641044,-16.817690,2.553243,1.700642,-0.113360,-0.103430,0.000000,0.347262,-0.020411,-0.000000
2.600000,-0.527050,0.635646,-1.479080,1.041702,-0.217225,-0.001236,0.990213,-0.931315,0.163468,-0.541429,3.477816,-0.509648,-15.076518,3.525251,3.206782,-0.095746,-0.102291,0.000000,0.359795,0.060629,0.000000
2.650000,-0.473716,0.623617,-1.478940,1.090501,-0.259460,0.006282,0.944085,-0.752953,0.142215,-1.241421,3.677823,-0.320365,-12.657363,4.301476,4.032951,-0.077359,-0.097344,0.000000,0.377930,0.130011,-0.000000
2.700000,-0.418000,0.609700,-1.478452,1.136111,-0.292521,0.012986,0.866071,-0.563533,0.131431,-1.807165,3.907964,-0.106352,-9.841414,4.608925,4.254761,-0.057928,-0.089246,0.000000,0.400492,0.185898,0.000000
2.750000,-0.360104,0.594365,-1.477641,1.177108,-0.315813,0.019426,0.763368,-0.362157,0.131580,-2.225563,4.138715,0.105111,-6.878248,4.250615,4.004141,-0.037286,-0.078710,0.000000,0.424633,0.227520,0.000000
2.800000,-0.300289,0.578118,-1.476509,1.212448,-0.328736,0.026144,0.643514,-0.149661,0.141942,-2.494990,4.333025,0.294062,-3.973921,3.135440,3.420398,-0.015445,-0.066463,0.000000,0.446352,0.254881,0.000000
2.850000,-0.238860,0.561492,-1.475027,1.241460,-0.330779,0.033620,0.513869,0.071145,0.160986,-2.622955,4.452259,0.447150,-1.287744,1.295943,2.616170,0.007363,-0.053206,0.000000,0.461190,0.268599,0.000000
2.900000,-0.176143,0.545040,-1.473147,1.263834,-0.321622,0.042242,0.381219,0.295565,0.186657,-2.623764,4.462619,0.555679,1.065665,-1.116987,1.661541,0.030680,-0.039593,0.000000,0.465027,0.269808,-0.000000
2.950000,-0.112476,0.529330,-1.470803,1.279582,-0.301223,0.052286,0.251493,0.517407,0.216554,-2.516388,4.340561,0.613305,3.010405,-3.861069,0.584433,0.053863,-0.026209,0.000000,0.454788,0.260070,-0.000000
3.000000,-0.048185,0.514918,-1.467918,1.288984,-0.269881,0.063898,0.129580,0.729621,0.247988,-2.322724,4.076513,0.614122,4.502090,-6.641525,-0.615618,0.076150,-0.013551,0.000000,0.428938,0.241296,-0.000000
3.050000,0.016422,0.502341,-1.464413,1.292540,-0.228261,0.077084,0.019220,0.925059,0.277966,-2.066179,3.676408,0.551743,5.524429,-9.166359,-1.942117,0.096744,-0.002016,0.000000,0.387697,0.215631,-0.000000
3.100000,0.081069,0.492092,-1.460210,1.290906,-0.177375,0.091694,-0.077038,1.097261,0.303162,-1.770281,3.159877,0.419910,6.088081,-11.187175,-3.375058,0.114906,0.008103,0.000000,0.332858,0.185327,0.000000
3.150000,0.145513,0.484604,-1.455244,1.284836,-0.118535,0.107401,-0.157808,1.241046,0.319957,-1.457371,2.557691,0.214237,6.226114,-12.502879,-4.853496,0.130018,0.016627,0.000000,0.267519,0.152602,0.000000
3.200000,0.209552,0.480239,-1.449470,1.275125,-0.053271,0.123690,-0.222775,1.353031,0.324586,-1.147669,1.909589,-0.065439,5.986782,-12.989887,-6.263008,0.141649,0.023482,0.000000,0.195891,0.119555,-0.000000
3.250000,0.273025,0.479277,-1.442875,1.262558,0.016768,0.139859,-0.272575,1.432005,0.313413,-0.858693,1.258702,-0.412064,5.431659,-12.639213,-7.437166,0.149603,0.028694,0.000000,0.122773,0.088107,0.000000
3.300000,0.335808,0.481916,-1.435484,1.247868,0.089930,0.155031,-0.308644,1.478901,0.283380,-0.604503,0.645667,-0.809156,4.639270,-11.531493,-8.185411,0.153930,0.032387,0.000000,0.052981,0.059922,0.000000
3.350000,0.397812,0.488270,-1.427372,1.231694,0.164659,0.168197,-0.333025,1.496572,0.232498,-0.394766,0.105553,-1.230605,3.698430,-9.817548,-8.328741,0.154914,0.034758,0.000000,-0.009030,0.036266,-0.000000
3.400000,0.458977,0.498381,-1.418664,1.214565,0.239587,0.178281,-0.348121,1.489456,0.160319,-0.234660,-0.336087,-1.642030,2.694852,-7.722042,-7.732964,0.153046,0.036060,0.000000,-0.059734,0.017943,0.000000
3.450000,0.519268,0.512229,-1.409543,1.196882,0.313604,0.184229,-0.356491,1.462963,0.068295,-0.125281,-0.666652,-2.003901,1.707469,-5.506999,-6.344469,0.148963,0.036578,0.000000,-0.097100,0.005267,-0.000000
3.500000,0.578666,0.529742,-1.400241,1.178916,0.385883,0.185111,-0.360649,1.422791,-0.040071,-0.063914,-0.886787,-2.276477,0.805936,-3.422358,-4.214751,0.143358,0.036597,0.000000,-0.120801,-0.001950,0.000000
3.550000,0.637160,0.550817,-1.391032,1.160817,0.455883,0.180222,-0.362882,1.374285,-0.159353,-0.044687,-1.008887,-2.425377,0.042996,-1.677441,-1.502220,0.136898,0.036384,0.000000,-0.132117,-0.004326,-0.000000
3.600000,0.694747,0.575330,-1.382219,1.142628,0.523312,0.169175,-0.365118,1.321902,-0.282609,-0.059614,-1.054531,-2.426699,-0.549093,-0.409570,1.545467,0.130152,0.036161,0.000000,-0.133587,-0.002765,0.000000
3.650000,0.751423,0.603148,-1.374115,1.124305,0.588073,0.151961,-0.368844,1.268831,-0.402023,-0.099597,-1.049844,-2.270830,-0.957420,0.344250,4.625434,0.123536,0.036103,0.000000,-0.128377,0.001706,0.000000
3.700000,0.807178,0.634137,-1.367023,1.105743,0.650195,0.128973,-0.375077,1.216918,-0.509692,-0.155356,-1.020106,-1.964155,-1.188562,0.619536,7.426196,0.117303,0.036330,0.000000,-0.119589,0.008070,0.000000
3.750000,0.861997,0.668168,-1.361218,1.086798,0.709765,0.100992,-0.384379,1.166821,-0.598438,-0.218453,-0.987891,-1.528210,-1.265553,0.492463,9.674951,0.111562,0.036913,0.000000,-0.109980,0.015448,0.000000
3.800000,0.915858,0.705114,-1.356924,1.067306,0.766877,0.069129,-0.396923,1.118129,-0.662513,-0.281911,-0.970860,-0.996660,-1.217419,0.105268,11.172825,0.106289,0.037883,0.000000,-0.101729,0.023147,-0.000000
3.850000,0.968728,0.744855,-1.354305,1.047105,0.821578,0.034741,-0.412570,1.069735,-0.698104,-0.340195,-0.977364,-0.410928,-1.073663,-0.367437,11.815430,0.101374,0.039242,0.000000,-0.096046,0.030634,0.000000
3.900000,1.020568,0.787272,-1.353450,1.026048,0.873851,-0.000681,-0.430942,1.020392,-0.703606,-0.389278,-1.007604,0.184883,-0.864716,-0.802874,11.596950,0.096671,0.040966,0.000000,-0.093325,0.037508,0.000000
3.950000,1.071333,0.832240,-1.354373,1.004011,0.923617,-0.035620,-0.451498,0.968974,-0.679616,-0.426666,-1.057651,0.748767,-0.617765,-1.134644,10.596669,0.092028,0.043016,0.000000,-0.093524,0.043482,-0.000000
4.000000,1.120969,0.879633,-1.357012,0.980899,0.970748,-0.068643,-0.473609,0.914627,-0.628729,-0.451054,-1.121068,1.244550,-0.353371,-1.332585,8.956879,0.087306,0.045339,0.000000,-0.096304,0.048334,0.000000
4.050000,1.169422,0.929315,-1.361237,0.956650,1.015080,-0.098493,-0.496603,0.856868,-0.555161,-0.462004,-1.190910,1.644455,-0.086936,-1.409253,6.859857,0.082386,0.047874,0.000000,-0.101179,0.051878,0.000000
4.100000,1.216634,0.981141,-1.366861,0.931238,1.056435,-0.124159,-0.519809,0.795536,-0.464283,-0.459748,-1.261993,1.930535,0.169866,-1.409959,4.505452,0.077177,0.050550,0.000000,-0.107711,0.053954,-0.000000
4.150000,1.262546,1.034959,-1.373653,0.904669,1.094634,-0.144921,-0.542578,0.730668,-0.362108,-0.445017,-1.331906,2.095000,0.408191,-1.389838,2.091042,0.071606,0.053289,0.000000,-0.115592,0.054439,0.000000
4.200000,1.307101,1.090605,-1.381353,0.876980,1.129502,-0.160370,-0.564311,0.662345,-0.254783,-0.418929,-1.400977,2.139639,0.621121,-1.395340,-0.204768,0.065611,0.056009,0.000000,-0.124668,0.053260,0.000000
4.250000,1.350244,1.147909,-1.389690,0.848238,1.160868,-0.170399,-0.584471,0.590570,-0.148144,-0.382905,-1.471440,2.074524,0.803283,-1.452154,-2.234330,0.059134,0.058626,0.000000,-0.134878,0.050416,-0.000000
4.300000,1.391925,1.206692,-1.398393,0.818533,1.188559,-0.175184,-0.602601,0.515201,-0.047331,-0.338600,-1.546193,1.916206,0.950795,-1.561212,-3.888845,0.052121,0.061056,0.000000,-0.146173,0.045999,0.000000
4.350000,1.432098,1.266765,-1.407208,0.787978,1.212388,-0.175133,-0.618331,0.435951,0.043477,-0.287825,-1.627561,1.685639,1.061352,-1.701334,-5.101929,0.044519,0.063227,0.000000,-0.158424,0.040197,-0.000000
4.400000,1.470723,1.327930,-1.415906,0.756700,1.232154,-0.170836,-0.631384,0.352445,0.121233,-0.232465,-1.716326,1.406014,1.134405,-1.836175,-5.849056,0.036284,0.065075,0.000000,-0.171356,0.033287,0.000000
4.450000,1.507768,1.389980,-1.424292,0.724840,1.247633,-0.163009,-0.641578,0.264319,0.184078,-0.174385,-1.811178,1.100733,1.171276,-1.923171,-6.143443,0.027391,0.066553,0.000000,-0.184515,0.025614,-0.000000
4.500000,1.543207,1.452694,-1.432207,0.692542,1.258586,-0.152428,-0.648822,0.171327,0.231306,-0.115337,-1.908643,0.791669,1.175087,-1.922352,-6.029234,0.017844,0.067633,0.000000,-0.197287,0.017556,0.000000
4.550000,1.577022,1.515839,-1.439535,0.659957,1.264765,-0.139879,-0.653111,0.073454,0.263245,-0.056876,-2.003414,0.497810,1.150457,-1.803394,-5.573110,0.007676,0.068305,0.000000,-0.208956,0.009480,-0.000000
4.600000,1.609203,1.579170,-1.446195,0.627231,1.265931,-0.126104,-0.654510,-0.029014,0.281087,-0.000292,-2.088982,0.234358,1.103009,-1.549962,-4.855478,-0.003038,0.068579,0.000000,-0.218783,0.001712,0.000000
4.650000,1.639745,1.642432,-1.452145,0.594506,1.261864,-0.111770,-0.653141,-0.135444,0.286681,0.053425,-2.158410,0.012262,1.038833,-1.161094,-3.962262,-0.014188,0.068476,0.000000,-0.226092,-0.005495,0.000000
4.700000,1.668653,1.705357,-1.457372,0.561917,1.252387,-0.097436,-0.649167,-0.244855,0.282314,0.103592,-2.205092,-0.161868,0.964007,-0.649922,-2.978026,-0.025634,0.068030,0.000000,-0.230339,-0.011971,-0.000000
4.750000,1.695937,1.767670,-1.461889,0.529590,1.237379,-0.083539,-0.642781,-0.355953,0.270494,0.149825,-2.223402,-0.285540,0.884195,-0.040444,-1.980798,-0.037212,0.067279,0.000000,-0.231155,-0.017630,-0.000000
4.800000,1.721612,1.829095,-1.465726,0.497639,1.216791,-0.070386,-0.634185,-0.467195,0.253760,0.192011,-2.209136,-0.359948,0.804366,0.636821,-1.038605,-0.048743,0.066266,0.000000,-0.228357,-0.022467,0.000000
4.850000,1.745701,1.889350,-1.468927,0.466171,1.190659,-0.058163,-0.623580,-0.576867,0.234500,0.230262,-2.159720,-0.389401,0.728738,1.349501,-0.207441,-0.060044,0.065031,0.000000,-0.221927,-0.026535,-0.000000
4.900000,1.768229,1.948160,-1.471542,0.435281,1.159105,-0.046936,-0.611159,-0.683167,0.214819,0.264885,-2.074186,-0.380692,0.660862,2.067656,0.469759,-0.070936,0.063608,0.000000,-0.211979,-0.029936,-0.000000
4.950000,1.789229,2.005260,-1.473621,0.405055,1.122342,-0.036681,-0.597092,-0.784285,0.196430,0.296348,-1.952954,-0.342425,0.603742,2.767134,0.963570,-0.081245,0.062030,0.000000,-0.198704,-0.032803,0.000000
5.000000,1.808735,2.060395,-1.475210,0.375572,1.080676,-0.027293,-0.581524,-0.878463,0.180577,0.325259,-1.797473,-0.284335,0.559923,3.431596,1.258326,-0.090811,0.060317,0.000000,-0.182319,-0.035286,0.000000
5.050000,1.826786,2.113328,-1.476350,0.346903,1.034496,-0.018623,-0.564566,-0.964033,0.167997,0.352341,-1.609795,-0.216592,0.531466,4.053029,1.352310,-0.099482,0.058486,0.000000,-0.163025,-0.037542,0.000000
5.100000,1.843425,2.163844,-1.477073,0.319115,0.984273,-0.010494,-0.546290,-1.039442,0.158918,0.378406,-1.392170,-0.149104,0.519774,4.630664,1.257866,-0.107118,0.056544,0.000000,-0.140972,-0.039726,0.000000
5.150000,1.858698,2.211755,-1.477400,0.292274,0.930552,-0.002731,-0.526725,-1.103250,0.153087,0.404318,-1.146728,-0.090806,0.525245,5.168406,1.001155,-0.113584,0.054490,0.000000,-0.116248,-0.041983,0.000000
5.200000,1.872652,2.256900,-1.477346,0.266443,0.873948,0.004815,-0.505858,-1.154115,0.149837,0.430930,-0.875329,-0.048988,0.546770,5.671018,0.621182,-0.118747,0.052318,0.000000,-0.088897,-0.044437,-0.000000
5.250000,1.885342,2.299150,-1.476918,0.241688,0.815140,0.012253,-0.483632,-1.190783,0.148188,0.458995,-0.579627,-0.028687,0.581170,6.139511,0.167679,-0.122476,0.050014,0.000000,-0.058951,-0.047180,-0.000000
5.300000,1.896821,2.338414,-1.476121,0.218080,0.754870,0.019634,-0.459959,-1.212077,0.146968,0.489047,-0.261378,-0.032220,0.622676,6.566310,-0.302467,-0.124643,0.047564,0.000000,-0.026487,-0.050261,0.000000
5.350000,1.907150,2.374637,-1.474955,0.195692,0.693933,0.026949,-0.434728,-1.216920,0.144966,0.521263,0.077004,-0.058934,0.662573,6.930916,-0.730272,-0.125125,0.044949,0.000000,0.008289,-0.053675,0.000000
5.400000,1.916391,2.407807,-1.473426,0.174607,0.633178,0.034130,-0.407832,-1.204377,0.141075,0.555305,0.431713,-0.105247,0.689136,7.196781,-1.060899,-0.123814,0.042155,0.000000,0.044965,-0.057346,-0.000000
5.450000,1.924611,2.437955,-1.471542,0.154909,0.573495,0.041057,-0.379197,-1.173749,0.134441,0.590176,0.796683,-0.165024,0.687933,7.309988,-1.250414,-0.120629,0.039171,0.000000,0.082834,-0.061123,-0.000000
5.500000,1.931881,2.465156,-1.469320,0.136687,0.515803,0.047574,-0.348815,-1.124709,0.124573,0.624098,1.162712,-0.230289,0.642513,7.200098,-1.272047,-0.115532,0.035999,0.000000,0.120829,-0.064774,-0.000000
5.550000,1.938279,2.489535,-1.466784,0.120028,0.461024,0.053514,-0.316787,-1.057478,0.111412,0.654428,1.516692,-0.292229,0.534413,6.783184,-1.120720,-0.108548,0.032652,0.000000,0.157470,-0.067985,0.000000
5.600000,1.943884,2.511259,-1.463969,0.105008,0.410055,0.058716,-0.283372,-0.973040,0.095350,0.677539,1.841031,-0.342361,0.346052,5.966354,-0.815384,-0.099787,0.029161,0.000000,0.190839,-0.070360,-0.000000
5.650000,1.948780,2.530540,-1.460913,0.091690,0.363720,0.063049,-0.249033,-0.873375,0.077176,0.689033,2.113328,-0.373767,0.066379,4.652870,-0.398430,-0.089466,0.025581,0.000000,0.218584,-0.071444,0.000000
5.700000,1.953053,2.547631,-1.457664,0.080105,0.322718,0.066433,-0.214469,-0.761707,0.057973,0.684177,2.306318,-0.382204,-0.314216,2.747511,0.070112,-0.077931,0.021989,0.000000,0.237927,-0.070770,0.000000
5.750000,1.956791,2.562812,-1.454270,0.070244,0.287549,0.068846,-0.180616,-0.642743,0.038956,0.657611,2.388079,-0.366756,-0.801065,0.158879,0.520281,-0.065675,0.018483,0.000000,0.245685,-0.067826,0.000000
5.800000,1.960078,2.576386,-1.450779,0.062044,0.258443,0.070329,-0.148707,-0.522899,0.021297,0.604071,2.322206,-0.330176,-1.356746,-3.206589,0.877774,-0.053362,0.015191,0.000000,0.238277,-0.062121,0.000000
5.850000,1.962995,2.588656,-1.447237,0.055373,0.235260,0.070976,-0.120209,-0.410522,0.005938,0.521937,2.067420,-0.278979,-0.246584,-1.949743,1.678313,-0.041845,0.012260,0.000000,0.211651,-0.053531,-0.000000
5.900000,1.965615,2.599912,-1.443681,0.050023,0.217391,0.070923,-0.096514,-0.316157,-0.006601,0.579412,2.127231,-0.162344,0.581013,-1.124226,2.603652,-0.032194,0.009831,0.000000,0.216976,-0.059150,-0.000000
5.950000,1.967997,2.610396,-1.440144,0.045721,0.203644,0.070316,-0.062267,-0.197799,-0.010296,0.580038,1.954997,-0.018613,-1.042649,-5.843900,1.990343,-0.020139,0.006341,0.000000,0.199023,-0.059063,0.000000
6.000000,1.970187,2.620276,-1.436650,0.043796,0.197611,0.069893,-0.038510,-0.120657,-0.008462,0.475147,1.542841,0.036690,-2.097812,-8.243119,1.106066,-0.012288,0.003922,0.000000,0.157064,-0.048374,0.000000
