time,x,y,z,vx,vy,vz,ax,ay,az,jx,jy,jz,sx,sy,sz,roll,pitch,yaw,p,q,r
0.000000,-2.598522,-2.375441,-1.359447,-0.016323,0.008927,-0.021652,0.329896,-0.085898,0.049952,-8.813296,-0.913841,-0.077129,204.385733,147.940258,-35.159987,-0.008796,-0.033788,0.000000,-0.093769,0.902199,0.000000
0.010000,-2.598670,-2.375356,-1.359661,-0.013432,0.008046,-0.021162,0.251528,-0.087937,0.047480,-6.904778,0.476666,-0.411502,177.723543,130.391654,-31.733850,-0.009004,-0.025759,0.000000,0.049021,0.707862,0.000000
0.020000,-2.598793,-2.375280,-1.359871,-0.011233,0.007211,-0.020713,0.190952,-0.076926,0.041834,-5.250898,1.698505,-0.712191,153.439421,114.196720,-28.423098,-0.007874,-0.019546,0.000000,0.174329,0.538755,-0.000000
0.030000,-2.598896,-2.375212,-1.360076,-0.009562,0.006545,-0.020335,0.145739,-0.054485,0.033345,-3.828434,2.764915,-0.980349,131.421887,99.296004,-25.227679,-0.005572,-0.014906,0.000000,0.283294,0.392991,-0.000000
0.040000,-2.598985,-2.375148,-1.360278,-0.008275,0.006155,-0.020054,0.113686,-0.022104,0.022331,-2.615277,3.688541,-1.217129,111.559461,85.630055,-22.147541,-0.002258,-0.011615,0.000000,0.377102,0.268609,0.000000
0.050000,-2.599063,-2.375087,-1.360477,-0.007251,0.006132,-0.019896,0.092806,0.018850,0.009103,-1.590433,4.481433,-1.423684,93.740661,73.139418,-19.182633,0.001923,-0.009469,0.000000,0.456949,0.163635,-0.000000
0.060000,-2.599131,-2.375024,-1.360676,-0.006387,0.006556,-0.019879,0.081316,0.067127,-0.006045,-0.734023,5.155049,-1.601165,77.854009,61.764643,-16.332902,0.006838,-0.008284,0.000000,0.524012,0.076122,0.000000
0.070000,-2.599191,-2.374954,-1.360875,-0.005598,0.007495,-0.020022,0.077626,0.121590,-0.022828,-0.027284,5.720248,-1.750725,63.788022,51.446278,-13.598297,0.012365,-0.007894,0.000000,0.579442,0.004180,0.000000
0.080000,-2.599243,-2.374872,-1.361077,-0.004813,0.009005,-0.020340,0.080330,0.181205,-0.040971,0.547435,6.187297,-1.873515,51.431221,42.124869,-10.978767,0.018392,-0.008154,0.000000,0.624352,-0.054008,-0.000000
0.090000,-2.599287,-2.374772,-1.361283,-0.003975,0.011133,-0.020845,0.088190,0.245041,-0.060212,1.006666,6.565870,-1.970684,40.672125,33.740964,-8.474260,0.024820,-0.008935,0.000000,0.659809,-0.100168,-0.000000
0.100000,-2.599322,-2.374648,-1.361495,-0.003036,0.013917,-0.021547,0.100130,0.312258,-0.080303,1.365831,6.865043,-2.043383,31.399254,26.235113,-6.084725,0.031560,-0.010124,0.000000,0.686832,-0.135925,0.000000
0.110000,-2.599347,-2.374492,-1.361714,-0.001962,0.017387,-0.022453,0.115221,0.382105,-0.101002,1.639234,7.093301,-2.092762,23.501127,19.547861,-3.810108,0.038532,-0.011625,0.000000,0.706388,-0.162798,0.000000
0.120000,-2.599361,-2.374298,-1.361944,-0.000724,0.021566,-0.023568,0.132673,0.453914,-0.122084,1.840065,7.258531,-2.119968,16.866264,13.619758,-1.650360,0.045666,-0.013357,0.000000,0.719384,-0.182191,-0.000000
0.130000,-2.599361,-2.374058,-1.362187,0.000697,0.026470,-0.024895,0.151821,0.527090,-0.143332,1.980398,7.368028,-2.126152,11.383184,8.391350,0.394572,0.052901,-0.015252,0.000000,0.726665,-0.195391,0.000000
0.140000,-2.599346,-2.373766,-1.362443,0.002316,0.032111,-0.026435,0.172116,0.601111,-0.164541,2.071196,7.428492,-2.112459,6.940406,3.803186,2.324739,0.060183,-0.017254,0.000000,0.729014,-0.203564,-0.000000
0.150000,-2.599314,-2.373413,-1.362716,0.004142,0.038494,-0.028185,0.193113,0.675517,-0.185518,2.122303,7.446028,-2.080039,3.426451,-0.204187,4.140193,0.067467,-0.019318,0.000000,0.727145,-0.207754,0.000000
0.160000,-2.599263,-2.372993,-1.363007,0.006180,0.045621,-0.030144,0.214459,0.749907,-0.206083,2.142449,7.426146,-2.030038,0.729838,-3.690221,5.840985,0.074714,-0.021408,0.000000,0.721702,-0.208881,0.000000
0.170000,-2.599190,-2.372498,-1.363320,0.008432,0.053490,-0.032305,0.235884,0.823932,-0.226064,2.139252,7.373763,-1.963602,-1.260915,-6.714368,7.427168,0.081891,-0.023499,0.000000,0.713259,-0.207744,0.000000
0.180000,-2.599093,-2.371921,-1.363654,0.010897,0.062097,-0.034663,0.257188,0.897288,-0.245304,2.119212,7.293200,-1.881876,-2.657286,-9.336081,8.898793,0.088971,-0.025572,0.000000,0.702318,-0.205020,0.000000
0.190000,-2.598971,-2.371254,-1.364013,0.013574,0.071433,-0.037208,0.278230,0.969714,-0.263655,2.087716,7.188185,-1.786007,-3.570757,-11.614811,10.255911,0.095930,-0.027613,0.000000,0.689310,-0.201264,-0.000000
0.200000,-2.598821,-2.370490,-1.364399,0.016461,0.081488,-0.039932,0.298918,1.040981,-0.280981,2.049035,7.061849,-1.677140,-4.112809,-13.610010,11.498575,0.102751,-0.029614,0.000000,0.674596,-0.196915,0.000000
0.210000,-2.598641,-2.369622,-1.364813,0.019544,0.092244,-0.042824,0.319467,1.111036,-0.297159,2.031152,6.930267,-1.556516,-5.021968,-15.722995,12.629329,0.109432,-0.031597,0.000000,0.659772,-0.194727,0.000000
0.220000,-2.598430,-2.368643,-1.365256,0.022840,0.103698,-0.045871,0.339515,1.179519,-0.312075,1.977340,6.763339,-1.425047,-5.705887,-17.629494,13.645427,0.115942,-0.033529,0.000000,0.641954,-0.189134,-0.000000
0.230000,-2.598184,-2.367546,-1.365730,0.026333,0.115829,-0.049061,0.358994,1.246242,-0.325628,1.917670,6.578306,-1.283990,-6.199265,-19.347097,14.546614,0.122267,-0.035404,0.000000,0.622847,-0.183105,0.000000
0.240000,-2.597902,-2.366324,-1.366238,0.030017,0.128617,-0.052379,0.377855,1.311031,-0.337727,1.853874,6.376968,-1.134498,-6.536802,-20.893397,15.332636,0.128395,-0.037218,0.000000,0.602643,-0.176811,-0.000000
0.250000,-2.597583,-2.364971,-1.366778,0.033888,0.142042,-0.055810,0.396063,1.373732,-0.348294,1.787338,6.160951,-0.977722,-6.753196,-22.285985,16.003240,0.134316,-0.038969,0.000000,0.581504,-0.170386,-0.000000
0.260000,-2.597224,-2.363481,-1.367354,0.037934,0.156083,-0.059340,0.413680,1.434243,-0.357255,1.726900,5.935059,-0.814287,-7.080205,-23.627217,16.544738,0.140026,-0.040665,0.000000,0.559895,-0.164687,-0.000000
0.270000,-2.596824,-2.361848,-1.367966,0.042156,0.170718,-0.062950,0.430591,1.492391,-0.364563,1.654784,5.692620,-0.646609,-7.331339,-24.839541,16.971956,0.145512,-0.042295,0.000000,0.537155,-0.157976,0.000000
0.280000,-2.596380,-2.360065,-1.368613,0.046544,0.185923,-0.066625,0.446769,1.548057,-0.370175,1.580491,5.438673,-0.475224,-7.517170,-25.930167,17.286283,0.150767,-0.043858,0.000000,0.513759,-0.151174,0.000000
0.290000,-2.595892,-2.358127,-1.369298,0.051089,0.201671,-0.070348,0.462196,1.601130,-0.374059,1.504623,5.174399,-0.301255,-7.648267,-26.906309,17.489111,0.155785,-0.045353,0.000000,0.489796,-0.144330,0.000000
0.300000,-2.595358,-2.356030,-1.370020,0.055785,0.217936,-0.074101,0.476858,1.651514,-0.376195,1.427673,4.900905,-0.125809,-7.735200,-27.775178,17.581830,0.160561,-0.046780,0.000000,0.465344,-0.137483,0.000000
0.310000,-2.594776,-2.353767,-1.370780,0.060623,0.234691,-0.077866,0.490772,1.699131,-0.376566,1.352393,4.620198,0.050806,-7.848200,-28.568480,17.545965,0.165092,-0.048141,0.000000,0.440569,-0.130890,-0.000000
0.320000,-2.594145,-2.351334,-1.371578,0.065597,0.251909,-0.081626,0.503902,1.743893,-0.375182,1.273474,4.330948,0.225648,-7.930869,-29.265935,17.405207,0.169371,-0.049434,0.000000,0.415281,-0.124020,0.000000
0.330000,-2.593464,-2.348727,-1.372413,0.070698,0.269560,-0.085364,0.516240,1.785729,-0.372059,1.193866,4.035185,0.398573,-7.986472,-29.871753,17.163379,0.173396,-0.050658,0.000000,0.389641,-0.117147,0.000000
0.340000,-2.592731,-2.345942,-1.373285,0.075919,0.287614,-0.089062,0.527778,1.824578,-0.367220,1.113823,3.733805,0.568591,-8.018273,-30.390148,16.824305,0.177163,-0.051812,0.000000,0.363691,-0.110285,-0.000000
0.350000,-2.591945,-2.342974,-1.374194,0.081251,0.306041,-0.092703,0.538515,1.860389,-0.360700,1.033569,3.427660,0.734748,-8.029535,-30.825332,16.391809,0.180669,-0.052898,0.000000,0.337461,-0.103441,-0.000000
0.360000,-2.591105,-2.339820,-1.375139,0.086686,0.324811,-0.096271,0.548457,1.893123,-0.352534,0.954001,3.118041,0.896835,-8.041469,-31.193643,15.851882,0.183912,-0.053916,0.000000,0.311037,-0.096692,-0.000000
0.370000,-2.590211,-2.336477,-1.376119,0.092217,0.343893,-0.099748,0.557595,1.922739,-0.342783,0.873594,2.804582,1.052303,-8.037195,-31.485683,15.228363,0.186889,-0.054865,0.000000,0.284305,-0.089869,-0.000000
0.380000,-2.589261,-2.332941,-1.377133,0.097836,0.363255,-0.103121,0.565930,1.949206,-0.331510,0.793307,2.488573,1.201143,-8.017781,-31.704181,14.527262,0.189597,-0.055745,0.000000,0.257349,-0.083054,0.000000
0.390000,-2.588254,-2.329211,-1.378181,0.103533,0.382866,-0.106374,0.573462,1.972504,-0.318785,0.713286,2.170735,1.342610,-7.984295,-31.851865,13.754585,0.192035,-0.056557,0.000000,0.230186,-0.076250,0.000000
0.400000,-2.587190,-2.325283,-1.379260,0.109302,0.402695,-0.109492,0.580197,1.992617,-0.304684,0.633665,1.851762,1.476016,-7.937802,-31.931463,12.916339,0.194200,-0.057299,0.000000,0.202832,-0.069455,0.000000
0.410000,-2.586068,-2.321156,-1.380370,0.115135,0.422708,-0.112463,0.586140,2.009541,-0.289289,0.554788,1.532611,1.601155,-7.884900,-31.952967,12.007990,0.196092,-0.057973,0.000000,0.175337,-0.062695,0.000000
0.420000,-2.584887,-2.316828,-1.381509,0.121022,0.442875,-0.115274,0.591294,2.023270,-0.272693,0.476252,1.213239,1.716473,-7.820449,-31.910950,11.047378,0.197707,-0.058577,0.000000,0.147631,-0.055911,-0.000000
0.430000,-2.583647,-2.312298,-1.382675,0.126958,0.463163,-0.117913,0.595667,2.033808,-0.254992,0.398417,0.894597,1.821953,-7.744838,-31.807253,10.041803,0.199044,-0.059113,0.000000,0.119769,-0.049132,-0.000000
0.440000,-2.582348,-2.307565,-1.383867,0.132933,0.483540,-0.120371,0.599265,2.041166,-0.236288,0.321391,0.577294,1.917183,-7.658457,-31.643713,8.998564,0.200101,-0.059580,0.000000,0.091768,-0.042358,0.000000
0.450000,-2.580988,-2.302627,-1.385082,0.138941,0.503976,-0.122636,0.602098,2.045360,-0.216684,0.245282,0.261917,2.001823,-7.561694,-31.422168,7.924959,0.200879,-0.059978,0.000000,0.063646,-0.035590,-0.000000
0.460000,-2.579569,-2.297485,-1.386319,0.144973,0.524437,-0.124702,0.604175,2.046414,-0.196287,0.170248,-0.050869,2.075652,-7.456397,-31.146815,6.827112,0.201374,-0.060306,0.000000,0.035432,-0.028837,0.000000
0.470000,-2.578089,-2.292139,-1.387575,0.151022,0.544894,-0.126560,0.605507,2.044353,-0.175207,0.096252,-0.360732,2.138366,-7.341320,-30.816845,5.713640,0.201587,-0.060566,0.000000,0.007127,-0.022086,-0.000000
0.480000,-2.576548,-2.286587,-1.388849,0.157080,0.565314,-0.128204,0.606104,2.039211,-0.153557,0.023454,-0.667029,2.189898,-7.216674,-30.433809,4.591987,0.201517,-0.060757,0.000000,-0.021231,-0.015349,-0.000000
0.490000,-2.574947,-2.280832,-1.390139,0.163141,0.585668,-0.129629,0.605980,2.031026,-0.131447,-0.048050,-0.969237,2.230203,-7.082671,-29.999256,3.469594,0.201162,-0.060880,0.000000,-0.049614,-0.008631,-0.000000
0.500000,-2.573285,-2.274874,-1.391441,0.169197,0.605924,-0.130832,0.605148,2.019842,-0.108990,-0.118169,-1.266848,2.259312,-6.939522,-29.514738,2.353905,0.200524,-0.060933,0.000000,-0.077988,-0.001936,0.000000
0.510000,-2.571563,-2.268714,-1.392754,0.175242,0.626055,-0.131808,0.603621,2.005705,-0.086301,-0.186818,-1.559439,2.277016,-6.787269,-28.980075,1.260234,0.199603,-0.060919,0.000000,-0.106329,0.004730,0.000000
0.520000,-2.569781,-2.262354,-1.394076,0.181268,0.646029,-0.132557,0.601417,1.988672,-0.063486,-0.253893,-1.846371,2.284234,-6.626313,-28.398756,0.187189,0.198398,-0.060837,0.000000,-0.134565,0.011352,0.000000
0.530000,-2.567938,-2.255794,-1.395405,0.187268,0.665819,-0.133078,0.598549,1.968798,-0.040652,-0.319316,-2.127264,2.280851,-6.456886,-27.772545,-0.858754,0.196912,-0.060688,0.000000,-0.162666,0.017926,0.000000
0.540000,-2.566035,-2.249038,-1.396737,0.193236,0.685396,-0.133371,0.595036,1.946148,-0.017903,-0.383003,-2.401678,2.267171,-6.279221,-27.103202,-1.871116,0.195145,-0.060472,0.000000,-0.190585,0.024440,0.000000
0.550000,-2.564073,-2.242087,-1.398072,0.199167,0.704732,-0.133437,0.590895,1.920788,0.004659,-0.444874,-2.669190,2.243562,-6.093549,-26.392489,-2.843419,0.193101,-0.060190,0.000000,-0.218268,0.030883,-0.000000
0.560000,-2.562052,-2.234944,-1.399405,0.205052,0.723803,-0.133278,0.586145,1.892787,0.026930,-0.504877,-2.929528,2.209863,-5.899386,-25.638836,-3.754164,0.190781,-0.059843,0.000000,-0.245685,0.037249,-0.000000
0.570000,-2.559972,-2.227612,-1.400736,0.210888,0.742580,-0.132899,0.580804,1.862223,0.048826,-0.562868,-3.181991,2.167979,-5.697769,-24.847743,-4.613732,0.188188,-0.059431,0.000000,-0.272719,0.043510,-0.000000
0.580000,-2.557835,-2.220094,-1.402063,0.216667,0.761039,-0.132303,0.574894,1.829174,0.070262,-0.618808,-3.426365,2.117774,-5.489016,-24.021382,-5.417483,0.185328,-0.058957,0.000000,-0.299336,0.049659,-0.000000
0.590000,-2.555639,-2.212393,-1.403382,0.222384,0.779155,-0.131496,0.568435,1.793724,0.091156,-0.672626,-3.662308,2.059830,-5.273446,-23.161921,-6.160778,0.182203,-0.058421,0.000000,-0.325474,0.055681,-0.000000
0.600000,-2.553387,-2.204512,-1.404692,0.228034,0.796906,-0.130482,0.561449,1.755957,0.111435,-0.724255,-3.889500,1.994776,-5.051380,-22.271530,-6.838976,0.178820,-0.057825,0.000000,-0.351068,0.061563,-0.000000
0.610000,-2.551079,-2.196456,-1.405991,0.233611,0.814267,-0.129269,0.553957,1.715963,0.131022,-0.773653,-4.107724,1.922516,-4.822626,-21.350342,-7.428053,0.175184,-0.057171,0.000000,-0.376072,0.067293,0.000000
0.620000,-2.548715,-2.188228,-1.407276,0.239111,0.831218,-0.127864,0.545983,1.673834,0.149867,-0.820711,-4.316510,1.845589,-4.588078,-20.402813,-7.945129,0.171301,-0.056459,0.000000,-0.400369,0.072842,-0.000000
0.630000,-2.546297,-2.179833,-1.408547,0.244529,0.847737,-0.126274,0.537551,1.629665,0.167917,-0.865397,-4.515700,1.763861,-4.348117,-19.431362,-8.387938,0.167179,-0.055693,0.000000,-0.423917,0.078201,0.000000
0.640000,-2.543825,-2.171275,-1.409801,0.249861,0.863805,-0.124508,0.528684,1.583553,0.185130,-0.907657,-4.705066,1.678085,-4.103124,-18.438408,-8.754214,0.162825,-0.054874,0.000000,-0.446651,0.083354,-0.000000
0.650000,-2.541300,-2.162558,-1.411037,0.255101,0.879402,-0.122575,0.519406,1.535597,0.201468,-0.947444,-4.884405,1.589039,-3.853482,-17.426369,-9.041693,0.158249,-0.054004,0.000000,-0.468505,0.088286,-0.000000
0.660000,-2.538723,-2.153688,-1.412252,0.260247,0.894511,-0.120482,0.509743,1.485899,0.216894,-0.984705,-5.053488,1.496700,-3.599751,-16.398931,-9.227359,0.153458,-0.053086,0.000000,-0.489427,0.092986,-0.000000
0.670000,-2.536095,-2.144670,-1.413446,0.265295,0.909114,-0.118239,0.499720,1.434562,0.231397,-1.019418,-5.212279,1.403835,-3.342113,-15.357091,-9.332236,0.148463,-0.052123,0.000000,-0.509337,0.097429,-0.000000
0.680000,-2.533418,-2.135508,-1.414617,0.270241,0.923197,-0.115857,0.489364,1.381688,0.244968,-1.051536,-5.360589,1.310324,-3.080929,-14.303115,-9.356600,0.143275,-0.051117,0.000000,-0.528191,0.101606,0.000000
0.690000,-2.530691,-2.126208,-1.415763,0.275081,0.936743,-0.113343,0.478698,1.327385,0.257604,-1.081026,-5.498308,1.216970,-2.816557,-13.239268,-9.300725,0.137903,-0.050071,0.000000,-0.545936,0.105505,0.000000
0.700000,-2.527916,-2.116775,-1.416883,0.279814,0.949740,-0.110708,0.467752,1.271758,0.269311,-1.107857,-5.625349,1.124576,-2.549359,-12.167813,-9.164887,0.132360,-0.048988,0.000000,-0.562526,0.109113,0.000000
0.710000,-2.525095,-2.107215,-1.417977,0.284435,0.962174,-0.107960,0.456551,1.214916,0.280093,-1.131967,-5.741451,1.033168,-2.280646,-11.095953,-8.929903,0.126657,-0.047871,0.000000,-0.577909,0.112419,0.000000
0.720000,-2.522228,-2.097533,-1.419042,0.288944,0.974035,-0.105109,0.445122,1.156965,0.289983,-1.153420,-5.847035,0.945366,-2.009710,-10.020410,-8.617888,0.120806,-0.046722,0.000000,-0.592073,0.115413,-0.000000
0.730000,-2.519317,-2.087736,-1.420078,0.293337,0.985310,-0.102163,0.433491,1.098011,0.299012,-1.172155,-5.941853,0.861058,-1.736795,-8.942843,-8.231499,0.114820,-0.045546,0.000000,-0.604976,0.118086,-0.000000
0.740000,-2.516362,-2.077829,-1.421085,0.297613,0.995992,-0.099131,0.421688,1.038164,0.307219,-1.188151,-6.025891,0.780975,-1.462145,-7.864911,-7.773396,0.108711,-0.044346,0.000000,-0.616594,0.120431,-0.000000
0.750000,-2.513365,-2.067818,-1.422061,0.301770,1.006071,-0.096021,0.409738,0.977529,0.314648,-1.201392,-6.099155,0.705820,-1.186002,-6.788273,-7.246235,0.102492,-0.043125,0.000000,-0.626910,0.122442,0.000000
0.760000,-2.510327,-2.057710,-1.423005,0.305808,1.015540,-0.092840,0.397670,0.916219,0.321347,-1.211807,-6.161375,0.635628,-0.910108,-5.721951,-6.636426,0.096177,-0.041885,0.000000,-0.635887,0.124108,-0.000000
0.770000,-2.507249,-2.047509,-1.423917,0.309724,1.024393,-0.089596,0.385511,0.854337,0.327382,-1.219524,-6.213278,0.572572,-0.633026,-4.659341,-5.964864,0.089779,-0.040632,0.000000,-0.643575,0.125436,0.000000
0.780000,-2.504133,-2.037224,-1.424797,0.313518,1.032625,-0.086295,0.373288,0.791989,0.332822,-1.224464,-6.254577,0.516521,-0.354815,-3.601202,-5.236197,0.083310,-0.039368,0.000000,-0.649950,0.126418,0.000000
0.790000,-2.500979,-2.026859,-1.425643,0.317189,1.040232,-0.082942,0.361031,0.729281,0.337738,-1.226617,-6.285319,0.468023,-0.075537,-2.548290,-4.455071,0.076784,-0.038096,0.000000,-0.655016,0.127052,-0.000000
0.800000,-2.497789,-2.016421,-1.426456,0.320738,1.047210,-0.079542,0.348765,0.666318,0.342209,-1.225971,-6.305562,0.427579,0.204750,-1.501364,-3.626135,0.070214,-0.036820,0.000000,-0.658785,0.127337,0.000000
0.810000,-2.494565,-2.005917,-1.427234,0.324165,1.053558,-0.076098,0.336521,0.603208,0.346313,-1.222461,-6.315080,0.395171,0.484535,-0.468493,-2.742069,0.063613,-0.035544,0.000000,-0.661243,0.127270,-0.000000
0.820000,-2.491306,-1.995352,-1.427977,0.327469,1.059274,-0.072616,0.324325,0.540051,0.350143,-1.216212,-6.314628,0.372327,0.765385,0.557772,-1.820951,0.056993,-0.034271,0.000000,-0.662476,0.126861,0.000000
0.830000,-2.488016,-1.984734,-1.428686,0.330651,1.064359,-0.069096,0.312206,0.476949,0.353790,-1.207149,-6.303946,0.358855,1.047418,1.577567,-0.868895,0.050368,-0.033004,0.000000,-0.662476,0.126106,0.000000
0.840000,-2.484694,-1.974067,-1.429359,0.333713,1.068813,-0.065541,0.300192,0.414005,0.357352,-1.195260,-6.283098,0.355032,1.330750,2.591030,0.107987,0.043748,-0.031747,0.000000,-0.661272,0.125008,0.000000
0.850000,-2.481342,-1.963359,-1.429997,0.336656,1.072640,-0.061949,0.288311,0.351321,0.360924,-1.180530,-6.252146,0.361077,1.615499,3.598297,1.103583,0.037146,-0.030503,0.000000,-0.658889,0.123570,0.000000
0.860000,-2.477961,-1.952616,-1.430598,0.339480,1.075841,-0.058322,0.276591,0.288998,0.364604,-1.162920,-6.210981,0.376861,1.901166,4.595181,2.118979,0.030574,-0.029275,0.000000,-0.655343,0.121791,0.000000
0.870000,-2.474553,-1.941845,-1.431163,0.342188,1.078421,-0.054656,0.265062,0.227134,0.368495,-1.142473,-6.160067,0.403154,2.188560,5.586675,3.139982,0.024043,-0.028067,0.000000,-0.650705,0.119678,-0.000000
0.880000,-2.471118,-1.931050,-1.431691,0.344782,1.080386,-0.050951,0.253751,0.165830,0.372701,-1.119142,-6.099263,0.439656,2.477875,6.573444,4.159598,0.017564,-0.026882,0.000000,-0.644987,0.117232,0.000000
0.890000,-2.467657,-1.920239,-1.432182,0.347264,1.081740,-0.047201,0.242689,0.105182,0.377322,-1.092908,-6.028612,0.486318,2.769302,7.556156,5.170833,0.011147,-0.025723,0.000000,-0.638222,0.114455,0.000000
0.900000,-2.464173,-1.909417,-1.432635,0.349637,1.082492,-0.043402,0.231903,0.045290,0.382461,-1.063749,-5.948151,0.543021,3.063035,8.535478,6.166694,0.004803,-0.024593,0.000000,-0.630438,0.111349,0.000000
0.910000,-2.460665,-1.898591,-1.433050,0.351903,1.082649,-0.039550,0.221423,-0.013749,0.388215,-1.031675,-5.857958,0.609497,3.360162,9.513261,7.142212,-0.001459,-0.023497,0.000000,-0.621671,0.107919,-0.000000
0.920000,-2.457135,-1.887766,-1.433426,0.354066,1.082220,-0.035636,0.211279,-0.071837,0.394683,-0.996577,-5.757946,0.685676,3.659870,10.488843,8.088119,-0.007628,-0.022436,0.000000,-0.611935,0.104157,-0.000000
0.930000,-2.453584,-1.876949,-1.433762,0.356130,1.081215,-0.031653,0.201502,-0.128875,0.401959,-0.958469,-5.648187,0.771137,3.962244,11.462745,8.997173,-0.013694,-0.021415,0.000000,-0.601259,0.100067,0.000000
0.940000,-2.450013,-1.866144,-1.434058,0.358098,1.079646,-0.027594,0.192120,-0.184768,0.410135,-0.917323,-5.528695,0.865473,4.267366,12.435490,9.862132,-0.019650,-0.020436,0.000000,-0.589665,0.095649,0.000000
0.950000,-2.446422,-1.855358,-1.434314,0.359974,1.077524,-0.023447,0.183165,-0.239417,0.419297,-0.873112,-5.399479,0.968208,4.575321,13.407599,10.675754,-0.025485,-0.019502,0.000000,-0.577170,0.090901,-0.000000
0.960000,-2.442814,-1.844595,-1.434527,0.361762,1.074862,-0.019204,0.174667,-0.292729,0.429527,-0.825922,-5.260864,1.078950,4.889097,14.387687,11.426830,-0.031191,-0.018618,0.000000,-0.563824,0.085834,0.000000
0.970000,-2.439187,-1.833862,-1.434697,0.363469,1.071675,-0.014853,0.166657,-0.344601,0.440900,-0.775451,-5.112089,1.196704,5.205516,15.367193,12.112571,-0.036758,-0.017786,0.000000,-0.549553,0.080415,0.000000
0.980000,-2.435544,-1.823163,-1.434824,0.365097,1.067976,-0.010382,0.159168,-0.394938,0.453483,-0.721803,-4.953523,1.320961,5.524306,16.345647,12.726220,-0.042179,-0.017010,0.000000,-0.534403,0.074655,-0.000000
0.990000,-2.431886,-1.812504,-1.434905,0.366654,1.063781,-0.005779,0.152232,-0.443639,0.467338,-0.664958,-4.785181,1.450966,5.845194,17.322581,13.261022,-0.047443,-0.016293,0.000000,-0.518376,0.068548,-0.000000
1.000000,-2.428212,-1.801889,-1.434939,0.368144,1.059109,-0.001031,0.145880,-0.490609,0.482518,-0.604894,-4.607078,1.585896,6.167908,18.297525,13.710220,-0.052543,-0.015639,0.000000,-0.501471,0.062091,-0.000000
1.010000,-2.424523,-1.791324,-1.434925,0.369574,1.053975,0.003876,0.140143,-0.535755,0.499074,-0.541789,-4.419814,1.725315,6.497086,19.284536,14.055621,-0.057471,-0.015050,0.000000,-0.483745,0.055295,0.000000
1.020000,-2.420820,-1.780811,-1.434861,0.370949,1.048400,0.008955,0.135055,-0.578972,0.517035,-0.475169,-4.222052,1.867193,6.826944,20.266841,14.303306,-0.062215,-0.014532,0.000000,-0.465035,0.048109,0.000000
1.030000,-2.417104,-1.770357,-1.434745,0.372277,1.042403,0.014221,0.130650,-0.620163,0.536425,-0.405250,-4.014500,2.011037,7.156609,21.242193,14.447920,-0.066768,-0.014088,0.000000,-0.445401,0.040546,-0.000000
1.040000,-2.413375,-1.759965,-1.434576,0.373564,1.036004,0.019688,0.126961,-0.659230,0.557258,-0.332040,-3.797239,2.155790,7.485205,22.208346,14.484106,-0.071120,-0.013721,0.000000,-0.424826,0.032600,0.000000
1.050000,-2.409633,-1.749638,-1.434351,0.374819,1.029225,0.025371,0.124021,-0.696076,0.579540,-0.255553,-3.570371,2.300340,7.811861,23.163051,14.406510,-0.075262,-0.013435,0.000000,-0.403291,0.024264,-0.000000
1.060000,-2.405879,-1.739381,-1.434068,0.376047,1.022090,0.031284,0.121858,-0.730613,0.603270,-0.176057,-3.334740,2.444343,8.141878,24.122162,14.189081,-0.079184,-0.013235,0.000000,-0.380860,0.015557,0.000000
1.070000,-2.402112,-1.729197,-1.433724,0.377259,1.014621,0.037441,0.120510,-0.762739,0.628417,-0.093006,-3.088797,2.584639,8.467450,25.063116,13.849691,-0.082875,-0.013124,0.000000,-0.357308,0.006412,0.000000
1.080000,-2.398333,-1.719090,-1.433318,0.378461,1.006844,0.043857,0.120009,-0.792358,0.654949,-0.006728,-2.833553,2.720920,8.786947,25.981447,13.385519,-0.086326,-0.013108,0.000000,-0.332706,-0.003149,-0.000000
1.090000,-2.394543,-1.709062,-1.432846,0.379662,0.998783,0.050544,0.120386,-0.819380,0.682818,0.082707,-2.569258,2.851924,9.098738,26.872692,12.793744,-0.089526,-0.013189,0.000000,-0.307030,-0.013128,-0.000000
1.100000,-2.390740,-1.699115,-1.432306,0.380871,0.990465,0.057517,0.121673,-0.843714,0.711966,0.175216,-2.296204,2.976361,9.401194,27.732387,12.071545,-0.092463,-0.013373,0.000000,-0.280258,-0.023529,-0.000000
1.110000,-2.386925,-1.689253,-1.431695,0.382098,0.981918,0.064787,0.123898,-0.865283,0.742332,0.270466,-2.015377,3.094138,9.698475,28.572395,11.185112,-0.095128,-0.013663,0.000000,-0.252454,-0.034328,-0.000000
1.120000,-2.383098,-1.679477,-1.431009,0.383353,0.973169,0.072367,0.127092,-0.883995,0.773817,0.368882,-1.725627,3.201005,9.982451,29.369927,10.166405,-0.097508,-0.014064,0.000000,-0.223401,-0.045579,0.000000
1.130000,-2.379258,-1.669790,-1.430246,0.384644,0.964248,0.080267,0.131285,-0.899770,0.806316,0.470062,-1.428141,3.297028,10.250784,30.118520,9.016397,-0.099592,-0.014580,0.000000,-0.193178,-0.057250,0.000000
1.140000,-2.375405,-1.660193,-1.429403,0.385982,0.955184,0.088497,0.136502,-0.912533,0.839717,0.573838,-1.123441,3.380899,10.501134,30.811709,7.736059,-0.101368,-0.015216,0.000000,-0.161781,-0.069332,-0.000000
1.150000,-2.371538,-1.650687,-1.428475,0.387377,0.946008,0.097064,0.142770,-0.922216,0.873889,0.680017,-0.812113,3.451318,10.731163,31.443033,6.326366,-0.102824,-0.015975,0.000000,-0.129210,-0.081813,-0.000000
1.160000,-2.367657,-1.641273,-1.427460,0.388841,0.936750,0.105976,0.150109,-0.928759,0.908711,0.788268,-0.495100,3.508581,10.941504,32.013405,4.748321,-0.103949,-0.016862,0.000000,-0.095527,-0.094663,0.000000
1.170000,-2.363761,-1.631952,-1.426355,0.390383,0.927443,0.115239,0.158542,-0.932101,0.944006,0.898630,-0.172427,3.547661,11.126482,32.508081,3.047759,-0.104731,-0.017880,0.000000,-0.060632,-0.107883,0.000000
1.180000,-2.359849,-1.622724,-1.425154,0.392015,0.918119,0.124857,0.168087,-0.932192,0.979606,1.010704,0.154784,3.569147,11.283392,32.919696,1.230547,-0.105158,-0.019033,0.000000,-0.024616,-0.121432,0.000000
1.190000,-2.355921,-1.613590,-1.423856,0.393748,0.908810,0.134832,0.178760,-0.928993,1.015327,1.124195,0.485666,3.571902,11.409533,33.240883,-0.697450,-0.105219,-0.020323,0.000000,0.012472,-0.135274,-0.000000
1.200000,-2.351974,-1.604548,-1.422457,0.395594,0.899550,0.145163,0.190575,-0.922470,1.050978,1.238783,0.819276,3.554848,11.502200,33.464276,-2.730364,-0.104905,-0.021754,0.000000,0.050564,-0.149363,-0.000000
1.210000,-2.348008,-1.595598,-1.420952,0.397564,0.890372,0.155850,0.203540,-0.912598,1.086373,1.354215,1.154946,3.518694,11.556253,33.573783,-4.906013,-0.104205,-0.023328,0.000000,0.089594,-0.163664,-0.000000
1.220000,-2.344022,-1.586740,-1.419338,0.399669,0.881309,0.166889,0.217660,-0.899369,1.121277,1.469888,1.490770,3.458385,11.571726,33.571832,-7.169498,-0.103110,-0.025046,0.000000,0.129413,-0.178080,-0.000000
1.230000,-2.340014,-1.577972,-1.417613,0.401921,0.872396,0.178273,0.232937,-0.882784,1.155464,1.585513,1.825990,3.375049,11.546212,33.452125,-9.509603,-0.101614,-0.026909,0.000000,0.169911,-0.192558,-0.000000
1.240000,-2.335983,-1.569292,-1.415772,0.404331,0.863665,0.189995,0.249369,-0.862855,1.188699,1.700668,2.159399,3.267975,11.477307,33.208364,-11.915112,-0.099711,-0.028917,0.000000,0.210937,-0.207020,-0.000000
1.250000,-2.331927,-1.560698,-1.413812,0.406912,0.855150,0.202043,0.266948,-0.839607,1.220743,1.814907,2.489723,3.136566,11.362607,32.834252,-14.374809,-0.097394,-0.031069,0.000000,0.252313,-0.221380,0.000000
1.260000,-2.327845,-1.552188,-1.411730,0.409674,0.846883,0.214404,0.285666,-0.813063,1.251364,1.928141,2.816781,2.981826,11.190071,32.294366,-16.915109,-0.094662,-0.033365,0.000000,0.293953,-0.235592,-0.000000
1.270000,-2.323733,-1.543759,-1.409523,0.412629,0.838899,0.227064,0.305504,-0.783291,1.280294,2.038973,3.136446,2.799853,10.968109,31.615099,-19.482558,-0.091516,-0.035801,0.000000,0.335348,-0.249431,0.000000
1.280000,-2.319591,-1.535409,-1.407188,0.415788,0.831228,0.240004,0.326438,-0.750359,1.307275,2.147334,3.448610,2.592137,10.695497,30.793720,-22.061334,-0.087957,-0.038373,0.000000,0.376373,-0.262842,-0.000000
1.290000,-2.315417,-1.527133,-1.404722,0.419161,0.823902,0.253202,0.348440,-0.714349,1.332051,2.252711,3.751838,2.358642,10.371010,29.827497,-24.635613,-0.083990,-0.041077,0.000000,0.416749,-0.275706,-0.000000
1.300000,-2.311207,-1.518929,-1.402123,0.422760,0.816951,0.266637,0.371480,-0.675357,1.354363,2.354577,4.044668,2.099492,9.993423,28.713698,-27.189573,-0.079625,-0.043905,0.000000,0.456174,-0.287898,-0.000000
1.310000,-2.306961,-1.510793,-1.399388,0.426594,0.810404,0.280280,0.395526,-0.633475,1.373964,2.453054,4.327504,1.815715,9.544930,27.401757,-29.726187,-0.074869,-0.046851,0.000000,0.494544,-0.299373,-0.000000
1.320000,-2.302675,-1.502720,-1.396517,0.430673,0.804290,0.294106,0.420525,-0.588853,1.390593,2.546038,4.594348,1.505988,9.042917,25.942634,-32.208533,-0.069740,-0.049906,0.000000,0.531004,-0.309806,0.000000
1.330000,-2.298346,-1.494706,-1.393506,0.435008,0.798635,0.308082,0.446429,-0.541639,1.404002,2.633737,4.845877,1.171786,8.488190,24.339456,-34.618485,-0.064256,-0.053059,0.000000,0.565450,-0.319158,-0.000000
1.340000,-2.293974,-1.486746,-1.390355,0.439605,0.793465,0.322174,0.473181,-0.491991,1.413950,2.715629,5.080667,0.813921,7.881554,22.595346,-36.937920,-0.058439,-0.056298,0.000000,0.597531,-0.327304,-0.000000
1.350000,-2.289553,-1.478835,-1.387062,0.444474,0.788803,0.336348,0.500720,-0.440086,1.420205,2.791198,5.297324,0.433389,7.223815,20.713432,-39.148710,-0.052314,-0.059611,0.000000,0.626901,-0.334123,-0.000000
1.360000,-2.285083,-1.470968,-1.383627,0.449621,0.784670,0.350565,0.528991,-0.386085,1.422541,2.860742,5.496741,0.030896,6.495442,18.639896,-41.220782,-0.045908,-0.062986,0.000000,0.653489,-0.339596,-0.000000
1.370000,-2.280560,-1.463139,-1.380051,0.455055,0.781087,0.364785,0.557910,-0.330222,1.420756,2.921858,5.672249,-0.391082,5.720067,16.441779,-43.149423,-0.039256,-0.066405,0.000000,0.676329,-0.343401,0.000000
1.380000,-2.275981,-1.455344,-1.376332,0.460782,0.778071,0.378966,0.587401,-0.272716,1.414658,2.974998,5.825195,-0.831559,4.900985,14.129179,-44.917971,-0.032394,-0.069854,0.000000,0.695432,-0.345559,0.000000
1.390000,-2.271343,-1.447576,-1.372472,0.466805,0.775637,0.393064,0.617382,-0.213797,1.404069,3.019743,5.954485,-1.288852,4.041491,11.712195,-46.509766,-0.025360,-0.073314,0.000000,0.710541,-0.346000,0.000000
1.400000,-2.266644,-1.439829,-1.368471,0.473131,0.773799,0.407032,0.647767,-0.153708,1.388831,3.055704,6.059125,-1.761110,3.144881,9.200924,-47.908144,-0.018197,-0.076770,0.000000,0.721441,-0.344677,0.000000
1.410000,-2.261880,-1.432098,-1.364332,0.479761,0.772566,0.420825,0.678473,-0.092678,1.368783,3.083248,6.140188,-2.248229,2.196263,6.555832,-49.048081,-0.010944,-0.080204,0.000000,0.728195,-0.341626,0.000000
1.420000,-2.257048,-1.424376,-1.360055,0.486701,0.771947,0.434392,0.709400,-0.030994,1.343832,3.100347,6.192230,-2.743494,1.219347,3.842728,-49.967201,-0.003648,-0.083597,0.000000,0.730130,-0.336685,0.000000
1.430000,-2.252145,-1.416657,-1.355645,0.493950,0.771947,0.447685,0.740447,0.031075,1.313886,3.107559,6.216869,-3.246802,0.219654,1.077786,-50.654762,0.003644,-0.086932,0.000000,0.727461,-0.329949,0.000000
1.440000,-2.247168,-1.408935,-1.351103,0.501510,0.772569,0.460653,0.771517,0.093251,1.278877,3.104683,6.213667,-3.755782,-0.797292,-1.722817,-51.100026,0.010886,-0.090190,0.000000,0.720198,-0.321462,0.000000
1.450000,-2.242113,-1.401204,-1.346433,0.509380,0.773811,0.473245,0.802507,0.155254,1.238760,3.091574,6.182348,-4.267959,-1.825970,-4.542906,-51.292253,0.018033,-0.093356,0.000000,0.708413,-0.311291,0.000000
1.460000,-2.236979,-1.393457,-1.341639,0.517559,0.775672,0.485412,0.833318,0.216814,1.193482,3.068496,6.123731,-4.783882,-2.869787,-7.389875,-51.141531,0.025040,-0.096412,0.000000,0.692331,-0.299527,0.000000
1.470000,-2.231761,-1.385688,-1.336726,0.526045,0.778145,0.497099,0.863842,0.277634,1.143092,3.034578,6.035655,-5.293441,-3.913198,-10.221092,-50.725987,0.031865,-0.099343,0.000000,0.671907,-0.286267,0.000000
1.480000,-2.226457,-1.377892,-1.331699,0.534835,0.781221,0.508257,0.893975,0.337433,1.087631,2.990255,5.919425,-5.797516,-4.949586,-13.017497,-50.044574,0.038465,-0.102136,0.000000,0.647501,-0.271646,0.000000
1.490000,-2.221064,-1.370062,-1.326563,0.543923,0.784889,0.518835,0.923613,0.395930,1.027168,2.935632,5.775485,-6.293443,-5.972336,-15.760027,-49.096247,0.044803,-0.104776,0.000000,0.619404,-0.255803,0.000000
1.500000,-2.215578,-1.362192,-1.321324,0.553305,0.789135,0.528784,0.952654,0.452852,0.961798,2.870876,5.604468,-6.778547,-6.974832,-18.429621,-47.879962,0.050842,-0.107253,0.000000,0.587946,-0.238894,-0.000000
1.510000,-2.209997,-1.354277,-1.315990,0.562974,0.793940,0.538056,0.980995,0.507925,0.891604,2.795969,5.406488,-7.253695,-7.944006,-20.989252,-46.305012,0.056551,-0.109556,0.000000,0.553387,-0.221009,-0.000000
1.520000,-2.204317,-1.346311,-1.310566,0.572922,0.799286,0.546602,1.008541,0.560899,0.816781,2.711817,5.184244,-7.707787,-8.880485,-23.440023,-44.470990,0.061901,-0.111678,0.000000,0.516355,-0.202485,0.000000
1.530000,-2.198537,-1.338290,-1.305060,0.583142,0.805150,0.554377,1.035200,0.611530,0.737513,2.618488,4.938107,-8.142284,-9.778442,-25.765073,-42.387831,0.066870,-0.113612,0.000000,0.477137,-0.183410,0.000000
1.540000,-2.192654,-1.330207,-1.299481,0.593623,0.811508,0.561338,1.060882,0.659586,0.654009,2.516396,4.669418,-8.554746,-10.632052,-27.947540,-40.065467,0.071438,-0.115353,0.000000,0.436139,-0.163951,-0.000000
1.550000,-2.186664,-1.322058,-1.293836,0.604356,0.818333,0.567444,1.085501,0.704848,0.566500,2.406014,4.379687,-8.942829,-11.435490,-29.970562,-37.513832,0.075589,-0.116899,0.000000,0.393764,-0.144270,-0.000000
1.560000,-2.180566,-1.313839,-1.288135,0.615329,0.825596,0.572656,1.108967,0.747088,0.475211,2.286970,4.068165,-9.307094,-12.160120,-31.755914,-34.672069,0.079307,-0.118245,0.000000,0.350136,-0.124394,0.000000
1.570000,-2.174357,-1.305545,-1.282386,0.626531,0.833265,0.576937,1.131217,0.786155,0.380456,2.161990,3.742448,-9.638762,-12.825718,-33.355612,-31.629569,0.082590,-0.119395,0.000000,0.306302,-0.104780,-0.000000
1.580000,-2.168034,-1.297172,-1.276599,0.637949,0.841308,0.580255,1.152185,0.821887,0.282540,2.030662,3.401702,-9.939078,-13.429253,-34.760306,-28.404934,0.085433,-0.120349,0.000000,0.262307,-0.085414,-0.000000
1.590000,-2.161597,-1.288717,-1.270784,0.649571,0.849691,0.582579,1.171811,0.854145,0.181785,1.893622,3.047924,-10.206316,-13.967690,-35.960648,-25.016765,0.087836,-0.121110,0.000000,0.218483,-0.066416,0.000000
1.600000,-2.155042,-1.280177,-1.264951,0.661381,0.858379,0.583882,1.190041,0.882809,0.078529,1.751536,2.683202,-10.438931,-14.437998,-36.947291,-21.483664,0.089804,-0.121684,0.000000,0.175143,-0.047896,0.000000
1.610000,-2.148369,-1.271549,-1.259110,0.673367,0.867336,0.584142,1.206814,0.907743,-0.026887,1.603829,2.306331,-10.636766,-14.805060,-37.625260,-17.793955,0.091338,-0.122072,0.000000,0.132226,-0.029809,0.000000
1.620000,-2.141574,-1.262830,-1.253272,0.685513,0.876522,0.583339,1.222106,0.928917,-0.134081,1.454236,1.927614,-10.795815,-15.101855,-38.081317,-14.000224,0.092452,-0.122285,0.000000,0.090815,-0.012572,-0.000000
1.630000,-2.134658,-1.254018,-1.247447,0.697804,0.885902,0.581456,1.235890,0.946284,-0.242675,1.302023,1.545441,-10.916499,-15.329279,-38.316600,-10.124779,0.093159,-0.122328,0.000000,0.050730,0.003909,-0.000000
1.640000,-2.127618,-1.245111,-1.241646,0.710225,0.895435,0.578482,1.248140,0.959822,-0.352281,1.147879,1.162014,-10.998112,-15.488226,-38.332245,-6.189930,0.093472,-0.122209,0.000000,0.012157,0.019585,0.000000
1.650000,-2.120453,-1.236109,-1.235881,0.722762,0.905085,0.574408,1.258843,0.969528,-0.462506,0.992484,0.779524,-11.040173,-15.579594,-38.129390,-2.217985,0.093407,-0.121937,0.000000,-0.024746,0.034417,-0.000000
1.660000,-2.113162,-1.227009,-1.230162,0.735397,0.914814,0.569231,1.267975,0.975388,-0.572946,0.835329,0.396971,-11.041874,-15.574471,-37.628872,1.754883,0.092980,-0.121519,0.000000,-0.060138,0.048482,-0.000000
1.670000,-2.105745,-1.217812,-1.224500,0.748116,0.924582,0.562950,1.275551,0.977487,-0.683211,0.679871,0.024050,-11.004476,-15.507209,-36.921959,5.721927,0.092211,-0.120966,0.000000,-0.093212,0.061516,0.000000
1.680000,-2.098200,-1.208518,-1.218907,0.760903,0.934351,0.555569,1.281576,0.975896,-0.792904,0.525377,-0.340816,-10.927523,-15.382354,-36.019620,9.662535,0.091122,-0.120287,0.000000,-0.124230,0.073634,0.000000
1.690000,-2.090527,-1.199125,-1.213392,0.773743,0.944087,0.547095,1.286063,0.970704,-0.901630,0.372401,-0.695728,-10.811382,-15.204451,-34.932824,13.556097,0.089734,-0.119490,0.000000,-0.153141,0.084844,0.000000
1.700000,-2.082725,-1.189636,-1.207968,0.786619,0.953754,0.537541,1.289031,0.962020,-1.009002,0.221450,-1.038894,-10.656627,-14.978045,-33.672540,17.382001,0.088067,-0.118586,0.000000,-0.179913,0.095162,0.000000
1.710000,-2.074794,-1.180051,-1.202645,0.799519,0.963317,0.526920,1.290493,0.949949,-1.114617,0.072303,-1.370644,-10.462216,-14.690415,-32.199039,21.073658,0.086141,-0.117582,0.000000,-0.204699,0.104654,-0.000000
1.720000,-2.066734,-1.170370,-1.197433,0.812425,0.972743,0.515255,1.290487,0.934659,-1.218125,-0.073005,-1.684654,-10.233445,-14.365487,-30.580195,24.662065,0.083980,-0.116488,0.000000,-0.227108,0.113249,0.000000
1.730000,-2.058546,-1.160596,-1.192343,0.825324,0.982000,0.502566,1.289044,0.916312,-1.319168,-0.214905,-1.981821,-9.969369,-14.009923,-28.833186,28.132241,0.081606,-0.115312,0.000000,-0.247351,0.121032,-0.000000
1.740000,-2.050228,-1.150731,-1.187385,0.838201,0.991060,0.488881,1.286201,0.895083,-1.417399,-0.353124,-2.260948,-9.671245,-13.630382,-26.975189,31.469204,0.079040,-0.114062,0.000000,-0.265465,0.128046,-0.000000
1.750000,-2.041782,-1.140776,-1.182569,0.851043,0.999893,0.474228,1.281995,0.871157,-1.512484,-0.487455,-2.521012,-9.340479,-13.233525,-25.023380,34.657975,0.076304,-0.112745,0.000000,-0.281499,0.134338,0.000000
1.760000,-2.033207,-1.130734,-1.177904,0.863836,1.008474,0.458642,1.276466,0.844725,-1.604080,-0.617731,-2.761546,-8.976320,-12.826702,-22.985177,37.625247,0.073417,-0.111370,0.000000,-0.295531,0.139935,-0.000000
1.770000,-2.024505,-1.120607,-1.173399,0.876568,1.016780,0.442159,1.269654,0.815995,-1.691915,-0.743944,-2.980957,-8.585940,-12.415797,-20.888711,40.421506,0.070399,-0.109941,0.000000,-0.307584,0.144951,0.000000
1.780000,-2.015676,-1.110399,-1.169064,0.889225,1.024787,0.424817,1.261601,0.785176,-1.775709,-0.866056,-3.179188,-8.168486,-12.007387,-18.752354,43.038912,0.067271,-0.108465,0.000000,-0.317754,0.149412,0.000000
1.790000,-2.006721,-1.100113,-1.164906,0.901796,1.032477,0.406659,1.252346,0.752483,-1.855200,-0.984122,-3.355932,-7.725784,-11.608047,-16.594478,45.469626,0.064050,-0.106948,0.000000,-0.326122,0.153380,0.000000
1.800000,-1.997641,-1.089751,-1.160933,0.914268,1.039831,0.387728,1.241931,0.718130,-1.930147,-1.098269,-3.511067,-7.259742,-11.224352,-14.433455,47.705809,0.060754,-0.105393,0.000000,-0.332778,0.156913,-0.000000
1.810000,-1.988436,-1.079317,-1.157154,0.926631,1.046835,0.368071,1.230401,0.682346,-2.000301,-1.207972,-3.643525,-6.770251,-10.880841,-12.316117,49.686792,0.057401,-0.103806,0.000000,-0.337710,0.159999,0.000000
1.820000,-1.979108,-1.068815,-1.153574,0.938873,1.053474,0.347738,1.217783,0.645329,-2.065489,-1.315172,-3.756219,-6.264327,-10.563926,-10.228890,51.464034,0.054005,-0.102189,0.000000,-0.341264,0.162887,-0.000000
1.830000,-1.969659,-1.058249,-1.150201,0.950983,1.059738,0.326778,1.204108,0.607290,-2.125532,-1.419354,-3.848253,-5.741654,-10.277983,-8.186663,53.036164,0.050581,-0.100544,0.000000,-0.343418,0.165550,-0.000000
1.840000,-1.960089,-1.047622,-1.147040,0.962951,1.065617,0.305245,1.189405,0.568431,-2.180273,-1.520850,-3.920152,-5.204292,-10.027389,-6.204321,54.401813,0.047141,-0.098874,0.000000,-0.344270,0.168054,-0.000000
1.850000,-1.950400,-1.036938,-1.144098,0.974768,1.071104,0.283191,1.173699,0.528952,-2.229576,-1.620034,-3.972589,-4.654311,-9.816519,-4.296753,55.559609,0.043699,-0.097180,0.000000,-0.343923,0.170461,-0.000000
1.860000,-1.940594,-1.026201,-1.141378,0.986422,1.076194,0.260672,1.157023,0.489065,-2.273308,-1.716160,-4.004262,-4.092291,-9.679224,-2.532479,56.470158,0.040268,-0.095463,0.000000,-0.342302,0.172731,0.000000
1.870000,-1.930673,-1.015415,-1.138886,0.997904,1.080884,0.237743,1.139379,0.448924,-2.311395,-1.812452,-4.021170,-3.523896,-9.586795,-0.866184,57.174770,0.036856,-0.093722,0.000000,-0.339936,0.175184,-0.000000
1.880000,-1.920637,-1.004585,-1.136624,1.009206,1.085172,0.214463,1.120776,0.408695,-2.343766,-1.908048,-4.021940,-2.949471,-9.540000,0.693811,57.676731,0.033472,-0.091956,0.000000,-0.336723,0.177759,0.000000
1.890000,-1.910489,-0.993713,-1.134597,1.020317,1.089058,0.190887,1.101219,0.368535,-2.370371,-2.003407,-4.007676,-2.371026,-9.539606,2.139189,57.979326,0.030124,-0.090164,0.000000,-0.332763,0.180519,0.000000
1.900000,-1.900231,-0.982805,-1.132807,1.031227,1.092544,0.167075,1.080707,0.328588,-2.391179,-2.098997,-3.979566,-1.790538,-9.586379,3.461629,58.085841,0.026819,-0.088343,0.000000,-0.328155,0.183524,0.000000
1.910000,-1.889865,-0.971864,-1.131256,1.041927,1.095630,0.143083,1.059251,0.289012,-2.406171,-2.194014,-3.936452,-1.209028,-9.713416,4.591459,57.976215,0.023565,-0.086493,0.000000,-0.322800,0.186725,0.000000
1.920000,-1.879393,-0.960894,-1.129946,1.052409,1.098324,0.118970,1.036822,0.249894,-2.415367,-2.291972,-3.885438,-0.630594,-9.885195,5.589225,57.679939,0.020365,-0.084607,0.000000,-0.317271,0.190442,-0.000000
1.930000,-1.868818,-0.949899,-1.128877,1.062660,1.100630,0.094795,1.013405,0.211334,-2.418796,-2.391857,-3.825110,-0.056031,-10.098524,6.454120,57.203158,0.017221,-0.082681,0.000000,-0.311436,0.194606,-0.000000
1.940000,-1.858141,-0.938882,-1.128050,1.072673,1.102553,0.070613,0.988977,0.173419,-2.416506,-2.494070,-3.756801,0.512888,-10.350211,7.185338,56.552016,0.014137,-0.080712,0.000000,-0.305385,0.199272,0.000000
1.950000,-1.847365,-0.927849,-1.127465,1.082437,1.104101,0.046483,0.963514,0.136221,-2.408563,-2.598978,-3.681852,1.074449,-10.637064,7.782072,55.732659,0.011114,-0.078694,0.000000,-0.299207,0.204489,0.000000
1.960000,-1.836493,-0.916802,-1.127120,1.091940,1.105280,0.022461,0.936999,0.099822,-2.395041,-2.705875,-3.599508,1.627566,-10.982232,8.190401,54.736956,0.008155,-0.076621,0.000000,-0.292816,0.210218,0.000000
1.970000,-1.825527,-0.905744,-1.127015,1.101173,1.106099,-0.001399,0.909385,0.064242,-2.376047,-2.817532,-3.516105,2.169311,-11.352957,8.469136,53.587075,0.005257,-0.074487,0.000000,-0.286706,0.216715,-0.000000
1.980000,-1.814471,-0.894681,-1.127147,1.110124,1.106567,-0.025043,0.880635,0.029507,-2.351696,-2.932998,-3.430538,2.698820,-11.742821,8.623973,52.290907,0.002420,-0.072284,0.000000,-0.280763,0.223923,0.000000
1.990000,-1.803326,-0.883614,-1.127515,1.118781,1.106692,-0.048416,0.850712,-0.004366,-2.322116,-3.052431,-3.344019,3.214668,-12.145405,8.660609,50.856344,-0.000359,-0.070006,0.000000,-0.275059,0.231879,-0.000000
2.000000,-1.792096,-0.872548,-1.128115,1.127134,1.106483,-0.071468,0.819573,-0.037374,-2.287452,-3.175927,-3.257701,3.715512,-12.554293,8.584742,49.291280,-0.003082,-0.067644,0.000000,-0.269667,0.240616,0.000000
2.010000,-1.780784,-0.861486,-1.128943,1.135168,1.105947,-0.094149,0.787185,-0.069510,-2.247856,-3.302990,-3.171362,4.200502,-12.976355,8.368767,47.593072,-0.005752,-0.065191,0.000000,-0.264543,0.250116,-0.000000
2.020000,-1.769394,-0.850430,-1.129996,1.142873,1.105095,-0.116409,0.753499,-0.100810,-2.203501,-3.434834,-3.089163,4.667465,-13.390258,8.055760,45.781436,-0.008375,-0.062639,0.000000,-0.260009,0.260512,-0.000000
2.030000,-1.757928,-0.839385,-1.131270,1.150234,1.103934,-0.138203,0.718475,-0.131305,-2.154569,-3.570741,-3.010538,5.115783,-13.787957,7.655495,43.865556,-0.010954,-0.059978,0.000000,-0.256001,0.271770,0.000000
2.040000,-1.746390,-0.828352,-1.132759,1.157238,1.102472,-0.159486,0.682072,-0.161035,-2.101251,-3.710512,-2.936311,5.544460,-14.161407,7.177745,41.854614,-0.013497,-0.057200,0.000000,-0.252569,0.283902,-0.000000
2.050000,-1.734784,-0.817336,-1.134458,1.163871,1.100716,-0.180214,0.644253,-0.190048,-2.043748,-3.853862,-2.867209,5.952589,-14.502563,6.632286,39.757790,-0.016008,-0.054297,0.000000,-0.249759,0.296909,0.000000
2.060000,-1.723114,-0.806339,-1.136361,1.170118,1.098673,-0.200348,0.604982,-0.218395,-1.982267,-4.000565,-2.803548,6.339667,-14.799943,6.021041,37.576514,-0.018494,-0.051258,0.000000,-0.247586,0.310801,0.000000
2.070000,-1.711383,-0.795364,-1.138462,1.175965,1.096350,-0.219847,0.564232,-0.246141,-1.917028,-4.149854,-2.746595,6.704244,-15.049360,5.362597,35.328671,-0.020962,-0.048077,0.000000,-0.246146,0.325539,-0.000000
2.080000,-1.699596,-0.784413,-1.140756,1.181398,1.093752,-0.238677,0.521978,-0.273350,-1.848258,-4.301367,-2.696417,7.046052,-15.243190,4.667689,33.024394,-0.023419,-0.044743,0.000000,-0.245437,0.341117,0.000000
2.090000,-1.687757,-0.773490,-1.143234,1.186400,1.090884,-0.256802,0.478200,-0.300093,-1.776185,-4.454508,-2.653327,7.364578,-15.373810,3.947052,30.673814,-0.025873,-0.041250,0.000000,-0.245480,0.357504,0.000000
2.100000,-1.675870,-0.762596,-1.145889,1.190957,1.087751,-0.274190,0.432884,-0.326441,-1.701045,-4.608607,-2.617526,7.659408,-15.433596,3.211421,28.287065,-0.028331,-0.037588,0.000000,-0.246290,0.374661,0.000000
2.110000,-1.663939,-0.751735,-1.148715,1.195053,1.084357,-0.290813,0.386018,-0.352475,-1.623076,-4.763688,-2.589749,7.930273,-15.395473,2.487603,25.873243,-0.030802,-0.033750,0.000000,-0.247930,0.392605,0.000000
2.120000,-1.651970,-0.740910,-1.151703,1.198672,1.080703,-0.306643,0.337613,-0.378260,-1.542520,-4.917106,-2.568477,8.176866,-15.273650,1.768296,23.443642,-0.033292,-0.029730,0.000000,-0.250265,0.411117,-0.000000
2.130000,-1.639967,-0.730122,-1.154845,1.201800,1.076792,-0.321656,0.287682,-0.403868,-1.459620,-5.068864,-2.554338,8.399127,-15.062885,1.062265,21.008519,-0.035810,-0.025522,0.000000,-0.253352,0.430200,-0.000000
2.140000,-1.627936,-0.719375,-1.158133,1.204421,1.072626,-0.335828,0.236245,-0.429370,-1.374619,-5.218049,-2.547158,8.597052,-14.757934,0.378280,18.578134,-0.038362,-0.021119,0.000000,-0.257174,0.449770,0.000000
2.150000,-1.615881,-0.708671,-1.161559,1.206520,1.068205,-0.349142,0.183333,-0.454833,-1.287760,-5.363692,-2.546670,8.770740,-14.353555,-0.274893,16.162745,-0.040956,-0.016518,0.000000,-0.261710,0.469735,-0.000000
2.160000,-1.603807,-0.698012,-1.165113,1.208083,1.063529,-0.361578,0.128973,-0.480338,-1.199289,-5.505991,-2.553806,8.919930,-13.813716,-0.856094,13.784267,-0.043600,-0.011714,0.000000,-0.267042,0.490097,0.000000
2.170000,-1.591721,-0.687401,-1.168787,1.209095,1.058598,-0.373123,0.073233,-0.505928,-1.109440,-5.640987,-2.565090,9.046019,-13.167736,-1.392914,11.439875,-0.046299,-0.006707,0.000000,-0.272861,0.510474,-0.000000
2.180000,-1.579627,-0.676841,-1.172573,1.209543,1.053410,-0.383763,0.016176,-0.531657,-1.018446,-5.768987,-2.581500,9.148871,-12.414141,-1.880551,9.138400,-0.049059,-0.001494,0.000000,-0.279248,0.530859,0.000000
2.190000,-1.567532,-0.666334,-1.176460,1.209415,1.047964,-0.393489,-0.042120,-0.557574,-0.926539,-5.888906,-2.602521,9.228959,-11.551462,-2.314203,6.888675,-0.051885,0.003923,0.000000,-0.286152,0.551113,0.000000
2.200000,-1.555441,-0.655882,-1.180439,1.208697,1.042258,-0.402292,-0.101571,-0.583721,-0.833941,-5.999647,-2.627589,9.286846,-10.578225,-2.689070,4.699529,-0.054783,0.009542,0.000000,-0.293516,0.571084,0.000000
2.210000,-1.543360,-0.645489,-1.184502,1.207380,1.036289,-0.410166,-0.162094,-0.610153,-0.740885,-6.101475,-2.657567,9.322076,-9.458149,-2.963066,2.607698,-0.057758,0.015362,0.000000,-0.301406,0.590738,-0.000000
2.220000,-1.531295,-0.635157,-1.188639,1.205452,1.030054,-0.417108,-0.223561,-0.636880,-0.647568,-6.190000,-2.688302,9.338004,-8.228834,-3.173238,0.590692,-0.060812,0.021375,0.000000,-0.309436,0.609597,-0.000000
2.230000,-1.519253,-0.624889,-1.192841,1.202906,1.023551,-0.423117,-0.285851,-0.663925,-0.554191,-6.265697,-2.720818,9.334158,-6.893071,-3.319353,-1.346072,-0.063948,0.027574,0.000000,-0.317679,0.627628,0.000000
2.240000,-1.507239,-0.614687,-1.197099,1.199733,1.016775,-0.428192,-0.348829,-0.691301,-0.460948,-6.327516,-2.754474,9.311368,-5.453651,-3.401173,-3.197182,-0.067166,0.033950,0.000000,-0.326058,0.644647,0.000000
2.250000,-1.495261,-0.604554,-1.201402,1.195928,1.009724,-0.432337,-0.412352,-0.719016,-0.368024,-6.374434,-2.788626,9.270518,-3.913365,-3.418462,-4.957221,-0.070469,0.040492,0.000000,-0.334493,0.660465,-0.000000
2.260000,-1.483323,-0.594494,-1.205742,1.191485,1.002394,-0.435554,-0.476278,-0.747085,-0.275613,-6.406692,-2.823812,9.210893,-2.243788,-3.341067,-6.579059,-0.073857,0.047188,0.000000,-0.343004,0.675004,0.000000
2.270000,-1.471433,-0.584508,-1.210110,1.186402,0.994781,-0.437851,-0.540428,-0.775489,-0.183859,-6.420398,-2.856579,9.137397,-0.482749,-3.202332,-8.104106,-0.077329,0.054023,0.000000,-0.351260,0.687797,-0.000000
2.280000,-1.459597,-0.574599,-1.214496,1.180676,0.986883,-0.439234,-0.604626,-0.804211,-0.092914,-6.416064,-2.887666,9.049135,1.363141,-3.005688,-9.532055,-0.080882,0.060980,0.000000,-0.359295,0.698783,0.000000
2.290000,-1.447822,-0.564771,-1.218892,1.174310,0.978696,-0.439712,-0.668687,-0.833234,-0.002922,-6.392875,-2.916511,8.947080,3.287269,-2.754561,-10.862601,-0.084514,0.068038,0.000000,-0.367030,0.707772,0.000000
2.300000,-1.436113,-0.555026,-1.223288,1.167304,0.970217,-0.439296,-0.732418,-0.862532,0.085985,-6.350080,-2.942587,8.832209,5.283022,-2.452379,-12.095437,-0.088221,0.075179,0.000000,-0.374386,0.714584,-0.000000
2.310000,-1.424478,-0.545367,-1.227675,1.159663,0.961445,-0.437996,-0.795630,-0.892081,0.173663,-6.287885,-2.965944,8.703700,7.366214,-2.088823,-13.184842,-0.092000,0.082379,0.000000,-0.381328,0.719116,0.000000
2.320000,-1.412922,-0.535798,-1.232045,1.151394,0.952375,-0.435826,-0.858106,-0.921838,0.260024,-6.203572,-2.984836,8.566793,9.505059,-1.682751,-14.181485,-0.095846,0.089614,0.000000,-0.387697,0.721021,-0.000000
2.330000,-1.401452,-0.526321,-1.236388,1.142504,0.943007,-0.432800,-0.919630,-0.951764,0.344967,-6.097630,-2.999475,8.420362,11.690199,-1.239274,-15.090621,-0.099752,0.096857,0.000000,-0.393473,0.720233,-0.000000
2.340000,-1.390074,-0.516939,-1.240698,1.133005,0.933340,-0.428932,-0.979985,-0.981813,0.428402,-5.969645,-3.009513,8.265255,13.912275,-0.763504,-15.917504,-0.103713,0.104081,0.000000,-0.398602,0.716610,0.000000
2.350000,-1.378794,-0.507655,-1.244964,1.122909,0.923371,-0.424238,-1.038948,-1.011938,0.510246,-5.819293,-3.014654,8.102269,16.161928,-0.260553,-16.667388,-0.107722,0.111256,0.000000,-0.403035,0.710026,-0.000000
2.360000,-1.367618,-0.498473,-1.249180,1.112232,0.913101,-0.418732,-1.096301,-1.042087,0.590410,-5.646839,-3.014511,7.930826,18.442264,0.260929,-17.312177,-0.111771,0.118354,0.000000,-0.406700,0.700407,-0.000000
2.370000,-1.356551,-0.489394,-1.253336,1.100990,0.902529,-0.412435,-1.151809,-1.072210,0.668842,-5.450979,-3.009220,7.754744,20.729933,0.799803,-17.894560,-0.115853,0.125342,0.000000,-0.409638,0.687573,-0.000000
2.380000,-1.345600,-0.480423,-1.257426,1.089203,0.891657,-0.405362,-1.205244,-1.102253,0.745486,-5.232252,-2.998472,7.573112,23.014052,1.351393,-18.423876,-0.119961,0.132188,0.000000,-0.411790,0.671492,0.000000
2.390000,-1.334769,-0.471562,-1.261441,1.076892,0.880485,-0.397531,-1.256378,-1.132161,0.820288,-4.990746,-2.982165,7.386413,25.283734,1.911021,-18.909464,-0.124087,0.138858,0.000000,-0.413138,0.652105,0.000000
2.400000,-1.324063,-0.462814,-1.265374,1.064083,0.869014,-0.388962,-1.304984,-1.161878,0.893199,-4.726662,-2.960241,7.195037,27.528096,2.474009,-19.360662,-0.128221,0.145319,0.000000,-0.413669,0.629375,0.000000
2.410000,-1.313489,-0.454183,-1.269218,1.050802,0.857248,-0.379673,-1.350838,-1.191341,0.964171,-4.440453,-2.932097,6.998998,29.739996,3.020736,-19.779608,-0.132356,0.151538,0.000000,-0.413307,0.603293,0.000000
2.420000,-1.303049,-0.445670,-1.272965,1.037077,0.845188,-0.369685,-1.393720,-1.220502,1.033165,-4.132187,-2.899173,6.799173,31.904348,3.563298,-20.183723,-0.136485,0.157480,0.000000,-0.412219,0.573828,0.000000
2.430000,-1.292748,-0.437280,-1.276609,1.022938,0.832839,-0.359017,-1.433411,-1.249306,1.100141,-3.802563,-2.860855,6.595339,34.009807,4.098847,-20.583226,-0.140598,0.163111,0.000000,-0.410327,0.541010,-0.000000
2.440000,-1.282591,-0.429015,-1.280143,1.008420,0.820203,-0.347689,-1.469702,-1.277701,1.165058,-3.452225,-2.817229,6.387490,36.045030,4.624534,-20.988339,-0.144689,0.168397,0.000000,-0.407638,0.504871,0.000000
2.450000,-1.272581,-0.420877,-1.283561,0.993556,0.807286,-0.335723,-1.502389,-1.305633,1.227877,-3.081934,-2.768407,6.175519,37.998673,5.137513,-21.409280,-0.148748,0.173304,0.000000,-0.404156,0.465460,-0.000000
2.460000,-1.262721,-0.412870,-1.286856,0.978385,0.794092,-0.323139,-1.531275,-1.333044,1.288565,-2.692369,-2.713803,5.960188,39.854526,5.616572,-21.880780,-0.152768,0.177799,0.000000,-0.399823,0.422841,0.000000
2.470000,-1.253014,-0.404996,-1.290022,0.962944,0.780627,-0.309959,-1.556176,-1.359894,1.347064,-2.284972,-2.655309,5.738887,41.606708,6.079475,-22.385549,-0.156742,0.181850,0.000000,-0.394798,0.377102,-0.000000
2.480000,-1.243463,-0.397258,-1.293053,0.947275,0.766896,-0.296205,-1.576918,-1.386135,1.403325,-1.860616,-2.592270,5.512342,43.244473,6.525622,-22.930804,-0.160662,0.185424,0.000000,-0.389008,0.328336,-0.000000
2.490000,-1.234069,-0.389659,-1.295944,0.931420,0.752906,-0.281900,-1.593336,-1.411725,1.457292,-1.420500,-2.524855,5.280112,44.757072,6.954414,-23.523765,-0.164520,0.188492,0.000000,-0.382452,0.276659,-0.000000
2.500000,-1.224835,-0.382201,-1.298689,0.915423,0.738664,-0.267067,-1.605279,-1.436618,1.508907,-0.965928,-2.453241,5.041683,46.133759,7.365251,-24.171649,-0.168308,0.191024,0.000000,-0.375119,0.222199,0.000000
2.510000,-1.215761,-0.374886,-1.301284,0.899330,0.724176,-0.251731,-1.612604,-1.460770,1.558126,-0.497667,-2.377027,4.798519,47.347469,7.742763,-24.933389,-0.172019,0.192990,0.000000,-0.366974,0.165078,0.000000
2.520000,-1.206849,-0.367718,-1.303722,0.883187,0.709451,-0.235914,-1.615195,-1.484147,1.604851,-0.018768,-2.297784,4.545114,48.405769,8.102930,-25.758159,-0.175645,0.194366,0.000000,-0.358056,0.105528,0.000000
2.530000,-1.198098,-0.360698,-1.306000,0.867042,0.694496,-0.219642,-1.612947,-1.506714,1.648999,0.469901,-2.215022,4.283143,49.299911,8.446961,-26.646845,-0.179178,0.195126,0.000000,-0.348306,0.043703,-0.000000
2.540000,-1.189508,-0.353829,-1.308114,0.850944,0.679320,-0.202943,-1.605770,-1.528436,1.690483,0.966654,-2.128895,4.011961,50.021143,8.776066,-27.600334,-0.182608,0.195247,0.000000,-0.337693,-0.020190,0.000000
2.550000,-1.181078,-0.347112,-1.310058,0.834943,0.663930,-0.185842,-1.593593,-1.549281,1.729206,1.469718,-2.039546,3.730917,50.560717,9.091452,-28.619513,-0.185928,0.194709,0.000000,-0.326174,-0.085920,0.000000
2.560000,-1.172808,-0.340551,-1.311829,0.819089,0.648337,-0.168369,-1.576347,-1.569214,1.765094,1.978496,-1.946871,3.441937,50.877992,9.388362,-29.770639,-0.189129,0.193492,0.000000,-0.313740,-0.153322,0.000000
2.570000,-1.164696,-0.334146,-1.313424,0.803433,0.632549,-0.150551,-1.554015,-1.588208,1.798005,2.488051,-1.851548,3.138224,51.000014,9.674704,-30.981224,-0.192200,0.191582,0.000000,-0.300255,-0.221901,-0.000000
2.580000,-1.156739,-0.327901,-1.314839,0.788025,0.616576,-0.132419,-1.526585,-1.606236,1.827817,2.997829,-1.753406,2.822138,50.921940,9.952417,-32.244150,-0.195131,0.188967,0.000000,-0.285702,-0.291444,0.000000
2.590000,-1.148934,-0.321815,-1.316072,0.772918,0.600428,-0.114005,-1.494065,-1.623267,1.854405,3.505807,-1.652522,2.493191,50.638923,10.223441,-33.552298,-0.197910,0.185638,0.000000,-0.270025,-0.361610,0.000000
2.600000,-1.141279,-0.315893,-1.317119,0.758161,0.584114,-0.095342,-1.456482,-1.639277,1.877637,4.009909,-1.548953,2.150965,50.146121,10.489716,-34.898551,-0.200527,0.181590,0.000000,-0.253170,-0.432026,0.000000
2.610000,-1.133770,-0.310134,-1.317978,0.743804,0.567646,-0.076465,-1.413865,-1.654239,1.897404,4.509994,-1.442905,1.797447,49.388659,10.757425,-36.334650,-0.202970,0.176819,0.000000,-0.235168,-0.502475,0.000000
2.620000,-1.126402,-0.304540,-1.318647,0.729899,0.551033,-0.057407,-1.366311,-1.668126,1.913538,4.999204,-1.333998,1.426844,48.417847,11.023746,-37.787410,-0.205226,0.171332,0.000000,-0.215772,-0.572072,0.000000
2.630000,-1.119170,-0.299113,-1.319125,0.716494,0.534287,-0.038207,-1.313917,-1.680911,1.925892,5.477644,-1.222430,1.041691,47.234968,11.290098,-39.242508,-0.207281,0.165136,0.000000,-0.195042,-0.640560,0.000000
2.640000,-1.112070,-0.293855,-1.319411,0.703637,0.517419,-0.018902,-1.256801,-1.692566,1.934323,5.943201,-1.108192,0.642034,45.841302,11.557902,-40.685618,-0.209123,0.158246,0.000000,-0.172956,-0.707445,-0.000000
2.650000,-1.105096,-0.288765,-1.319503,0.691374,0.500439,0.000466,-1.195103,-1.703065,1.938685,6.393772,-0.991262,0.228066,44.238131,11.828579,-42.102416,-0.210736,0.150679,0.000000,-0.149511,-0.772214,-0.000000
2.660000,-1.098240,-0.283846,-1.319402,0.679749,0.483361,0.019857,-1.128955,-1.712387,1.938851,6.829792,-0.872104,-0.198677,42.363015,12.116131,-43.508934,-0.212109,0.142458,0.000000,-0.124821,-0.834623,0.000000
2.670000,-1.091498,-0.279098,-1.319106,0.668808,0.466196,0.039228,-1.058573,-1.720498,1.934666,7.243213,-0.749487,-0.640562,40.288759,12.407854,-44.856772,-0.213228,0.133615,0.000000,-0.098688,-0.893448,-0.000000
2.680000,-1.084862,-0.274523,-1.318617,0.658591,0.448956,0.058535,-0.984163,-1.727367,1.925996,7.634934,-0.623933,-1.095556,38.024447,12.703631,-46.127888,-0.214079,0.124188,0.000000,-0.071291,-0.948472,-0.000000
2.690000,-1.078324,-0.270120,-1.317936,0.649137,0.431653,0.077733,-0.905953,-1.732967,1.912714,8.003099,-0.495402,-1.562804,35.579163,13.003338,-47.304239,-0.214650,0.114218,0.000000,-0.042725,-0.999174,-0.000000
2.700000,-1.071877,-0.265890,-1.317063,0.640484,0.414301,0.096774,-0.824186,-1.737265,1.894702,8.345944,-0.363854,-2.041265,32.961990,13.306858,-48.367783,-0.214930,0.103752,0.000000,-0.013113,-1.045051,0.000000
2.710000,-1.065511,-0.261834,-1.316001,0.632664,0.396912,0.115611,-0.739096,-1.740240,1.871849,8.664317,-0.229887,-2.530312,30.118329,13.630114,-49.285598,-0.214910,0.092839,0.000000,0.017327,-1.085951,0.000000
2.720000,-1.059220,-0.257952,-1.314752,0.625711,0.379500,0.134195,-0.650997,-1.741852,1.844068,8.950667,-0.091962,-3.027151,27.128745,13.954977,-50.056343,-0.214581,0.081541,0.000000,0.048576,-1.120708,0.000000
2.730000,-1.052994,-0.254244,-1.313318,0.619653,0.362080,0.152476,-0.560185,-1.742069,1.811283,9.206462,0.049210,-3.530895,24.010120,14.279360,-50.663797,-0.213937,0.069920,0.000000,0.080355,-1.149326,-0.000000
2.740000,-1.046824,-0.250710,-1.311703,0.614515,0.344664,0.170404,-0.466973,-1.740857,1.773433,9.430496,0.193616,-4.039829,20.779336,14.601179,-51.091740,-0.212973,0.058041,0.000000,0.112438,-1.171530,-0.000000
2.750000,-1.040701,-0.247350,-1.309911,0.610320,0.327267,0.187927,-0.371684,-1.738186,1.730475,9.621731,0.341219,-4.552077,17.453276,14.918348,-51.323953,-0.211688,0.045971,0.000000,0.144586,-1.187123,-0.000000
2.760000,-1.034615,-0.244165,-1.307946,0.607087,0.309905,0.204997,-0.274632,-1.734028,1.682360,9.781005,0.491466,-5.068122,14.005759,15.241285,-51.280544,-0.210082,0.033777,0.000000,0.176556,-1.196207,0.000000
2.770000,-1.028556,-0.241152,-1.305813,0.604832,0.292592,0.221558,-0.176180,-1.728346,1.629118,9.903581,0.645452,-5.579796,10.502002,15.553872,-51.016759,-0.208158,0.021532,0.000000,0.208087,-1.198259,-0.000000
2.780000,-1.022515,-0.238312,-1.303517,0.603567,0.275344,0.237562,-0.076678,-1.721109,1.570776,9.990931,0.802497,-6.087695,6.964161,15.852491,-50.524175,-0.205922,0.009306,0.000000,0.238936,-1.193615,-0.000000
2.790000,-1.016481,-0.235645,-1.301064,0.603300,0.258175,0.252957,0.023520,-1.712286,1.507384,10.042825,0.962443,-6.589489,3.414389,16.133527,-49.794367,-0.203382,-0.002833,0.000000,0.268870,-1.182455,-0.000000
2.800000,-1.010445,-0.233149,-1.298460,0.604038,0.241103,0.267693,0.124060,-1.701851,1.439015,10.059253,1.125096,-7.082763,-0.125158,16.393364,-48.818912,-0.200549,-0.014819,0.000000,0.297669,-1.165052,-0.000000
2.810000,-1.004397,-0.230823,-1.295712,0.605782,0.224144,0.281722,0.224587,-1.689777,1.365725,10.040389,1.290134,-7.568794,-3.631309,16.630749,-47.494069,-0.197433,-0.026590,0.000000,0.325208,-1.141735,-0.000000
2.820000,-0.998326,-0.228665,-1.292828,0.608529,0.207313,0.294993,0.324752,-1.676041,1.287687,9.986763,1.457510,-8.036064,-7.083050,16.839414,-45.918402,-0.194049,-0.038088,0.000000,0.351141,-1.112970,-0.000000
