time,x,y,z,vx,vy,vz,ax,ay,az,jx,jy,jz,sx,sy,sz,roll,pitch,yaw,p,q,r
0.000000,-1.418942,-2.326147,-1.417550,-0.003805,-0.018014,-0.005151,-0.209060,0.768662,0.065157,4.192749,-24.899712,-0.479948,-25.347132,682.471185,0.538437,0.078698,0.021450,0.000000,-2.541927,-0.429777,0.000000
0.010000,-1.418990,-2.326292,-1.417598,-0.005690,-0.011463,-0.004523,-0.168355,0.552054,0.060384,3.952583,-18.590933,-0.474438,-22.723124,581.022923,0.569089,0.056554,0.017266,0.000000,-1.902812,-0.405479,-0.000000
0.020000,-1.419054,-2.326382,-1.417640,-0.007179,-0.006779,-0.003943,-0.129924,0.393633,0.055669,3.737558,-13.245363,-0.468461,-20.317788,489.741836,0.631245,0.040329,0.013319,0.000000,-1.357297,-0.383429,-0.000000
0.030000,-1.419132,-2.326432,-1.417677,-0.008295,-0.003427,-0.003409,-0.093527,0.284267,0.051018,3.545521,-8.763953,-0.461718,-18.124495,408.103557,0.721887,0.029119,0.009583,0.000000,-0.898513,-0.363574,0.000000
0.040000,-1.419219,-2.326454,-1.417709,-0.009056,-0.000958,-0.002922,-0.058944,0.215787,0.046438,3.374383,-5.052897,-0.453938,-16.136616,335.583720,0.837992,0.022097,0.006037,0.000000,-0.518245,-0.345794,-0.000000
0.050000,-1.419312,-2.326453,-1.417736,-0.009479,0.001001,-0.002480,-0.025977,0.180937,0.041943,3.222126,-2.023632,-0.444883,-14.347524,271.657959,0.976541,0.018521,0.002659,0.000000,-0.207924,-0.329926,-0.000000
0.060000,-1.419408,-2.326435,-1.417758,-0.009580,0.002752,-0.002083,0.005555,0.173320,0.037546,3.086792,0.407161,-0.434343,-12.750589,215.801907,1.134513,0.017734,-0.000568,0.000000,0.040860,-0.315792,0.000000
0.070000,-1.419503,-2.326398,-1.417777,-0.009372,0.004539,-0.001729,0.035809,0.187346,0.033262,2.966495,2.317557,-0.422138,-11.339183,167.491197,1.308888,0.019160,-0.003663,0.000000,0.236111,-0.303206,0.000000
0.080000,-1.419594,-2.326343,-1.417793,-0.008868,0.006555,-0.001417,0.064929,0.218180,0.029109,2.859412,3.780388,-0.408120,-10.106678,126.201463,1.496645,0.022303,-0.006638,0.000000,0.385333,-0.291984,-0.000000
0.090000,-1.419679,-2.326266,-1.417806,-0.008077,0.008945,-0.001146,0.093036,0.261688,0.025106,2.763788,4.863242,-0.392171,-9.046445,91.408339,1.694764,0.026736,-0.009508,0.000000,0.495495,-0.281947,-0.000000
0.100000,-1.419755,-2.326162,-1.417816,-0.007010,0.011819,-0.000915,0.120237,0.314386,0.021272,2.677931,5.628463,-0.374201,-8.151857,62.587458,1.900224,0.032104,-0.012283,0.000000,0.573025,-0.272922,-0.000000
0.110000,-1.419818,-2.326028,-1.417824,-0.005675,0.015254,-0.000720,0.146622,0.373389,0.017629,2.600220,6.133151,-0.354152,-7.416284,39.214454,2.110005,0.038108,-0.014972,0.000000,0.623812,-0.264742,-0.000000
0.120000,-1.419867,-2.325855,-1.417831,-0.004080,0.019300,-0.000561,0.172263,0.436354,0.014196,2.529098,6.429163,-0.331996,-6.833098,20.764959,2.321086,0.044509,-0.017584,0.000000,0.653210,-0.257251,0.000000
0.130000,-1.419899,-2.325639,-1.417836,-0.002232,0.023988,-0.000436,0.197221,0.501433,0.010996,2.463073,6.563114,-0.307736,-6.395670,6.714609,2.530446,0.051117,-0.020124,0.000000,0.666030,-0.250299,0.000000
0.140000,-1.419911,-2.325373,-1.417839,-0.000138,0.029331,-0.000341,0.221537,0.567215,0.008049,2.400721,6.576371,-0.281403,-6.097373,-3.460965,2.735066,0.057788,-0.022597,0.000000,0.666542,-0.243742,-0.000000
0.150000,-1.419901,-2.325051,-1.417842,0.002197,0.035331,-0.000274,0.245243,0.632679,0.005375,2.340683,6.505062,-0.253060,-5.931578,-10.286127,2.931925,0.064419,-0.025008,0.000000,0.658472,-0.237445,-0.000000
0.160000,-1.419867,-2.324665,-1.417845,0.004765,0.041981,-0.000232,0.268354,0.697138,0.002994,2.281669,6.380069,-0.222800,-5.891656,-14.285246,3.118002,0.070940,-0.027357,0.000000,0.644997,-0.231279,0.000000
0.170000,-1.419805,-2.324209,-1.417847,0.007562,0.049269,-0.000213,0.290875,0.760187,0.000925,2.222453,6.227030,-0.190746,-5.970979,-15.982687,3.290276,0.077310,-0.029645,0.000000,0.628746,-0.225121,0.000000
0.180000,-1.419715,-2.323677,-1.417849,0.010581,0.057180,-0.000213,0.312799,0.821653,-0.000816,2.161874,6.066340,-0.157051,-6.162919,-15.902816,3.445728,0.083513,-0.031872,0.000000,0.611805,-0.218857,0.000000
0.190000,-1.419593,-2.323063,-1.417852,0.013816,0.065697,-0.000228,0.334105,0.881540,-0.002212,2.098841,5.913150,-0.121898,-6.460847,-14.570001,3.581337,0.089549,-0.034037,0.000000,0.595713,-0.212376,-0.000000
0.200000,-1.419438,-2.322361,-1.417854,0.017261,0.074806,-0.000256,0.354764,0.939975,-0.003250,2.032326,5.777368,-0.085500,-6.858134,-12.508607,3.694082,0.095433,-0.036136,0.000000,0.581470,-0.205576,0.000000
0.210000,-1.419247,-2.321566,-1.417857,0.020907,0.084444,-0.000292,0.374805,0.998961,-0.003916,1.967732,5.829593,-0.047904,-7.508857,-14.434121,3.775926,0.101368,-0.038173,0.000000,0.586241,-0.198999,-0.000000
0.220000,-1.419019,-2.320670,-1.417860,0.024752,0.094723,-0.000333,0.394096,1.056506,-0.004205,1.889102,5.676433,-0.009852,-8.226004,-16.166591,3.829479,0.107152,-0.040134,0.000000,0.570386,-0.191034,-0.000000
0.230000,-1.418751,-2.319669,-1.417863,0.028786,0.105569,-0.000375,0.412563,1.112435,-0.004112,1.803078,5.506867,0.028583,-8.983270,-17.717185,3.852336,0.112770,-0.042013,0.000000,0.552986,-0.182355,-0.000000
0.240000,-1.418442,-2.318557,-1.417867,0.033000,0.116966,-0.000414,0.430132,1.166594,-0.003633,1.709391,5.322658,0.067084,-9.754348,-19.097073,3.842090,0.118207,-0.043802,0.000000,0.534224,-0.172935,0.000000
0.250000,-1.418091,-2.317328,-1.417872,0.037385,0.128894,-0.000446,0.446725,1.218845,-0.002771,1.608033,5.125457,0.105307,-10.512931,-20.317421,3.796335,0.123451,-0.045493,0.000000,0.514272,-0.162772,-0.000000
0.260000,-1.417694,-2.315978,-1.417876,0.041933,0.141335,-0.000468,0.462191,1.269097,-0.001520,1.492206,4.919729,0.143735,-11.054506,-21.463263,3.691177,0.128493,-0.047072,0.000000,0.493593,-0.151182,-0.000000
0.270000,-1.417251,-2.314500,-1.417881,0.046628,0.154268,-0.000475,0.476552,1.317204,0.000099,1.379131,4.699977,0.179964,-11.552796,-22.462857,3.548330,0.133319,-0.048540,0.000000,0.471599,-0.139891,-0.000000
0.280000,-1.416761,-2.312891,-1.417886,0.051460,0.167671,-0.000465,0.489758,1.363066,0.002074,1.261309,4.470952,0.214577,-12.003314,-23.318327,3.368018,0.137922,-0.049893,0.000000,0.448777,-0.128142,0.000000
0.290000,-1.416222,-2.311145,-1.417890,0.056419,0.181522,-0.000433,0.501764,1.406597,0.004384,1.139239,4.234084,0.247200,-12.401576,-24.031796,3.150466,0.142292,-0.051126,0.000000,0.425263,-0.115981,-0.000000
0.300000,-1.415632,-2.309259,-1.417894,0.061492,0.195795,-0.000376,0.512530,1.447726,0.007010,1.013467,3.990782,0.277463,-12.743097,-24.605388,2.895901,0.146425,-0.052235,0.000000,0.401185,-0.103458,-0.000000
0.310000,-1.414992,-2.307228,-1.417898,0.066666,0.210468,-0.000292,0.522001,1.486379,0.009933,0.882588,3.740869,0.305772,-12.973042,-25.001664,2.584925,0.150313,-0.053215,0.000000,0.376529,-0.090431,0.000000
0.320000,-1.414299,-2.305048,-1.417900,0.071928,0.225515,-0.000177,0.530175,1.522532,0.013114,0.751957,3.489419,0.329923,-13.143441,-25.267154,2.239787,0.153955,-0.054064,0.000000,0.351753,-0.077421,-0.000000
0.330000,-1.413553,-2.302716,-1.417901,0.077265,0.240911,-0.000029,0.537036,1.556160,0.016519,0.619912,3.235939,0.350463,-13.255974,-25.408825,1.863117,0.157348,-0.054781,0.000000,0.326807,-0.064261,-0.000000
0.340000,-1.412753,-2.300229,-1.417900,0.082664,0.256630,0.000154,0.542571,1.587248,0.020111,0.487024,2.981632,0.367089,-13.312320,-25.433644,1.457540,0.160491,-0.055365,0.000000,0.301793,-0.051003,-0.000000
0.350000,-1.411899,-2.297583,-1.417898,0.088112,0.272647,0.000374,0.546775,1.615794,0.023847,0.353847,2.727632,0.379526,-13.314161,-25.348580,1.025686,0.163384,-0.055814,0.000000,0.276808,-0.037697,0.000000
0.360000,-1.410991,-2.294775,-1.417893,0.093595,0.288937,0.000631,0.549647,1.641806,0.027692,0.220741,2.475009,0.388098,-13.258724,-25.160729,0.555680,0.166027,-0.056129,0.000000,0.251951,-0.024377,0.000000
0.370000,-1.410027,-2.291803,-1.417885,0.099101,0.305475,0.000928,0.551193,1.665302,0.031593,0.088643,2.224743,0.391223,-13.152687,-24.876914,0.066428,0.168423,-0.056309,0.000000,0.227279,-0.011125,0.000000
0.380000,-1.409009,-2.288665,-1.417874,0.104615,0.322235,0.001263,0.551424,1.686312,0.035500,-0.042151,1.977767,0.389377,-12.998274,-24.504086,-0.437668,0.170574,-0.056355,0.000000,0.202881,0.002029,0.000000
0.390000,-1.407935,-2.285358,-1.417860,0.110125,0.339193,0.001637,0.550355,1.704871,0.039364,-0.171169,1.734935,0.382435,-12.797711,-24.049197,-0.952204,0.172482,-0.056268,0.000000,0.178827,0.015039,0.000000
0.400000,-1.406806,-2.281880,-1.417841,0.115618,0.356324,0.002050,0.548008,1.721027,0.043132,-0.297959,1.497033,0.370313,-12.553223,-23.519198,-1.472776,0.174152,-0.056050,0.000000,0.155183,0.027863,-0.000000
0.410000,-1.405623,-2.278231,-1.417818,0.121081,0.373606,0.002500,0.544405,1.734834,0.046754,-0.422081,1.265036,0.353099,-12.267381,-22.927553,-1.998134,0.175588,-0.055703,0.000000,0.132037,0.040455,0.000000
0.420000,-1.404385,-2.274408,-1.417791,0.126502,0.391013,0.002984,0.539576,1.746348,0.050176,-0.543160,1.038980,0.330502,-11.942021,-22.273903,-2.520335,0.176794,-0.055229,0.000000,0.109381,0.052781,0.000000
0.430000,-1.403093,-2.270410,-1.417759,0.131868,0.408525,0.003502,0.533554,1.755636,0.053347,-0.660797,0.819744,0.302719,-11.579327,-21.564404,-3.034590,0.177777,-0.054632,0.000000,0.087297,0.064797,-0.000000
0.440000,-1.401748,-2.266237,-1.417721,0.137169,0.426119,0.004050,0.526373,1.762768,0.056214,-0.774629,0.607857,0.269853,-11.181481,-20.805211,-3.536110,0.178542,-0.053914,0.000000,0.065835,0.076464,0.000000
0.450000,-1.400350,-2.261888,-1.417678,0.142392,0.443774,0.004625,0.518075,1.767819,0.058727,-0.884316,0.403785,0.232055,-10.750666,-20.002476,-4.020105,0.179096,-0.053079,0.000000,0.045040,0.087745,-0.000000
0.460000,-1.398900,-2.257361,-1.417628,0.147527,0.461469,0.005224,0.508702,1.770874,0.060836,-0.989533,0.208199,0.189217,-10.289223,-19.169085,-4.474003,0.179446,-0.052132,0.000000,0.024974,0.098605,-0.000000
0.470000,-1.397400,-2.252658,-1.417573,0.152563,0.479185,0.005841,0.498300,1.772011,0.062497,-1.089998,0.020811,0.142315,-9.799158,-18.303637,-4.901749,0.179598,-0.051076,0.000000,0.005626,0.109005,0.000000
0.480000,-1.395849,-2.247778,-1.417511,0.157490,0.496903,0.006472,0.486919,1.771319,0.063668,-1.185428,-0.157785,0.091282,-9.282633,-17.411464,-5.299509,0.179561,-0.049918,0.000000,-0.012946,0.118915,-0.000000
0.490000,-1.394250,-2.242720,-1.417444,0.162298,0.514605,0.007112,0.474609,1.768886,0.064310,-1.275570,-0.327347,0.036437,-8.741810,-16.497896,-5.663443,0.179342,-0.048661,0.000000,-0.030711,0.128303,-0.000000
0.500000,-1.392604,-2.237486,-1.417369,0.166979,0.532275,0.007756,0.461426,1.764803,0.064385,-1.360191,-0.487689,-0.021862,-8.178854,-15.568263,-5.989717,0.178949,-0.047312,0.000000,-0.047639,0.137138,-0.000000
0.510000,-1.390911,-2.232075,-1.417288,0.171524,0.549896,0.008398,0.447424,1.759166,0.063856,-1.439073,-0.638387,-0.083829,-7.596113,-14.635221,-6.259076,0.178392,-0.045876,0.000000,-0.063690,0.145395,-0.000000
0.520000,-1.389174,-2.226488,-1.417201,0.175925,0.567453,0.009032,0.432664,1.752066,0.062701,-1.512045,-0.780046,-0.147587,-6.995543,-13.695879,-6.484989,0.177678,-0.044359,0.000000,-0.078884,0.153042,0.000000
0.530000,-1.387393,-2.220726,-1.417108,0.180175,0.584933,0.009650,0.417204,1.743597,0.060897,-1.578932,-0.912298,-0.213378,-6.379282,-12.754669,-6.665508,0.176817,-0.042768,0.000000,-0.093184,0.160060,-0.000000
0.540000,-1.385571,-2.214790,-1.417008,0.184267,0.602321,0.010247,0.401106,1.733852,0.058428,-1.639586,-1.035147,-0.280739,-5.749473,-11.816025,-6.798682,0.175818,-0.041109,0.000000,-0.106578,0.166428,0.000000
0.550000,-1.383708,-2.208680,-1.416903,0.188195,0.619606,0.010816,0.384433,1.722925,0.055279,-1.693883,-1.148642,-0.349187,-5.108254,-10.884380,-6.882564,0.174689,-0.039390,0.000000,-0.119055,0.172127,0.000000
0.560000,-1.381807,-2.202398,-1.416792,0.191954,0.636776,0.011351,0.367250,1.710914,0.051434,-1.741675,-1.252522,-0.418943,-4.458900,-9.973044,-6.896937,0.173440,-0.037616,0.000000,-0.130588,0.177139,0.000000
0.570000,-1.379870,-2.195945,-1.416676,0.195538,0.653821,0.011843,0.349622,1.697905,0.046900,-1.782986,-1.347756,-0.487772,-3.802280,-9.076487,-6.860356,0.172080,-0.035795,0.000000,-0.141228,0.181458,0.000000
0.580000,-1.377897,-2.189322,-1.416555,0.198945,0.670731,0.012286,0.331613,1.683988,0.041681,-1.817703,-1.434112,-0.555981,-3.140395,-8.198055,-6.773111,0.170618,-0.033935,0.000000,-0.150955,0.185070,-0.000000
0.590000,-1.375892,-2.182531,-1.416431,0.202170,0.687498,0.012674,0.313290,1.669252,0.035785,-1.845783,-1.511788,-0.623066,-2.475247,-7.341094,-6.635490,0.169064,-0.032042,0.000000,-0.159774,0.187971,-0.000000
0.600000,-1.373855,-2.175573,-1.416302,0.205210,0.704113,0.013000,0.294719,1.653781,0.029225,-1.867204,-1.581016,-0.688524,-1.808838,-6.508950,-6.447781,0.167426,-0.030123,0.000000,-0.167697,0.190155,0.000000
0.610000,-1.371788,-2.168449,-1.416171,0.208063,0.720571,0.013257,0.275969,1.637663,0.022014,-1.881864,-1.641650,-0.752506,-1.145656,-5.715356,-6.193829,0.165713,-0.028187,0.000000,-0.174709,0.191614,0.000000
0.620000,-1.369694,-2.161162,-1.416037,0.210729,0.736865,0.013438,0.257104,1.620974,0.014184,-1.890014,-1.694961,-0.812976,-0.484913,-4.952000,-5.892379,0.163935,-0.026240,0.000000,-0.180901,0.192371,-0.000000
0.630000,-1.367574,-2.153712,-1.415902,0.213205,0.752989,0.013539,0.238190,1.603789,0.005765,-1.891576,-1.740798,-0.870203,0.171694,-4.220957,-5.545733,0.162098,-0.024290,0.000000,-0.186262,0.192420,-0.000000
0.640000,-1.365430,-2.146103,-1.415767,0.215493,0.768939,0.013552,0.219294,1.586181,-0.003208,-1.886600,-1.779495,-0.923748,0.822468,-3.524302,-5.156192,0.160212,-0.022343,0.000000,-0.190819,0.191770,0.000000
0.650000,-1.363265,-2.138334,-1.415632,0.217591,0.784711,0.013473,0.200480,1.568221,-0.012696,-1.875152,-1.811405,-0.973192,1.465711,-2.864108,-4.726057,0.158284,-0.020407,0.000000,-0.194600,0.190431,0.000000
0.660000,-1.361079,-2.130409,-1.415498,0.219503,0.800302,0.013296,0.181814,1.549979,-0.022661,-1.857178,-1.836478,-1.018585,2.096222,-2.253249,-4.246420,0.156323,-0.018489,0.000000,-0.197604,0.188403,-0.000000
0.670000,-1.358875,-2.122329,-1.415366,0.221228,0.815710,0.013018,0.163357,1.531512,-0.033051,-1.833106,-1.856119,-1.058505,2.716237,-1.681679,-3.732165,0.154335,-0.016595,0.000000,-0.199951,0.185732,0.000000
0.680000,-1.356655,-2.114095,-1.415238,0.222771,0.830932,0.012634,0.145172,1.512875,-0.043814,-1.802892,-1.870245,-1.093125,3.324485,-1.150150,-3.186968,0.152326,-0.014732,0.000000,-0.201639,0.182421,0.000000
0.690000,-1.354421,-2.105711,-1.415114,0.224133,0.845967,0.012141,0.127320,1.494124,-0.054895,-1.766660,-1.879258,-1.122154,3.919699,-0.659414,-2.614502,0.150304,-0.012906,0.000000,-0.202709,0.178488,0.000000
0.700000,-1.352173,-2.097177,-1.414995,0.225318,0.860814,0.011535,0.109859,1.475306,-0.066237,-1.724546,-1.883571,-1.145337,4.500610,-0.210225,-2.018442,0.148274,-0.011123,0.000000,-0.203202,0.173954,-0.000000
0.710000,-1.349915,-2.088495,-1.414883,0.226332,0.875473,0.010816,0.092849,1.456471,-0.077783,-1.676556,-1.883223,-1.162630,5.062317,0.187042,-1.398078,0.146242,-0.009390,0.000000,-0.203127,0.168826,0.000000
0.720000,-1.347647,-2.079668,-1.414779,0.227177,0.889944,0.009979,0.076346,1.437654,-0.089469,-1.623192,-1.879540,-1.173442,5.607628,0.542437,-0.762005,0.144213,-0.007712,0.000000,-0.202613,0.163160,0.000000
0.730000,-1.345372,-2.070697,-1.414684,0.227860,0.904226,0.009026,0.060403,1.418891,-0.101231,-1.564461,-1.872512,-1.177832,6.135720,0.856386,-0.114436,0.142191,-0.006094,0.000000,-0.201666,0.156965,-0.000000
0.740000,-1.343090,-2.061584,-1.414599,0.228387,0.918322,0.007955,0.045074,1.400213,-0.113004,-1.500538,-1.862550,-1.175706,6.645769,1.129315,0.540419,0.140181,-0.004542,0.000000,-0.200331,0.150265,-0.000000
0.750000,-1.340805,-2.052331,-1.414525,0.228764,0.932231,0.006766,0.030409,1.381648,-0.124723,-1.431608,-1.850061,-1.167013,7.136951,1.361651,1.198349,0.138186,-0.003061,0.000000,-0.198654,0.143083,-0.000000
0.760000,-1.338516,-2.042940,-1.414464,0.228998,0.945955,0.005461,0.016459,1.363222,-0.136321,-1.357755,-1.835170,-1.151652,7.605680,1.546735,1.852853,0.136209,-0.001655,0.000000,-0.196652,0.135433,0.000000
0.770000,-1.336225,-2.033412,-1.414417,0.229096,0.959496,0.004040,0.003269,1.344951,-0.147734,-1.279438,-1.818940,-1.129871,8.054233,1.692945,2.502289,0.134253,-0.000328,0.000000,-0.194439,0.127368,0.000000
0.780000,-1.333934,-2.023751,-1.414384,0.229066,0.972855,0.002507,-0.009115,1.326848,-0.158897,-1.196739,-1.801436,-1.101637,8.482125,1.801576,3.142726,0.132321,0.000914,0.000000,-0.192027,0.118898,0.000000
0.790000,-1.331644,-2.013956,-1.414367,0.228916,0.986033,0.000863,-0.020651,1.308925,-0.169746,-1.109866,-1.783029,-1.067059,8.888868,1.873921,3.770232,0.130413,0.002069,0.000000,-0.189459,0.110048,-0.000000
0.800000,-1.329356,-2.004030,-1.414367,0.228656,0.999034,-0.000887,-0.031299,1.291189,-0.180218,-1.019034,-1.764074,-1.026288,9.273979,1.911274,4.380877,0.128532,0.003133,0.000000,-0.186778,0.100842,0.000000
0.810000,-1.327071,-1.993976,-1.414385,0.228293,1.011858,-0.002740,-0.041019,1.273646,-0.190248,-0.924412,-1.744761,-0.979212,9.635736,1.911018,4.963174,0.126678,0.004102,0.000000,-0.184005,0.091298,0.000000
0.820000,-1.324791,-1.983794,-1.414422,0.227839,1.024507,-0.004690,-0.049776,1.256293,-0.199783,-0.826339,-1.725786,-0.926767,9.975041,1.878836,5.521672,0.124852,0.004973,0.000000,-0.181224,0.081452,-0.000000
0.830000,-1.322515,-1.973486,-1.414479,0.227301,1.036984,-0.006734,-0.057535,1.239128,-0.208766,-0.724987,-1.707285,-0.868868,10.291557,1.816502,6.053366,0.123054,0.005743,0.000000,-0.178453,0.071319,-0.000000
0.840000,-1.320245,-1.963055,-1.414557,0.226691,1.049290,-0.008864,-0.064265,1.222145,-0.217143,-0.620585,-1.689550,-0.805799,10.584950,1.725787,6.555249,0.121283,0.006409,0.000000,-0.175726,0.060922,0.000000
0.850000,-1.317981,-1.952501,-1.414657,0.226019,1.061428,-0.011074,-0.069937,1.205334,-0.224865,-0.513366,-1.672858,-0.737872,10.854886,1.608466,7.024317,0.119539,0.006969,0.000000,-0.173078,0.050282,-0.000000
0.860000,-1.315725,-1.941827,-1.414779,0.225296,1.073398,-0.013359,-0.074524,1.188684,-0.231881,-0.403577,-1.657425,-0.665004,11.101304,1.465333,7.446758,0.117821,0.007421,0.000000,-0.170531,0.039421,-0.000000
0.870000,-1.313475,-1.931034,-1.414924,0.224533,1.085202,-0.015709,-0.078001,1.172180,-0.238152,-0.291433,-1.643584,-0.588580,11.323562,1.299258,7.831694,0.116128,0.007763,0.000000,-0.168137,0.028355,-0.000000
0.880000,-1.311234,-1.920123,-1.415093,0.223740,1.096842,-0.018119,-0.080346,1.155806,-0.243640,-0.177188,-1.631510,-0.508501,11.521291,1.112134,8.177441,0.114458,0.007992,0.000000,-0.165913,0.017106,0.000000
0.890000,-1.309001,-1.909097,-1.415287,0.222930,1.108318,-0.020580,-0.081539,1.139543,-0.248311,-0.061090,-1.621405,-0.425167,11.694124,0.905851,8.482318,0.112809,0.008106,0.000000,-0.163886,0.005694,0.000000
0.900000,-1.306776,-1.897957,-1.415505,0.222113,1.119633,-0.023083,-0.081562,1.123371,-0.252134,0.056610,-1.613451,-0.338996,11.841692,0.682303,8.744641,0.111179,0.008106,0.000000,-0.162079,-0.005862,0.000000
0.910000,-1.304558,-1.886705,-1.415748,0.221302,1.130786,-0.025619,-0.080402,1.107266,-0.255078,0.175619,-1.607854,-0.249949,11.964631,0.444490,8.950781,0.109567,0.007988,0.000000,-0.160515,-0.017540,-0.000000
0.920000,-1.302349,-1.875342,-1.416017,0.220509,1.141778,-0.028181,-0.078046,1.091206,-0.257127,0.295771,-1.604656,-0.159596,12.061445,0.193061,9.112465,0.107968,0.007752,0.000000,-0.159214,-0.029329,-0.000000
0.930000,-1.300148,-1.863870,-1.416312,0.219745,1.152610,-0.030759,-0.074484,1.075165,-0.258265,0.416759,-1.604033,-0.067849,12.131644,-0.070229,9.229470,0.106381,0.007398,0.000000,-0.158194,-0.041207,0.000000
0.940000,-1.297954,-1.852291,-1.416633,0.219023,1.163282,-0.033343,-0.069709,1.059116,-0.258481,0.538314,-1.606094,0.024844,12.174737,-0.343622,9.301578,0.104803,0.006923,0.000000,-0.157472,-0.053152,-0.000000
0.950000,-1.295768,-1.840605,-1.416979,0.218355,1.173792,-0.035925,-0.063717,1.043033,-0.257767,0.660162,-1.610933,0.118033,12.190232,-0.625362,9.328568,0.103231,0.006329,0.000000,-0.157063,-0.065146,0.000000
0.960000,-1.293587,-1.828815,-1.417351,0.217753,1.184142,-0.038496,-0.056506,1.026887,-0.256115,0.782005,-1.618709,0.211709,12.178121,-0.911538,9.298997,0.101661,0.005613,0.000000,-0.156982,-0.077166,0.000000
0.970000,-1.291412,-1.816923,-1.417749,0.217229,1.194330,-0.041045,-0.048078,1.010650,-0.253534,0.903607,-1.629277,0.304366,12.137372,-1.202813,9.225242,0.100090,0.004777,0.000000,-0.157231,-0.089195,-0.000000
0.980000,-1.289242,-1.804929,-1.418172,0.216796,1.204355,-0.043563,-0.038436,0.994292,-0.250031,1.024656,-1.642777,0.396070,12.067433,-1.497692,9.108456,0.098515,0.003821,0.000000,-0.157825,-0.101209,0.000000
0.990000,-1.287076,-1.792836,-1.418620,0.216464,1.214215,-0.046042,-0.027587,0.977784,-0.245617,1.144857,-1.659238,0.486396,11.967755,-1.794683,8.949793,0.096933,0.002743,0.000000,-0.158770,-0.113185,0.000000
1.000000,-1.284912,-1.780646,-1.419092,0.216248,1.223910,-0.048473,-0.015542,0.961097,-0.240309,1.263910,-1.678673,0.574930,11.837787,-2.092293,8.750406,0.095339,0.001546,0.000000,-0.160074,-0.125099,-0.000000
1.010000,-1.282751,-1.768359,-1.419589,0.216158,1.233436,-0.050846,-0.002313,0.944200,-0.234122,1.381573,-1.701175,0.661628,11.675375,-2.386642,8.502445,0.093730,0.000230,0.000000,-0.161746,-0.136932,0.000000
1.020000,-1.280589,-1.755977,-1.420109,0.216205,1.242793,-0.053153,0.012083,0.927064,-0.227085,1.497385,-1.726505,0.745257,11.481770,-2.678917,8.217171,0.092102,-0.001204,0.000000,-0.163774,-0.148642,-0.000000
1.030000,-1.278426,-1.743503,-1.420652,0.216403,1.251977,-0.055385,0.027627,0.909660,-0.219227,1.611103,-1.754743,0.825855,11.256617,-2.967918,7.896839,0.090453,-0.002755,0.000000,-0.166167,-0.160209,0.000000
1.040000,-1.276260,-1.730938,-1.421217,0.216762,1.260985,-0.057534,0.044297,0.891959,-0.210579,1.722411,-1.785849,0.903084,10.999563,-3.252443,7.543706,0.088778,-0.004421,0.000000,-0.168924,-0.171604,-0.000000
1.050000,-1.274090,-1.718284,-1.421802,0.217293,1.269815,-0.059594,0.062067,0.873934,-0.201178,1.830987,-1.819772,0.976627,10.710253,-3.531293,7.160028,0.087073,-0.006200,0.000000,-0.172043,-0.182797,0.000000
1.060000,-1.271914,-1.705543,-1.422408,0.218007,1.278463,-0.061556,0.080909,0.855554,-0.191058,1.936702,-1.856544,1.046417,10.383418,-3.800935,6.742349,0.085336,-0.008090,0.000000,-0.175528,-0.193776,0.000000
1.070000,-1.269729,-1.692716,-1.423033,0.218914,1.286925,-0.063413,0.100789,0.836794,-0.180264,2.038767,-1.895869,1.111645,10.024221,-4.062787,6.299337,0.083562,-0.010088,0.000000,-0.179357,-0.204461,0.000000
1.080000,-1.267535,-1.679805,-1.423676,0.220026,1.295197,-0.065159,0.121672,0.817628,-0.168840,2.137079,-1.937771,1.172329,9.632911,-4.315932,5.833948,0.081747,-0.012192,0.000000,-0.183532,-0.214842,0.000000
1.090000,-1.265328,-1.666812,-1.424336,0.221351,1.303276,-0.066788,0.143517,0.798030,-0.156833,2.231319,-1.982156,1.228259,9.209736,-4.559457,5.349138,0.079890,-0.014398,0.000000,-0.188043,-0.224883,0.000000
1.100000,-1.263107,-1.653740,-1.425011,0.222899,1.311156,-0.068294,0.166283,0.777977,-0.144291,2.321169,-2.028925,1.279257,8.754943,-4.792446,4.847861,0.077986,-0.016703,0.000000,-0.192882,-0.234549,0.000000
1.110000,-1.260869,-1.640590,-1.425701,0.224679,1.318834,-0.069672,0.189929,0.757443,-0.131264,2.406663,-2.078065,1.325247,8.259958,-5.011488,4.331175,0.076031,-0.019103,0.000000,-0.198048,-0.243839,-0.000000
1.120000,-1.258613,-1.627364,-1.426404,0.226700,1.326304,-0.070918,0.214400,0.736408,-0.117804,2.486661,-2.129225,1.365930,7.734931,-5.218471,3.804168,0.074024,-0.021593,0.000000,-0.203504,-0.252634,-0.000000
1.130000,-1.256335,-1.614065,-1.427119,0.228970,1.333560,-0.072027,0.239644,0.714852,-0.103963,2.561265,-2.182393,1.401306,7.181193,-5.412784,3.270026,0.071960,-0.024168,0.000000,-0.209249,-0.260936,-0.000000
1.140000,-1.254032,-1.600694,-1.427844,0.231496,1.340599,-0.072996,0.265606,0.692754,-0.089796,2.630194,-2.237437,1.431318,6.600070,-5.593817,2.731940,0.069838,-0.026823,0.000000,-0.215266,-0.268710,0.000000
1.150000,-1.251704,-1.587253,-1.428579,0.234284,1.347413,-0.073822,0.292228,0.670097,-0.075355,2.693180,-2.294223,1.455942,5.992892,-5.760962,2.193096,0.067654,-0.029553,0.000000,-0.221539,-0.275921,0.000000
1.160000,-1.249346,-1.573746,-1.429320,0.237342,1.353999,-0.074502,0.319454,0.646863,-0.060695,2.750474,-2.352734,1.475121,5.348256,-5.910425,1.658386,0.065406,-0.032353,0.000000,-0.228064,-0.282585,0.000000
1.170000,-1.246956,-1.560174,-1.430068,0.240675,1.360349,-0.075035,0.347216,0.623038,-0.045870,2.800641,-2.412524,1.489052,4.681780,-6.045171,1.129086,0.063092,-0.035215,0.000000,-0.234790,-0.288548,0.000000
1.180000,-1.244531,-1.546540,-1.430821,0.244288,1.366458,-0.075419,0.375445,0.598608,-0.030932,2.844046,-2.473587,1.497730,3.996352,-6.164978,0.608178,0.060710,-0.038133,0.000000,-0.241713,-0.293837,0.000000
1.190000,-1.242069,-1.532846,-1.431576,0.248185,1.372319,-0.075653,0.404073,0.573562,-0.015933,2.880514,-2.535773,1.501254,3.294859,-6.269629,0.098641,0.058257,-0.041100,0.000000,-0.248811,-0.298425,-0.000000
1.200000,-1.239567,-1.519094,-1.432333,0.252370,1.377927,-0.075738,0.433031,0.547890,-0.000923,2.909899,-2.598929,1.499751,2.580190,-6.358903,-0.396545,0.055733,-0.044109,0.000000,-0.256064,-0.302285,0.000000
1.210000,-1.237021,-1.505288,-1.433090,0.256846,1.383275,-0.075672,0.462254,0.521579,0.014044,2.932728,-2.663103,1.493212,1.838947,-6.427439,-0.870146,0.053135,-0.047153,0.000000,-0.263471,-0.305462,0.000000
1.220000,-1.234429,-1.491430,-1.433846,0.261616,1.388356,-0.075457,0.491661,0.494626,0.028925,2.947387,-2.727656,1.482224,1.092295,-6.480788,-1.323957,0.050463,-0.050224,0.000000,-0.270957,-0.307782,0.000000
1.230000,-1.231788,-1.477522,-1.434599,0.266680,1.393165,-0.075094,0.521177,0.467024,0.043674,2.954573,-2.792669,1.466807,0.345117,-6.519360,-1.755520,0.047716,-0.053314,0.000000,-0.278525,-0.309307,-0.000000
1.240000,-1.229094,-1.463567,-1.435347,0.272040,1.397695,-0.074584,0.550728,0.438771,0.058247,2.954304,-2.857996,1.447196,-0.397705,-6.543566,-2.162374,0.044892,-0.056415,0.000000,-0.286152,-0.310030,-0.000000
1.250000,-1.226346,-1.449569,-1.436090,0.277694,1.401938,-0.073930,0.580239,0.409864,0.072605,2.946649,-2.923494,1.423650,-1.131291,-6.553814,-2.542061,0.041992,-0.059518,0.000000,-0.293817,-0.309949,-0.000000
1.260000,-1.223539,-1.435530,-1.436826,0.283644,1.405890,-0.073133,0.609640,0.380300,0.086705,2.932044,-2.989098,1.396165,-1.858811,-6.548727,-2.884836,0.039016,-0.062617,0.000000,-0.301506,-0.309100,-0.000000
1.270000,-1.220672,-1.421452,-1.437552,0.289887,1.409542,-0.072197,0.638856,0.350082,0.100517,2.909899,-3.054505,1.365732,-2.566345,-6.530721,-3.196419,0.035962,-0.065702,0.000000,-0.309179,-0.307421,-0.000000
1.280000,-1.217741,-1.407340,-1.438269,0.296420,1.412889,-0.071124,0.667815,0.319211,0.114010,2.880803,-3.119671,1.332346,-3.248026,-6.500425,-3.475241,0.032832,-0.068767,0.000000,-0.316823,-0.304965,0.000000
1.290000,-1.214743,-1.393195,-1.438974,0.303242,1.415924,-0.069917,0.696449,0.287690,0.127155,2.845044,-3.184475,1.296342,-3.897985,-6.458468,-3.719738,0.029626,-0.071802,0.000000,-0.324422,-0.301758,-0.000000
1.300000,-1.211675,-1.379022,-1.439667,0.310348,1.418641,-0.068582,0.724695,0.255523,0.139929,2.802969,-3.248804,1.258071,-4.510357,-6.405478,-3.928341,0.026344,-0.074802,0.000000,-0.331955,-0.297833,0.000000
1.310000,-1.208535,-1.364824,-1.440346,0.317734,1.421032,-0.067120,0.752482,0.222717,0.152303,2.754317,-3.312431,1.217240,-5.062486,-6.345096,-4.082810,0.022987,-0.077758,0.000000,-0.339395,-0.293157,0.000000
1.320000,-1.205319,-1.350603,-1.441009,0.325396,1.423093,-0.065537,0.779763,0.189277,0.164269,2.701127,-3.375537,1.175793,-5.567346,-6.274570,-4.200295,0.019557,-0.080665,0.000000,-0.346752,-0.287950,0.000000
1.330000,-1.202026,-1.336363,-1.441656,0.333328,1.424816,-0.063836,0.806488,0.155209,0.175816,2.643141,-3.437889,1.133355,-6.021127,-6.194160,-4.281269,0.016053,-0.083516,0.000000,-0.353998,-0.282184,0.000000
1.340000,-1.198652,-1.322108,-1.442285,0.341524,1.426195,-0.062022,0.832612,0.120522,0.186934,2.580888,-3.499388,1.090288,-6.420017,-6.104126,-4.326207,0.012477,-0.086308,0.000000,-0.361120,-0.275914,0.000000
1.350000,-1.195195,-1.307840,-1.442896,0.349978,1.427224,-0.060099,0.858094,0.085224,0.197621,2.514936,-3.559940,1.046950,-6.760203,-6.004728,-4.335585,0.008831,-0.089034,0.000000,-0.368104,-0.269202,0.000000
1.360000,-1.191651,-1.293564,-1.443487,0.358684,1.427897,-0.058071,0.882876,0.049334,0.207865,2.443678,-3.618783,1.002855,-6.981946,-5.913150,-4.288695,0.005116,-0.091688,0.000000,-0.374869,-0.261879,-0.000000
1.370000,-1.188020,-1.279283,-1.444057,0.367634,1.428209,-0.055943,0.906961,0.012852,0.217680,2.372999,-3.677412,0.960337,-7.144211,-5.810655,-4.209788,0.001334,-0.094270,0.000000,-0.381566,-0.254575,-0.000000
1.380000,-1.184298,-1.265001,-1.444606,0.376821,1.428152,-0.053718,0.930332,-0.024211,0.227075,2.300982,-3.734953,0.918756,-7.250032,-5.695433,-4.101932,-0.002515,-0.096779,0.000000,-0.388105,-0.247091,-0.000000
1.390000,-1.180483,-1.250722,-1.445131,0.386238,1.427723,-0.051402,0.952978,-0.061843,0.236059,2.228176,-3.791272,0.878385,-7.302447,-5.565669,-3.968197,-0.006428,-0.099212,0.000000,-0.394472,-0.239488,-0.000000
1.400000,-1.176573,-1.236448,-1.445633,0.395878,1.426914,-0.048999,0.974894,-0.100032,0.244647,2.155101,-3.846212,0.839468,-7.304490,-5.419552,-3.811650,-0.010403,-0.101569,0.000000,-0.400650,-0.231827,-0.000000
1.410000,-1.172565,-1.222185,-1.446111,0.405734,1.425720,-0.046511,0.996069,-0.138760,0.252852,2.081177,-3.899406,0.802027,-7.232254,-5.260238,-3.630550,-0.014440,-0.103848,0.000000,-0.406601,-0.224050,0.000000
1.420000,-1.168457,-1.207935,-1.446563,0.415797,1.424137,-0.043943,1.016521,-0.178014,0.260694,2.009389,-3.951127,0.766696,-7.119018,-5.080338,-3.433365,-0.018535,-0.106050,0.000000,-0.412355,-0.216479,-0.000000
1.430000,-1.164248,-1.193703,-1.446989,0.426062,1.422158,-0.041298,1.036261,-0.217776,0.268193,1.938912,-4.000936,0.733401,-6.971119,-4.877432,-3.223752,-0.022686,-0.108178,0.000000,-0.417868,-0.209029,-0.000000
1.440000,-1.159935,-1.179493,-1.447389,0.436520,1.419780,-0.038580,1.055305,-0.258026,0.275369,1.870061,-4.048590,0.702250,-6.794893,-4.649099,-3.005369,-0.026891,-0.110233,0.000000,-0.423116,-0.201740,-0.000000
1.450000,-1.155517,-1.165309,-1.447761,0.447166,1.416996,-0.035792,1.073669,-0.298740,0.282245,1.803088,-4.093825,0.673311,-6.596675,-4.392918,-2.781874,-0.031147,-0.112215,0.000000,-0.428074,-0.194642,0.000000
1.460000,-1.150991,-1.151155,-1.448105,0.457991,1.413803,-0.032936,1.091381,-0.339899,0.288847,1.738863,-4.136889,0.646965,-6.400042,-4.092795,-2.565712,-0.035452,-0.114129,0.000000,-0.432769,-0.187833,0.000000
1.470000,-1.146357,-1.137034,-1.448419,0.468991,1.410197,-0.030016,1.108453,-0.381467,0.295192,1.675895,-4.176188,0.622385,-6.191978,-3.761657,-2.350677,-0.039802,-0.115975,0.000000,-0.437037,-0.181152,0.000000
1.480000,-1.141611,-1.122952,-1.448705,0.480158,1.406173,-0.027033,1.124906,-0.423411,0.301301,1.615047,-4.212017,0.599939,-5.976706,-3.398759,-2.139351,-0.044192,-0.117755,0.000000,-0.440910,-0.174696,-0.000000
1.490000,-1.136753,-1.108912,-1.448960,0.491487,1.401728,-0.023990,1.140761,-0.465695,0.307197,1.556371,-4.244055,0.579577,-5.758451,-3.003355,-1.934314,-0.048618,-0.119473,0.000000,-0.444358,-0.168472,-0.000000
1.500000,-1.131781,-1.094919,-1.449184,0.502972,1.396858,-0.020890,1.156040,-0.508279,0.312900,1.499874,-4.271973,0.561223,-5.541438,-2.574698,-1.738148,-0.053077,-0.121130,0.000000,-0.447347,-0.162483,0.000000
1.510000,-1.126693,-1.080977,-1.449377,0.514606,1.391561,-0.017733,1.170771,-0.551124,0.318431,1.446010,-4.295815,0.545084,-5.342183,-2.102443,-1.561224,-0.057564,-0.122729,0.000000,-0.449888,-0.156781,0.000000
1.520000,-1.121488,-1.067089,-1.449539,0.526385,1.385835,-0.014522,1.184967,-0.594179,0.323807,1.393552,-4.314338,0.530303,-5.151113,-1.596618,-1.397380,-0.062073,-0.124271,0.000000,-0.451847,-0.151230,-0.000000
1.530000,-1.116165,-1.053261,-1.449668,0.538303,1.379677,-0.011257,1.198648,-0.637393,0.329043,1.342952,-4.327637,0.517088,-4.970947,-1.057654,-1.248245,-0.066599,-0.125760,0.000000,-0.453239,-0.145882,-0.000000
1.540000,-1.110722,-1.039497,-1.449764,0.550356,1.373087,-0.007941,1.211832,-0.680713,0.334153,1.294088,-4.335382,0.505284,-4.804405,-0.485977,-1.115446,-0.071136,-0.127196,0.000000,-0.454032,-0.140722,0.000000
1.550000,-1.105157,-1.025801,-1.449826,0.562539,1.366063,-0.004575,1.224535,-0.724081,0.339153,1.246809,-4.337249,0.494719,-4.654205,0.117981,-1.000611,-0.075678,-0.128582,0.000000,-0.454192,-0.135736,-0.000000
1.560000,-1.099470,-1.012177,-1.449855,0.574845,1.358605,-0.001159,1.236779,-0.767442,0.344054,1.201522,-4.333360,0.485439,-4.537770,0.764988,-0.911263,-0.080218,-0.129920,0.000000,-0.453736,-0.130966,0.000000
1.570000,-1.093660,-0.998630,-1.449849,0.587272,1.350714,0.002306,1.248569,-0.810726,0.348864,1.156644,-4.322349,0.476688,-4.441316,1.442049,-0.842412,-0.084750,-0.131210,0.000000,-0.452520,-0.126240,-0.000000
1.580000,-1.087725,-0.985164,-1.449809,0.599815,1.342391,0.005818,1.259915,-0.853866,0.353590,1.112626,-4.304425,0.468520,-4.365761,2.147362,-0.794965,-0.089266,-0.132454,0.000000,-0.450568,-0.121606,0.000000
1.590000,-1.081663,-0.971784,-1.449733,0.612469,1.333638,0.009378,1.270824,-0.896791,0.358236,1.069256,-4.279314,0.460715,-4.312024,2.879127,-0.769828,-0.093759,-0.133652,0.000000,-0.447852,-0.117040,-0.000000
1.600000,-1.075475,-0.958493,-1.449621,0.625230,1.324456,0.012983,1.281301,-0.939427,0.362804,1.026310,-4.246760,0.453046,-4.281024,3.635545,-0.767907,-0.098221,-0.134805,0.000000,-0.444348,-0.112516,0.000000
1.610000,-1.069158,-0.945296,-1.449473,0.638094,1.314851,0.016633,1.291356,-0.981704,0.367298,0.984042,-4.206874,0.445471,-4.285956,4.423599,-0.795014,-0.102644,-0.135914,0.000000,-0.440067,-0.108060,-0.000000
1.620000,-1.062713,-0.932198,-1.449288,0.651056,1.304824,0.020328,1.300982,-1.023538,0.371712,0.941062,-4.158613,0.437283,-4.313959,5.231629,-0.846548,-0.107019,-0.136978,0.000000,-0.434900,-0.103519,0.000000
1.630000,-1.056137,-0.919201,-1.449066,0.664112,1.294381,0.024067,1.310176,-1.064849,0.376042,0.897688,-4.102185,0.428457,-4.364448,6.056761,-0.922815,-0.111339,-0.137996,0.000000,-0.428869,-0.098926,0.000000
1.640000,-1.049430,-0.906311,-1.448807,0.677258,1.283529,0.027849,1.318933,-1.105554,0.380279,0.853700,-4.037431,0.418743,-4.436841,6.896118,-1.024118,-0.115594,-0.138968,0.000000,-0.421959,-0.094254,-0.000000
1.650000,-1.042591,-0.893532,-1.448509,0.690489,1.272273,0.031672,1.327247,-1.145570,0.384413,0.808880,-3.964224,0.407890,-4.530552,7.746825,-1.150764,-0.119775,-0.139893,0.000000,-0.414155,-0.089478,0.000000
1.660000,-1.035620,-0.880867,-1.448173,0.703801,1.260620,0.035537,1.335112,-1.184813,0.388434,0.763453,-3.882740,0.395871,-4.655955,8.612929,-1.308827,-0.123874,-0.140771,0.000000,-0.405476,-0.084621,0.000000
1.670000,-1.028515,-0.868321,-1.447798,0.717190,1.248579,0.039441,1.342512,-1.223195,0.392325,0.716188,-3.792259,0.381887,-4.800166,9.483785,-1.492136,-0.127881,-0.141598,0.000000,-0.395844,-0.079543,0.000000
1.680000,-1.021276,-0.855897,-1.447384,0.730650,1.236159,0.043383,1.349431,-1.260629,0.396065,0.667394,-3.693061,0.365946,-4.961259,10.355668,-1.700290,-0.131788,-0.142374,0.000000,-0.385287,-0.074277,-0.000000
1.690000,-1.013902,-0.843599,-1.446931,0.744177,1.223370,0.047361,1.355854,-1.297028,0.399636,0.616913,-3.585155,0.347800,-5.137308,11.224855,-1.932888,-0.135584,-0.143096,0.000000,-0.373806,-0.068803,-0.000000
1.700000,-1.006392,-0.831431,-1.446437,0.757765,1.210223,0.051375,1.361763,-1.332303,0.403013,0.564604,-3.468585,0.327208,-5.326385,12.087622,-2.189527,-0.139261,-0.143762,0.000000,-0.361403,-0.063103,0.000000
1.710000,-0.998746,-0.819396,-1.445903,0.771410,1.196728,0.055421,1.367144,-1.366373,0.406175,0.510738,-3.343628,0.304265,-5.536428,12.945085,-2.478267,-0.142809,-0.144370,0.000000,-0.348108,-0.057206,0.000000
1.720000,-0.990964,-0.807497,-1.445328,0.785106,1.182900,0.059497,1.371971,-1.399148,0.409089,0.454289,-3.209948,0.277946,-5.754440,13.788090,-2.789211,-0.146220,-0.144917,0.000000,-0.333877,-0.050991,-0.000000
1.730000,-0.983044,-0.795739,-1.444713,0.798847,1.168750,0.063602,1.376222,-1.430544,0.411723,0.395634,-3.067928,0.248412,-5.977288,14.612320,-3.120922,-0.149484,-0.145400,0.000000,-0.318749,-0.044500,0.000000
1.740000,-0.974987,-0.784123,-1.444056,0.812628,1.154294,0.067731,1.379876,-1.460479,0.414045,0.334738,-2.917778,0.215463,-6.201837,15.413461,-3.471961,-0.152592,-0.145816,0.000000,-0.302745,-0.037727,0.000000
1.750000,-0.966791,-0.772654,-1.443358,0.826443,1.139545,0.071881,1.382910,-1.488873,0.416020,0.271602,-2.759751,0.178913,-6.424953,16.187196,-3.840894,-0.155536,-0.146163,0.000000,-0.285887,-0.030669,0.000000
1.760000,-0.958458,-0.761333,-1.442619,0.840284,1.124521,0.076050,1.385304,-1.515648,0.417617,0.206555,-2.594046,0.139094,-6.651101,16.926838,-4.239001,-0.158307,-0.146436,0.000000,-0.268202,-0.023365,0.000000
1.770000,-0.949986,-0.750164,-1.441837,0.854147,1.109238,0.080232,1.387033,-1.540730,0.418789,0.138948,-2.421227,0.094656,-6.868618,17.630734,-4.650569,-0.160897,-0.146635,0.000000,-0.249727,-0.015731,0.000000
1.780000,-0.941375,-0.739149,-1.441014,0.868023,1.093713,0.084424,1.388076,-1.564050,0.419496,0.069225,-2.241564,0.046048,-7.073441,18.294857,-5.072603,-0.163299,-0.146754,0.000000,-0.230497,-0.007818,0.000000
1.790000,-0.932625,-0.728291,-1.440149,0.881906,1.077963,0.088620,1.388411,-1.585540,0.419696,-0.002465,-2.055476,-0.006821,-7.261505,18.915183,-5.502108,-0.165505,-0.146792,0.000000,-0.210553,0.000357,0.000000
1.800000,-0.923737,-0.717591,-1.439241,0.895789,1.062008,0.092816,1.388021,-1.605139,0.419345,-0.075936,-1.863420,-0.064009,-7.428746,19.487686,-5.936089,-0.167508,-0.146746,0.000000,-0.189940,0.008775,0.000000
1.810000,-0.914710,-0.707051,-1.438292,0.909664,1.045867,0.097005,1.386889,-1.622794,0.418406,-0.150770,-1.666268,-0.125042,-7.575840,20.017757,-6.384327,-0.169302,-0.146614,0.000000,-0.168756,0.017383,-0.000000
1.820000,-0.905544,-0.696674,-1.437301,0.923524,1.029559,0.101182,1.385001,-1.638448,0.416829,-0.227142,-1.463675,-0.191115,-7.693403,20.490801,-6.829488,-0.170881,-0.146393,0.000000,-0.146947,0.026216,-0.000000
1.830000,-0.896239,-0.686460,-1.436269,0.937361,1.013105,0.105339,1.382343,-1.652053,0.414569,-0.304524,-1.256659,-0.261606,-7.776789,20.901640,-7.267013,-0.172239,-0.146081,0.000000,-0.124627,0.035206,-0.000000
1.840000,-0.886796,-0.676412,-1.435195,0.951168,0.996525,0.109471,1.378908,-1.663568,0.411583,-0.382549,-1.045867,-0.336415,-7.821354,21.245096,-7.692342,-0.173372,-0.145678,0.000000,-0.101865,0.044312,0.000000
1.850000,-0.877216,-0.666530,-1.434079,0.964937,0.979841,0.113569,1.374691,-1.672960,0.407827,-0.460806,-0.831999,-0.415397,-7.822454,21.515989,-8.100917,-0.174275,-0.145181,0.000000,-0.078738,0.053487,0.000000
1.860000,-0.867498,-0.656816,-1.432923,0.978660,0.963073,0.117625,1.369680,-1.680181,0.403264,-0.539990,-0.614034,-0.498174,-7.746342,21.664377,-8.492929,-0.174944,-0.144590,0.000000,-0.055152,0.062791,-0.000000
1.870000,-0.857643,-0.647269,-1.431727,0.992328,0.946244,0.121631,1.363895,-1.685237,0.397851,-0.616868,-0.396971,-0.584955,-7.621039,21.735328,-8.858487,-0.175378,-0.143906,0.000000,-0.031610,0.071892,0.000000
1.880000,-0.847651,-0.637891,-1.430491,1.005935,0.929375,0.125579,1.357348,-1.688120,0.391553,-0.692243,-0.179585,-0.675239,-7.445464,21.729145,-9.192450,-0.175576,-0.143130,0.000000,-0.008002,0.080862,0.000000
1.890000,-0.837524,-0.628682,-1.429216,1.019473,0.912488,0.129459,1.350057,-1.688830,0.384336,-0.765606,0.037356,-0.768682,-7.218534,21.646131,-9.489678,-0.175538,-0.142264,0.000000,0.015584,0.089640,0.000000
1.900000,-0.827262,-0.619641,-1.427902,1.032934,0.895606,0.133262,1.342044,-1.687377,0.376170,-0.836439,0.253083,-0.864893,-6.939171,21.486590,-9.745029,-0.175265,-0.141311,0.000000,0.039058,0.098161,-0.000000
1.910000,-0.816866,-0.610769,-1.426551,1.046312,0.878748,0.136979,1.333319,-1.683764,0.367022,-0.905969,0.467856,-0.964149,-6.561901,21.225001,-9.935109,-0.174756,-0.140270,0.000000,0.062442,0.106552,0.000000
1.920000,-0.806336,-0.602066,-1.425163,1.059599,0.861937,0.140600,1.323938,-1.678029,0.356881,-0.969495,0.678493,-1.064243,-6.135470,20.890652,-10.075266,-0.174017,-0.139148,0.000000,0.085376,0.114297,0.000000
1.930000,-0.795674,-0.593530,-1.423739,1.072788,0.845194,0.144114,1.313944,-1.670206,0.345734,-1.028529,0.885438,-1.165478,-5.664232,20.487010,-10.162595,-0.173050,-0.137950,0.000000,0.107901,0.121550,0.000000
1.940000,-0.784881,-0.585162,-1.422281,1.085876,0.828540,0.147511,1.303384,-1.660335,0.333570,-1.082644,1.088014,-1.267309,-5.152541,20.017538,-10.194190,-0.171861,-0.136682,0.000000,0.129932,0.128259,-0.000000
1.950000,-0.773957,-0.576959,-1.420789,1.098854,0.811994,0.150782,1.292309,-1.648463,0.320387,-1.131459,1.285581,-1.369166,-4.604751,19.485703,-10.167146,-0.170453,-0.135349,0.000000,0.151386,0.134375,0.000000
1.960000,-0.762904,-0.568922,-1.419266,1.111720,0.795577,0.153916,1.280766,-1.634639,0.306180,-1.175346,1.477818,-1.471269,-4.007216,18.887750,-10.057796,-0.168835,-0.133956,0.000000,0.172227,0.139937,-0.000000
1.970000,-0.751723,-0.561047,-1.417712,1.124469,0.779308,0.156902,1.268822,-1.618927,0.290967,-1.212323,1.663476,-1.571042,-3.384495,18.235248,-9.886538,-0.167011,-0.132512,0.000000,0.192282,0.144708,-0.000000
1.980000,-0.740415,-0.553335,-1.416128,1.137096,0.763204,0.159732,1.256541,-1.601392,0.274765,-1.242974,1.842355,-1.668792,-2.743146,17.532546,-9.653008,-0.164992,-0.131024,0.000000,0.211527,0.148752,-0.000000
1.990000,-0.728982,-0.545783,-1.414518,1.149599,0.747286,0.162394,1.243985,-1.582104,0.257600,-1.267146,2.013974,-1.763894,-2.089728,16.783994,-9.356843,-0.162784,-0.129499,0.000000,0.229899,0.152049,0.000000
2.000000,-0.717424,-0.538388,-1.412881,1.161975,0.731568,0.164880,1.231220,-1.561139,0.239499,-1.284750,2.177897,-1.855719,-1.430798,15.993940,-8.997679,-0.160397,-0.127945,0.000000,0.247340,0.154584,-0.000000
2.010000,-0.705743,-0.531150,-1.411221,1.174222,0.716068,0.167181,1.218314,-1.538566,0.220493,-1.295510,2.334405,-1.944146,-0.779375,15.149656,-8.562286,-0.157839,-0.126370,0.000000,0.263875,0.156331,0.000000
2.020000,-0.693940,-0.524066,-1.409538,1.186341,0.700801,0.169288,1.205331,-1.514479,0.200631,-1.300072,2.481550,-2.027332,-0.134766,14.274661,-8.064743,-0.155123,-0.124781,0.000000,0.279274,0.157338,-0.000000
2.030000,-0.682016,-0.517134,-1.407835,1.198329,0.685783,0.171191,1.192334,-1.488965,0.179964,-1.298247,2.619818,-2.105237,0.497261,13.375395,-7.506262,-0.152257,-0.123187,0.000000,0.293588,0.157591,-0.000000
2.040000,-0.669974,-0.510350,-1.406115,1.210187,0.671027,0.172884,1.179387,-1.462113,0.158546,-1.290188,2.748998,-2.177258,1.110939,12.458299,-6.888057,-0.149255,-0.121595,0.000000,0.306790,0.157106,0.000000
2.050000,-0.657813,-0.503712,-1.404378,1.221917,0.656545,0.174360,1.166550,-1.434016,0.136440,-1.276108,2.868946,-2.242804,1.700500,11.529813,-6.211339,-0.146125,-0.120012,0.000000,0.318862,0.155905,-0.000000
2.060000,-0.645536,-0.497218,-1.402628,1.233519,0.642350,0.175611,1.153892,-1.404776,0.113706,-1.255557,2.978567,-2.302000,2.241964,10.621930,-5.459496,-0.142882,-0.118446,0.000000,0.329702,0.153953,0.000000
2.070000,-0.633143,-0.490864,-1.400867,1.244995,0.628453,0.176632,1.141457,-1.374475,0.090426,-1.230567,3.080238,-2.352609,2.750007,9.712410,-4.653747,-0.139535,-0.116903,0.000000,0.339523,0.151438,0.000000
2.080000,-0.620636,-0.484648,-1.399097,1.256349,0.614864,0.177418,1.129297,-1.343202,0.066681,-1.200680,3.172820,-2.394906,3.221091,8.804565,-3.797487,-0.136095,-0.115390,0.000000,0.348229,0.148325,0.000000
2.090000,-0.608016,-0.478566,-1.397319,1.267582,0.601592,0.177965,1.117458,-1.311048,0.042557,-1.166281,3.256346,-2.428402,3.651680,7.901706,-2.894111,-0.132574,-0.113911,0.000000,0.355828,0.144658,0.000000
2.100000,-0.595285,-0.472615,-1.395538,1.278699,0.588646,0.178268,1.105985,-1.278105,0.018144,-1.127793,3.330882,-2.452643,4.038236,7.007146,-1.947013,-0.128983,-0.112473,0.000000,0.362336,0.140484,-0.000000
2.110000,-0.582443,-0.466792,-1.393755,1.289703,0.576033,0.178327,1.094921,-1.244465,-0.006469,-1.085090,3.396096,-2.467762,4.362471,6.135090,-0.945601,-0.125331,-0.111080,0.000000,0.367739,0.135801,0.000000
2.120000,-0.569491,-0.461093,-1.391972,1.300599,0.563759,0.178139,1.084293,-1.210212,-0.031177,-1.040049,3.453143,-2.472062,4.637405,5.276622,0.091031,-0.121631,-0.109737,0.000000,0.372147,0.130787,-0.000000
2.130000,-0.556431,-0.455515,-1.390193,1.311391,0.551830,0.177704,1.074128,-1.175431,-0.055876,-0.992512,3.501681,-2.465841,4.861307,4.433719,1.157775,-0.117892,-0.108446,0.000000,0.375549,0.125438,0.000000
2.140000,-0.543264,-0.450055,-1.388419,1.322083,0.540252,0.177022,1.064449,-1.140206,-0.080458,-0.942999,3.541876,-2.448823,5.032446,3.608361,2.249522,-0.114123,-0.107211,0.000000,0.377980,0.119810,0.000000
2.150000,-0.529990,-0.444709,-1.386653,1.332681,0.529027,0.176095,1.055273,-1.104620,-0.104815,-0.892045,3.573913,-2.420784,5.149090,2.802525,3.361167,-0.110335,-0.106035,0.000000,0.379477,0.113962,-0.000000
2.160000,-0.516610,-0.439474,-1.384898,1.343190,0.518160,0.174927,1.046617,-1.068761,-0.128840,-0.839649,3.597401,-2.381904,5.195484,2.033273,4.496529,-0.106537,-0.104919,0.000000,0.380025,0.107900,0.000000
2.170000,-0.503126,-0.434345,-1.383156,1.353615,0.507653,0.173520,1.038481,-1.032697,-0.152415,-0.787697,3.613977,-2.331223,5.185639,1.285651,5.640479,-0.102738,-0.103865,0.000000,0.379795,0.101807,0.000000
2.180000,-0.489538,-0.429319,-1.381428,1.363961,0.497507,0.171880,1.030862,-0.996506,-0.175426,-0.736124,3.623186,-2.269086,5.119542,0.559791,6.786817,-0.098944,-0.102872,0.000000,0.378769,0.095684,-0.000000
2.190000,-0.475847,-0.424393,-1.379719,1.374234,0.487723,0.170014,1.023755,-0.960258,-0.197759,-0.685494,3.625246,-2.195500,4.997177,-0.144176,7.929340,-0.095165,-0.101942,0.000000,0.376990,0.089589,0.000000
2.200000,-0.462054,-0.419564,-1.378029,1.384438,0.478302,0.167928,1.017147,-0.924024,-0.219298,-0.636368,3.620376,-2.110533,4.818533,-0.826119,9.061850,-0.091407,-0.101072,0.000000,0.374500,0.083579,-0.000000
2.210000,-0.448159,-0.414826,-1.376361,1.394579,0.469242,0.165631,1.011026,-0.887877,-0.239933,-0.588852,3.608361,-2.014403,4.572024,-1.474891,10.180317,-0.087678,-0.100263,0.000000,0.371301,0.077668,-0.000000
2.220000,-0.434163,-0.410178,-1.374717,1.404660,0.460544,0.163133,1.005361,-0.851878,-0.259550,-0.544594,3.590456,-1.907099,4.270625,-2.102726,11.276102,-0.083983,-0.099512,0.000000,0.367533,0.072017,-0.000000
2.230000,-0.420066,-0.405614,-1.373099,1.414687,0.452204,0.160444,1.000123,-0.816089,-0.278039,-0.503618,3.566373,-1.788978,3.915738,-2.710842,12.342737,-0.080329,-0.098817,0.000000,0.363189,0.066631,0.000000
2.240000,-0.405869,-0.401132,-1.371509,1.424664,0.444221,0.157576,0.995276,-0.780570,-0.295294,-0.466453,3.536301,-1.660363,3.508766,-3.300458,13.373756,-0.076721,-0.098174,0.000000,0.358306,0.061561,-0.000000
2.250000,-0.391573,-0.396729,-1.369948,1.434594,0.436592,0.154542,0.990779,-0.745382,-0.311212,-0.433612,3.500421,-1.521643,3.051112,-3.872790,14.362691,-0.073164,-0.097580,0.000000,0.352919,0.056860,0.000000
2.260000,-0.377177,-0.392399,-1.368418,1.444480,0.429312,0.151356,0.986591,-0.710582,-0.325693,-0.405236,3.458746,-1.373102,2.535125,-4.425191,15.298807,-0.069664,-0.097033,0.000000,0.347044,0.052541,0.000000
2.270000,-0.362683,-0.388141,-1.366921,1.454326,0.422379,0.148033,0.982657,-0.676225,-0.338644,-0.382661,3.411793,-1.215658,1.972371,-4.963219,16.180429,-0.066225,-0.096525,0.000000,0.340749,0.048739,0.000000
2.280000,-0.348091,-0.383951,-1.365458,1.464134,0.415786,0.144589,0.978919,-0.642364,-0.349978,-0.365937,3.359524,-1.049695,1.365362,-5.488564,17.001611,-0.062851,-0.096054,0.000000,0.334041,0.045459,0.000000
2.290000,-0.333401,-0.379824,-1.364030,1.473905,0.409529,0.141040,0.975317,-0.609052,-0.359612,-0.355493,3.302058,-0.875847,0.716609,-6.002918,17.756410,-0.059545,-0.095613,0.000000,0.326943,0.042746,0.000000
2.300000,-0.318613,-0.375759,-1.362638,1.483641,0.403603,0.137403,0.971787,-0.576340,-0.367471,-0.351735,3.239496,-0.694808,0.028624,-6.507972,18.438881,-0.056313,-0.095195,0.000000,0.319474,0.040643,0.000000
2.310000,-0.303728,-0.371751,-1.361282,1.493341,0.398000,0.133696,0.968262,-0.544277,-0.373482,-0.354738,3.172098,-0.506924,-0.703782,-7.009817,19.032802,-0.053157,-0.094797,0.000000,0.311664,0.039158,-0.000000
2.320000,-0.288746,-0.367798,-1.359964,1.503006,0.392715,0.129939,0.964667,-0.512915,-0.377591,-0.365578,3.099518,-0.313970,-1.469454,-7.505206,19.543766,-0.050081,-0.094409,0.000000,0.303489,0.038410,0.000000
2.330000,-0.273668,-0.363896,-1.358683,1.512634,0.387740,0.126151,0.960924,-0.482303,-0.379746,-0.384226,3.022012,-0.116340,-2.264936,-7.995292,19.967086,-0.047088,-0.094025,0.000000,0.294976,0.038399,-0.000000
2.340000,-0.258494,-0.360042,-1.357441,1.522223,0.383066,0.122351,0.956955,-0.452491,-0.379905,-0.410964,2.939626,0.085064,-3.086774,-8.481227,20.298077,-0.044182,-0.093637,0.000000,0.286129,0.039163,-0.000000
2.350000,-0.243224,-0.356234,-1.356236,1.531772,0.378687,0.118559,0.952677,-0.423527,-0.378035,-0.446038,2.852397,0.289298,-3.931513,-8.964165,20.532053,-0.041367,-0.093238,0.000000,0.276952,0.040734,0.000000
2.360000,-0.227858,-0.352467,-1.355070,1.541276,0.374593,0.114797,0.948009,-0.395454,-0.374106,-0.489362,2.760789,0.496020,-4.803212,-9.456374,20.647811,-0.038644,-0.092820,0.000000,0.267483,0.043112,-0.000000
2.370000,-0.212398,-0.348741,-1.353940,1.550730,0.370775,0.111084,0.942861,-0.368327,-0.368113,-0.541817,2.663773,0.702643,-5.689981,-9.946530,20.659205,-0.036018,-0.092372,0.000000,0.257623,0.046410,0.000000
2.380000,-0.196844,-0.345051,-1.352848,1.560131,0.367223,0.107441,0.937143,-0.342195,-0.360054,-0.603197,2.561866,0.908848,-6.587448,-10.434423,20.563571,-0.033493,-0.091888,0.000000,0.247412,0.050618,0.000000
2.390000,-0.181196,-0.341395,-1.351791,1.569471,0.363927,0.103890,0.930767,-0.317106,-0.349941,-0.673587,2.455093,1.113549,-7.491238,-10.919845,20.358247,-0.031071,-0.091356,0.000000,0.236842,0.055762,0.000000
2.400000,-0.165455,-0.337772,-1.350769,1.578744,0.360877,0.100449,0.923641,-0.293109,-0.337792,-0.753029,2.343478,1.315638,-8.396974,-11.402586,20.040568,-0.028757,-0.090769,0.000000,0.225906,0.061867,0.000000
2.410000,-0.149621,-0.334177,-1.349782,1.587941,0.358061,0.097140,0.915679,-0.270246,-0.323630,-0.841244,2.227624,1.514898,-9.307212,-11.896929,19.584621,-0.026554,-0.090116,0.000000,0.214646,0.068920,0.000000
2.420000,-0.133696,-0.330610,-1.348826,1.597054,0.355468,0.093983,0.906786,-0.248573,-0.307511,-0.938838,2.106203,1.707986,-10.209800,-12.386400,19.013840,-0.024466,-0.089387,0.000000,0.202921,0.077021,-0.000000
2.430000,-0.117680,-0.327067,-1.347901,1.606073,0.353085,0.090996,0.896872,-0.228139,-0.289492,-1.045398,1.979919,1.894792,-11.099514,-12.869016,18.328409,-0.022497,-0.088571,0.000000,0.190783,0.086148,0.000000
2.440000,-0.101575,-0.323547,-1.347006,1.614988,0.350901,0.088199,0.885849,-0.208991,-0.269640,-1.160768,1.848852,2.074172,-11.971133,-13.342794,17.528510,-0.020651,-0.087660,0.000000,0.178219,0.096310,-0.000000
2.450000,-0.085381,-0.320048,-1.346137,1.623786,0.348901,0.085610,0.873628,-0.191177,-0.248037,-1.284742,1.713099,2.244982,-12.819432,-13.805749,16.614327,-0.018934,-0.086641,0.000000,0.165220,0.107515,0.000000
2.460000,-0.069100,-0.316569,-1.345293,1.632456,0.347073,0.083244,0.860128,-0.174738,-0.224760,-1.416914,1.573287,2.407247,-13.642913,-14.268729,15.556529,-0.017348,-0.085506,0.000000,0.151825,0.119740,-0.000000
2.470000,-0.052732,-0.313106,-1.344471,1.640984,0.345401,0.081119,0.845263,-0.159727,-0.199929,-1.557320,1.428352,2.557062,-14.432172,-14.715351,14.388427,-0.015899,-0.084243,0.000000,0.137912,0.133041,0.000000
2.480000,-0.036281,-0.309660,-1.343669,1.649357,0.343873,0.079250,0.828956,-0.146186,-0.173660,-1.705425,1.279047,2.694661,-15.181532,-15.142059,13.113821,-0.014591,-0.082841,0.000000,0.123531,0.147379,0.000000
2.490000,-0.019746,-0.306229,-1.342885,1.657558,0.342473,0.077650,0.811130,-0.134159,-0.146080,-1.860799,1.125589,2.818996,-15.885312,-15.545299,11.736507,-0.013430,-0.081291,0.000000,0.108682,0.162738,-0.000000
2.500000,-0.003130,-0.302810,-1.342115,1.665574,0.341185,0.076332,0.791717,-0.123687,-0.117327,-2.022960,0.968231,2.929061,-16.537833,-15.921518,10.260283,-0.012419,-0.079583,0.000000,0.093367,0.179093,0.000000
2.510000,0.013565,-0.299405,-1.341357,1.673387,0.339994,0.075307,0.770649,-0.114804,-0.087535,-2.191513,0.807486,3.025186,-17.129714,-16.272848,8.656090,-0.011564,-0.077706,0.000000,0.077616,0.196417,0.000000
2.520000,0.030337,-0.296010,-1.340608,1.680981,0.338883,0.074584,0.747868,-0.107549,-0.056879,-2.365512,0.643144,3.103359,-17.659432,-16.589352,6.964606,-0.010868,-0.075651,0.000000,0.061393,0.214657,0.000000
2.530000,0.047184,-0.292627,-1.339865,1.688339,0.337837,0.074172,0.723322,-0.101951,-0.025526,-2.544477,0.475829,3.164213,-18.121762,-16.866780,5.193651,-0.010337,-0.073410,0.000000,0.044740,0.233766,0.000000
2.540000,0.064103,-0.289253,-1.339124,1.695442,0.336839,0.074075,0.696964,-0.098041,0.006345,-2.727705,0.305953,3.206993,-18.511478,-17.100880,3.351048,-0.009975,-0.070973,0.000000,0.027684,0.253683,0.000000
2.550000,0.081092,-0.285890,-1.338382,1.702272,0.335871,0.074300,0.668756,-0.095839,0.038551,-2.914447,0.133970,3.231021,-18.823355,-17.287403,1.444617,-0.009785,-0.068333,0.000000,0.010258,0.274333,0.000000
2.560000,0.098147,-0.282536,-1.337637,1.708811,0.334916,0.074846,0.638660,-0.095369,0.070914,-3.104497,-0.039835,3.236874,-19.036985,-17.416737,-0.547499,-0.009771,-0.065483,0.000000,-0.007518,0.295686,0.000000
2.570000,0.115267,-0.279191,-1.336884,1.715039,0.333957,0.075717,0.606661,-0.096640,0.103222,-3.295576,-0.214420,3.221248,-19.164184,-17.490649,-2.584168,-0.009936,-0.062417,0.000000,-0.025539,0.317516,0.000000
2.580000,0.132447,-0.275857,-1.336121,1.720937,0.332977,0.076910,0.572746,-0.099659,0.135271,-3.487481,-0.389451,3.185080,-19.201585,-17.505546,-4.653932,-0.010283,-0.059131,0.000000,-0.043772,0.339775,-0.000000
2.590000,0.149685,-0.272532,-1.335345,1.726487,0.331958,0.078421,0.536911,-0.104428,0.166854,-3.679297,-0.564322,3.128097,-19.145821,-17.457833,-6.745338,-0.010812,-0.055621,0.000000,-0.062148,0.362340,0.000000
2.600000,0.166976,-0.269218,-1.334552,1.731669,0.330883,0.080245,0.499163,-0.110943,0.197763,-3.870076,-0.738387,3.050139,-18.993525,-17.343917,-8.846929,-0.011526,-0.051883,0.000000,-0.080591,0.385077,-0.000000
2.610000,0.184317,-0.265915,-1.333739,1.736465,0.329734,0.082373,0.459504,-0.119198,0.227794,-4.059943,-0.911661,2.951826,-18.713349,-17.142687,-10.964013,-0.012425,-0.047917,0.000000,-0.099087,0.407954,-0.000000
2.620000,0.201704,-0.262623,-1.332903,1.740853,0.328494,0.084797,0.417975,-0.129168,0.256729,-4.245259,-1.081785,2.831656,-18.333334,-16.870210,-13.066319,-0.013507,-0.043724,0.000000,-0.117366,0.430546,0.000000
2.630000,0.219132,-0.259345,-1.332042,1.744818,0.327145,0.087503,0.374614,-0.140824,0.284357,-4.426277,-1.248823,2.690594,-17.853540,-16.525038,-15.140341,-0.014771,-0.039307,0.000000,-0.135406,0.452812,0.000000
2.640000,0.236598,-0.256081,-1.331152,1.748340,0.325672,0.090479,0.329467,-0.154132,0.310472,-4.601998,-1.412039,2.528989,-17.274027,-16.105722,-17.172571,-0.016214,-0.034669,0.000000,-0.153097,0.474578,-0.000000
2.650000,0.254098,-0.252832,-1.330232,1.751402,0.324057,0.093707,0.282595,-0.169049,0.334870,-4.771425,-1.570685,2.347327,-16.594854,-15.610812,-19.149500,-0.017832,-0.029816,0.000000,-0.170323,0.495665,0.000000
2.660000,0.271625,-0.249600,-1.329278,1.753987,0.322286,0.097170,0.234047,-0.185539,0.357351,-4.935021,-1.725046,2.145986,-15.779238,-15.012406,-21.051512,-0.019620,-0.024755,0.000000,-0.187071,0.516041,-0.000000
2.670000,0.289176,-0.246387,-1.328288,1.756078,0.320342,0.100847,0.183923,-0.203529,0.377728,-5.088338,-1.871864,1.926296,-14.868593,-14.338749,-22.871957,-0.021570,-0.019497,0.000000,-0.202952,0.535150,0.000000
2.680000,0.306745,-0.243194,-1.327260,1.757660,0.318210,0.104717,0.132313,-0.222952,0.395818,-5.232092,-2.011576,1.688862,-13.867491,-13.591630,-24.598075,-0.023676,-0.014054,0.000000,-0.217964,0.552981,0.000000
2.690000,0.324327,-0.240024,-1.326193,1.758719,0.315878,0.108755,0.079316,-0.243734,0.411449,-5.365401,-2.143457,1.434691,-12.780502,-12.772839,-26.217107,-0.025926,-0.008439,0.000000,-0.231982,0.569355,-0.000000
2.700000,0.341917,-0.236877,-1.325084,1.759242,0.313331,0.112937,0.025042,-0.265793,0.424460,-5.487431,-2.266800,1.164919,-11.612199,-11.884168,-27.716294,-0.028312,-0.002668,0.000000,-0.244882,0.584099,0.000000
2.710000,0.359510,-0.233758,-1.323934,1.759217,0.310559,0.117236,-0.030407,-0.289052,0.434686,-5.598737,-2.382014,0.879512,-10.333115,-10.899620,-29.050164,-0.030821,0.003243,0.000000,-0.256660,0.597193,0.000000
2.720000,0.377100,-0.230667,-1.322739,1.758631,0.307547,0.121622,-0.086889,-0.313400,0.442008,-5.695386,-2.485823,0.582927,-8.986026,-9.852175,-30.242675,-0.033440,0.009275,0.000000,-0.266935,0.608147,0.000000
2.730000,0.394681,-0.227608,-1.321501,1.757476,0.304287,0.126066,-0.144269,-0.338732,0.446307,-5.778260,-2.578865,0.275159,-7.579671,-8.747024,-31.285073,-0.036155,0.015406,0.000000,-0.275736,0.616995,-0.000000
2.740000,0.412247,-0.224582,-1.320218,1.755743,0.300770,0.130537,-0.202406,-0.364939,0.447479,-5.846811,-2.660588,-0.042245,-6.122790,-7.589361,-32.168607,-0.038950,0.021615,0.000000,-0.282977,0.623628,-0.000000
2.750000,0.429794,-0.221593,-1.318890,1.753426,0.296986,0.135005,-0.261156,-0.391905,0.445435,-5.900576,-2.730494,-0.367654,-4.624120,-6.384377,-32.884520,-0.041809,0.027880,0.000000,-0.288583,0.627963,-0.000000
2.760000,0.447314,-0.218643,-1.317518,1.750519,0.292930,0.139436,-0.320374,-0.419516,0.440083,-5.939800,-2.788901,-0.701400,-3.076819,-5.117934,-33.372234,-0.044717,0.034178,0.000000,-0.292570,0.629995,-0.000000
2.770000,0.464802,-0.215735,-1.316102,1.747018,0.288594,0.143796,-0.379900,-0.447640,0.431394,-5.962734,-2.833601,-1.036817,-1.507116,-3.816924,-33.681167,-0.047655,0.040485,0.000000,-0.294727,0.629553,0.000000
2.780000,0.482252,-0.212872,-1.314642,1.742920,0.283976,0.148052,-0.439576,-0.476145,0.419339,-5.969903,-2.865149,-1.374419,0.074342,-2.488906,-33.808912,-0.050605,0.046776,0.000000,-0.295115,0.626698,0.000000
2.790000,0.499659,-0.210057,-1.313141,1.738226,0.279070,0.152171,-0.499245,-0.504898,0.403905,-5.961243,-2.883314,-1.712383,1.656907,-1.141441,-33.753062,-0.053551,0.053027,0.000000,-0.293733,0.621456,-0.000000
2.800000,0.517015,-0.207292,-1.311600,1.732936,0.273877,0.156119,-0.558748,-0.533766,0.385096,-5.936797,-2.887939,-2.048860,3.229932,0.217912,-33.511208,-0.056474,0.059215,0.000000,-0.290599,0.613876,0.000000
2.810000,0.534315,-0.204580,-1.310019,1.727052,0.268395,0.159863,-0.617924,-0.562613,0.362914,-5.896290,-2.879078,-2.384203,4.772100,1.585037,-33.024763,-0.059357,0.065316,0.000000,-0.285750,0.603977,0.000000
2.820000,0.551554,-0.201925,-1.308403,1.720579,0.262626,0.163367,-0.676623,-0.591302,0.337432,-5.840977,-2.856404,-2.711251,6.284740,2.948509,-32.354380,-0.062184,0.071309,0.000000,-0.279237,0.592003,-0.000000
2.830000,0.568725,-0.199329,-1.306753,1.713522,0.256570,0.166601,-0.734694,-0.619696,0.308715,-5.770724,-2.820147,-3.030693,7.758512,4.300344,-31.504528,-0.064937,0.077172,0.000000,-0.271132,0.578013,-0.000000
