time,x,y,z,vx,vy,vz,ax,ay,az,jx,jy,jz,sx,sy,sz,roll,pitch,yaw,p,q,r
0.000000,-2.559376,-2.324199,-1.416631,-0.003806,-0.018015,-0.005154,-0.209038,0.768809,0.065316,4.218692,-24.926384,-0.443768,-36.723678,694.514267,-21.763423,0.078714,0.021448,0.000000,-2.544387,-0.432357,-0.000000
0.010000,-2.559424,-2.324344,-1.416680,-0.005691,-0.011461,-0.004527,-0.168621,0.552521,0.059826,3.871298,-18.501924,-0.650651,-32.799632,592.121237,-19.621228,0.056599,0.017292,0.000000,-1.894624,-0.397447,0.000000
0.020000,-2.559488,-2.324434,-1.416722,-0.007189,-0.006767,-0.003964,-0.131486,0.395530,0.052374,3.561822,-13.049967,-0.836359,-29.138715,499.926134,-17.528727,0.040510,0.013474,0.000000,-1.338366,-0.365818,-0.000000
0.030000,-2.559566,-2.324484,-1.416759,-0.008331,-0.003384,-0.003485,-0.097266,0.288612,0.043168,3.287669,-8.471159,-1.001397,-25.734194,417.403622,-15.487785,0.029540,0.009959,0.000000,-0.869468,-0.337456,-0.000000
0.040000,-2.559654,-2.324505,-1.416792,-0.009143,-0.000855,-0.003106,-0.065623,0.223510,0.032413,3.046306,-4.671403,-1.146292,-22.579335,344.028367,-13.500268,0.022855,0.006711,0.000000,-0.480137,-0.312251,-0.000000
0.050000,-2.559748,-2.324503,-1.416822,-0.009651,0.001201,-0.002842,-0.036239,0.192883,0.020308,2.835272,-1.561852,-1.271587,-19.667404,279.275034,-11.568041,0.019700,0.003702,0.000000,-0.162015,-0.290039,0.000000
0.060000,-2.559846,-2.324481,-1.416849,-0.009875,0.003096,-0.002704,-0.008824,0.190252,0.007045,2.652171,0.941086,-1.377844,-16.991666,222.618287,-9.692969,0.019405,0.000900,0.000000,0.093242,-0.270623,-0.000000
0.070000,-2.559945,-2.324440,-1.416876,-0.009833,0.005080,-0.002704,0.016890,0.209945,-0.007188,2.494674,2.915751,-1.465643,-14.545388,173.532793,-7.876919,0.021382,-0.001720,0.000000,0.293668,-0.253797,0.000000
0.080000,-2.560042,-2.324379,-1.416904,-0.009542,0.007353,-0.002850,0.041147,0.247050,-0.022208,2.360521,4.435228,-1.535585,-12.321836,131.493217,-6.121756,0.025121,-0.004185,0.000000,0.446856,-0.239347,-0.000000
0.090000,-2.560135,-2.324292,-1.416934,-0.009014,0.010065,-0.003150,0.064170,0.297359,-0.037842,2.247517,5.567351,-1.588288,-10.314274,95.974223,-4.429346,0.030186,-0.006516,0.000000,0.559900,-0.227060,-0.000000
0.100000,-2.560221,-2.324175,-1.416967,-0.008262,0.013332,-0.003609,0.086161,0.357315,-0.053919,2.153538,6.374697,-1.624387,-8.515970,66.450477,-2.801553,0.036207,-0.008735,0.000000,0.639367,-0.216728,0.000000
0.110000,-2.560299,-2.324023,-1.417007,-0.007294,0.017234,-0.004229,0.107298,0.423962,-0.070277,2.076523,6.914593,-1.644540,-6.920188,42.396645,-1.240245,0.042881,-0.010859,0.000000,0.691285,-0.208145,0.000000
0.120000,-2.560366,-2.323828,-1.417053,-0.006118,0.021825,-0.005015,0.127741,0.494890,-0.086759,2.014481,7.239112,-1.649420,-5.520195,23.287390,0.252715,0.049959,-0.012907,0.000000,0.721136,-0.201114,0.000000
0.130000,-2.560421,-2.323584,-1.417107,-0.004741,0.027139,-0.005965,0.147631,0.568183,-0.103216,1.965489,7.395072,-1.639720,-4.309257,8.597379,1.675459,0.057247,-0.014891,0.000000,0.733842,-0.195442,-0.000000
0.140000,-2.560461,-2.323283,-1.417172,-0.003167,0.033192,-0.007078,0.167088,0.642368,-0.119507,1.927688,7.424039,-1.616151,-3.280640,-2.198723,3.026122,0.064594,-0.016826,0.000000,0.733762,-0.190945,0.000000
0.150000,-2.560484,-2.322918,-1.417249,-0.001400,0.039986,-0.008354,0.186216,0.716362,-0.135496,1.899291,7.362326,-1.579444,-2.427609,-9.626251,4.302840,0.071892,-0.018721,0.000000,0.724689,-0.187445,-0.000000
0.160000,-2.560488,-2.322481,-1.417340,0.000557,0.047516,-0.009787,0.205100,0.789417,-0.151055,1.878573,7.240992,-1.530347,-1.743431,-14.210539,5.503746,0.079068,-0.020587,0.000000,0.709845,-0.184771,-0.000000
0.170000,-2.560472,-2.321965,-1.417446,0.002701,0.055770,-0.011373,0.223807,0.861070,-0.166064,1.863882,7.085842,-1.469628,-1.221371,-16.476924,6.626974,0.086079,-0.022431,0.000000,0.691886,-0.182759,-0.000000
0.180000,-2.560433,-2.321363,-1.417568,0.005032,0.064732,-0.013106,0.242392,0.931090,-0.180411,1.853628,6.917428,-1.398073,-0.854694,-16.950739,7.670660,0.092903,-0.024258,0.000000,0.672912,-0.181253,0.000000
0.190000,-2.560371,-2.320668,-1.417708,0.007549,0.074386,-0.014979,0.260890,0.999426,-0.193992,1.846292,6.751051,-1.316486,-0.636668,-16.157318,8.632937,0.099539,-0.026073,0.000000,0.654465,-0.180105,0.000000
0.200000,-2.560282,-2.319873,-1.417868,0.010250,0.084715,-0.016983,0.279323,1.066152,-0.206710,1.840422,6.596755,-1.225692,-0.560558,-14.621998,9.511939,0.105997,-0.027878,0.000000,0.637548,-0.179172,0.000000
0.210000,-2.560165,-2.318972,-1.418048,0.013133,0.095656,-0.019110,0.297767,1.133218,-0.218477,1.840986,6.625290,-1.126510,-0.780156,-17.061805,10.305255,0.112474,-0.029683,0.000000,0.638914,-0.178944,-0.000000
0.220000,-2.560018,-2.317958,-1.418251,0.016203,0.107316,-0.021349,0.316133,1.198580,-0.229215,1.831622,6.443330,-1.019852,-1.108545,-19.297114,11.011633,0.118769,-0.031479,0.000000,0.619876,-0.177809,0.000000
0.230000,-2.559840,-2.316824,-1.418476,0.019456,0.119621,-0.023690,0.334387,1.262013,-0.238852,1.818541,6.239989,-0.906573,-1.519335,-21.339989,11.629274,0.124865,-0.033264,0.000000,0.599116,-0.176387,-0.000000
0.240000,-2.559629,-2.315563,-1.418725,0.022890,0.132550,-0.026122,0.352489,1.323314,-0.247328,1.801049,6.017131,-0.787568,-1.986135,-23.202498,12.156379,0.130746,-0.035034,0.000000,0.576833,-0.174614,-0.000000
0.250000,-2.559382,-2.314171,-1.418998,0.026505,0.146080,-0.028633,0.370392,1.382297,-0.254588,1.778719,5.776500,-0.663753,-2.482556,-24.896707,12.591150,0.136397,-0.036785,0.000000,0.553203,-0.172451,0.000000
0.260000,-2.559098,-2.312640,-1.419298,0.030299,0.160186,-0.031210,0.387971,1.438825,-0.260580,1.744382,5.522897,-0.535212,-2.805275,-26.514978,12.910396,0.141810,-0.038506,0.000000,0.528708,-0.169199,0.000000
0.270000,-2.558775,-2.310965,-1.419623,0.034266,0.174846,-0.033840,0.405269,1.492703,-0.265283,1.714720,5.250298,-0.404901,-3.126498,-27.979249,13.136329,0.146968,-0.040202,0.000000,0.502718,-0.166488,-0.000000
0.280000,-2.558412,-2.309141,-1.419975,0.038403,0.190031,-0.036511,0.422255,1.543785,-0.268673,1.681873,4.963818,-0.272794,-3.441501,-29.291754,13.269772,0.151861,-0.041871,0.000000,0.475730,-0.163546,-0.000000
0.290000,-2.558007,-2.307163,-1.420353,0.042710,0.205712,-0.039209,0.438896,1.591938,-0.270736,1.645926,4.664962,-0.139811,-3.745557,-30.454728,13.311544,0.156480,-0.043511,0.000000,0.447871,-0.160379,-0.000000
0.300000,-2.557557,-2.305025,-1.420759,0.047180,0.221860,-0.041922,0.455163,1.637048,-0.271469,1.607014,4.355214,-0.006866,-4.033942,-31.470405,13.262467,0.160816,-0.045118,0.000000,0.419255,-0.156996,0.000000
0.310000,-2.557063,-2.302724,-1.421192,0.051812,0.238443,-0.044635,0.471007,1.678998,-0.270866,1.563425,4.034820,0.126070,-4.254186,-32.310273,13.099829,0.164861,-0.046689,0.000000,0.389890,-0.153227,0.000000
0.320000,-2.556521,-2.300255,-1.421651,0.056600,0.255429,-0.047335,0.486425,1.717718,-0.268954,1.519863,3.708100,0.255894,-4.455154,-33.011077,12.850865,0.168612,-0.048224,0.000000,0.360118,-0.149517,0.000000
0.330000,-2.555930,-2.297614,-1.422138,0.061539,0.272786,-0.050009,0.501398,1.753139,-0.265758,1.474383,3.375042,0.382812,-4.637967,-33.578815,12.519277,0.172062,-0.049722,0.000000,0.329913,-0.145671,-0.000000
0.340000,-2.555289,-2.294798,-1.422651,0.066626,0.290481,-0.052646,0.515907,1.785202,-0.261310,1.427160,3.036947,0.506016,-4.803747,-34.019487,12.108768,0.175209,-0.051181,0.000000,0.299358,-0.141699,-0.000000
0.350000,-2.554597,-2.291804,-1.423191,0.071856,0.308479,-0.055232,0.529936,1.813865,-0.255653,1.378361,2.695056,0.624736,-4.953614,-34.339092,11.623040,0.178049,-0.052599,0.000000,0.268526,-0.137607,0.000000
0.360000,-2.553852,-2.288628,-1.423756,0.077223,0.326747,-0.057755,0.543469,1.839098,-0.248824,1.328103,2.350838,0.739072,-5.087829,-34.550935,11.044737,0.180579,-0.053977,0.000000,0.237528,-0.133403,-0.000000
0.370000,-2.553052,-2.285268,-1.424346,0.082723,0.345249,-0.060205,0.556493,1.860877,-0.240892,1.276611,2.004730,0.846354,-5.208479,-34.652814,10.401198,0.182799,-0.055311,0.000000,0.206325,-0.129087,-0.000000
0.380000,-2.552197,-2.281722,-1.424960,0.088351,0.363953,-0.062570,0.568997,1.879191,-0.231920,1.223975,1.658131,0.946900,-5.316790,-34.649833,9.698704,0.184705,-0.056602,0.000000,0.175022,-0.124665,-0.000000
0.390000,-2.551285,-2.277988,-1.425597,0.094101,0.382822,-0.064840,0.580969,1.894041,-0.221978,1.170312,1.312066,1.040152,-5.413988,-34.547095,8.943537,0.186299,-0.057847,0.000000,0.143674,-0.120137,-0.000000
0.400000,-2.550314,-2.274065,-1.426256,0.099969,0.401822,-0.067006,0.592400,1.905437,-0.211142,1.115728,0.967505,1.125616,-5.501298,-34.349705,8.141977,0.187579,-0.059046,0.000000,0.112332,-0.115504,-0.000000
0.410000,-2.549285,-2.269952,-1.426937,0.105948,0.420919,-0.069060,0.603283,1.913403,-0.199489,1.060485,0.625729,1.203267,-5.584245,-34.071835,7.289982,0.188546,-0.060198,0.000000,0.081089,-0.110785,0.000000
0.420000,-2.548195,-2.265647,-1.427637,0.112032,0.440079,-0.070994,0.613607,1.917963,-0.187106,1.004262,0.286758,1.271768,-5.659232,-33.708410,6.405421,0.189201,-0.061302,0.000000,0.049893,-0.105932,-0.000000
0.430000,-2.547044,-2.261150,-1.428356,0.118218,0.459267,-0.072800,0.623366,1.919152,-0.174083,0.947325,-0.048167,1.331292,-5.726957,-33.263424,5.495838,0.189545,-0.062355,0.000000,0.018841,-0.100967,-0.000000
0.440000,-2.545830,-2.256461,-1.429093,0.124498,0.478450,-0.074473,0.632552,1.917015,-0.160511,0.889744,-0.378252,1.381626,-5.788123,-32.740872,4.568779,0.189578,-0.063357,0.000000,-0.012018,-0.095887,-0.000000
0.450000,-2.544554,-2.251581,-1.429845,0.130867,0.497596,-0.076009,0.641159,1.911605,-0.146482,0.831582,-0.702740,1.422634,-5.843428,-32.144747,3.631788,0.189305,-0.064307,0.000000,-0.042633,-0.090690,-0.000000
0.460000,-2.543213,-2.246510,-1.430612,0.137319,0.516672,-0.077402,0.649183,1.902983,-0.132090,0.773035,-1.020769,1.454161,-5.897174,-31.482723,2.694775,0.188727,-0.065204,0.000000,-0.072940,-0.085390,-0.000000
0.470000,-2.541807,-2.241248,-1.431393,0.143849,0.535645,-0.078650,0.656618,1.891213,-0.117430,0.713815,-1.332010,1.476440,-5.946018,-30.754663,1.762632,0.187847,-0.066046,0.000000,-0.102916,-0.079952,0.000000
0.480000,-2.540336,-2.235797,-1.432185,0.150449,0.554486,-0.079750,0.663458,1.876368,-0.102593,0.654131,-1.635654,1.489454,-5.990221,-29.964109,0.842613,0.186670,-0.066831,0.000000,-0.132491,-0.074392,0.000000
0.490000,-2.538798,-2.230159,-1.432987,0.157116,0.573163,-0.080701,0.669699,1.858527,-0.087671,0.594026,-1.931095,1.493357,-6.030042,-29.114607,-0.058027,0.185199,-0.067559,0.000000,-0.161608,-0.068710,-0.000000
0.500000,-2.537193,-2.224335,-1.433798,0.163841,0.591647,-0.081503,0.675337,1.837776,-0.072755,0.533543,-2.217762,1.488382,-6.065740,-28.209697,-0.932031,0.183439,-0.068229,0.000000,-0.190209,-0.062907,0.000000
0.510000,-2.535521,-2.218327,-1.434617,0.170620,0.609909,-0.082156,0.680370,1.814203,-0.057938,0.472813,-2.495123,1.474280,-6.099831,-27.252756,-1.758250,0.181397,-0.068839,0.000000,-0.218242,-0.056989,0.000000
0.520000,-2.533781,-2.212137,-1.435441,0.177447,0.627922,-0.082662,0.684792,1.787906,-0.043296,0.411660,-2.762663,1.452728,-6.130041,-26.247516,-2.545024,0.179077,-0.069387,0.000000,-0.245620,-0.050948,-0.000000
0.530000,-2.531972,-2.205769,-1.436269,0.184314,0.645658,-0.083023,0.688602,1.758984,-0.028909,0.350225,-3.019924,1.423529,-6.156354,-25.197539,-3.286800,0.176487,-0.069874,0.000000,-0.272292,-0.044792,-0.000000
0.540000,-2.530094,-2.199225,-1.437101,0.191217,0.663093,-0.083242,0.691796,1.727543,-0.014850,0.288546,-3.266477,1.387161,-6.178751,-24.106390,-3.978022,0.173634,-0.070297,0.000000,-0.298194,-0.038528,-0.000000
0.550000,-2.528147,-2.192508,-1.437934,0.198148,0.680201,-0.083322,0.694372,1.693692,-0.001188,0.226663,-3.501927,1.344156,-6.197217,-22.977632,-4.613137,0.170526,-0.070656,0.000000,-0.323262,-0.032162,0.000000
0.560000,-2.526131,-2.185622,-1.438767,0.205102,0.696959,-0.083267,0.696329,1.657543,0.012004,0.164668,-3.725932,1.294236,-6.213072,-21.814415,-5.164687,0.167171,-0.070949,0.000000,-0.347447,-0.025699,-0.000000
0.570000,-2.524045,-2.178570,-1.439599,0.212073,0.713345,-0.083083,0.697665,1.619212,0.024680,0.102475,-3.938132,1.240099,-6.224797,-20.620766,-5.651703,0.163580,-0.071177,0.000000,-0.370647,-0.019150,0.000000
0.580000,-2.521890,-2.171357,-1.440428,0.219053,0.729337,-0.082775,0.698379,1.578820,0.036791,0.040187,-4.138258,1.181427,-6.232211,-19.400301,-6.071314,0.159762,-0.071337,0.000000,-0.392820,-0.012524,-0.000000
0.590000,-2.519664,-2.163985,-1.441254,0.226038,0.744915,-0.082349,0.698469,1.536488,0.048295,-0.022154,-4.326061,1.118907,-6.235132,-18.156633,-6.420647,0.155727,-0.071430,0.000000,-0.413905,-0.005830,0.000000
0.600000,-2.517369,-2.156460,-1.442075,0.233021,0.760060,-0.081811,0.697936,1.492341,0.059158,-0.084500,-4.501325,1.053258,-6.233381,-16.893376,-6.696830,0.151487,-0.071455,0.000000,-0.433846,0.000919,-0.000000
0.610000,-2.515004,-2.148785,-1.442890,0.239995,0.774756,-0.081168,0.696779,1.446505,0.069342,-0.146768,-4.663786,0.984227,-6.227726,-15.616401,-6.871813,0.147054,-0.071411,0.000000,-0.452596,0.007716,-0.000000
0.620000,-2.512569,-2.140966,-1.443698,0.246954,0.788985,-0.080426,0.695000,1.399108,0.078838,-0.208995,-4.813511,0.914950,-6.216919,-14.326790,-6.970986,0.142440,-0.071299,0.000000,-0.470090,0.014538,0.000000
0.630000,-2.510065,-2.133007,-1.444498,0.253893,0.802733,-0.079593,0.692600,1.350278,0.087639,-0.271088,-4.950290,0.845060,-6.200664,-13.027880,-6.994558,0.137657,-0.071118,0.000000,-0.486292,0.021377,0.000000
0.640000,-2.507491,-2.124913,-1.445289,0.260804,0.815986,-0.078676,0.689579,1.300145,0.095740,-0.332989,-5.074048,0.775310,-6.178663,-11.723008,-6.942740,0.132718,-0.070867,0.000000,-0.501162,0.028219,0.000000
0.650000,-2.504849,-2.116689,-1.446071,0.267682,0.828732,-0.077681,0.685941,1.248841,0.103148,-0.394641,-5.184742,0.706455,-6.150619,-10.415514,-6.815744,0.127638,-0.070548,0.000000,-0.514666,0.035049,0.000000
0.660000,-2.502138,-2.108340,-1.446843,0.274521,0.840960,-0.076615,0.681688,1.196497,0.109864,-0.455943,-5.282128,0.638308,-6.117189,-9.114618,-6.590114,0.122430,-0.070161,0.000000,-0.526765,0.041855,-0.000000
0.670000,-2.499359,-2.099872,-1.447603,0.281314,0.852659,-0.075486,0.676823,1.143241,0.115923,-0.516920,-5.366783,0.573836,-6.077004,-7.817054,-6.292624,0.117107,-0.069705,0.000000,-0.537465,0.048616,-0.000000
0.680000,-2.496512,-2.091289,-1.448352,0.288055,0.863822,-0.074299,0.671351,1.089204,0.121352,-0.577459,-5.438489,0.512685,-6.029652,-6.525439,-5.926384,0.111685,-0.069182,0.000000,-0.546739,0.055321,-0.000000
0.690000,-2.493598,-2.082597,-1.449089,0.294739,0.874441,-0.073060,0.665276,1.034515,0.126190,-0.637488,-5.497320,0.455527,-5.974717,-5.242391,-5.494500,0.106177,-0.068592,0.000000,-0.554578,0.061954,0.000000
0.700000,-2.490617,-2.073802,-1.449813,0.301359,0.884510,-0.071777,0.658603,0.979300,0.130478,-0.696927,-5.543374,0.403004,-5.911787,-3.970527,-5.000083,0.100598,-0.067936,0.000000,-0.560979,0.068500,0.000000
0.710000,-2.487571,-2.064909,-1.450524,0.307909,0.894025,-0.070452,0.651340,0.923693,0.134259,-0.755652,-5.576448,0.354999,-5.841536,-2.720772,-4.427941,0.094963,-0.067215,0.000000,-0.565920,0.074947,-0.000000
0.720000,-2.484459,-2.055923,-1.451222,0.314384,0.902983,-0.069093,0.643493,0.867813,0.137598,-0.813679,-5.597470,0.313808,-5.762328,-1.486419,-3.801723,0.089285,-0.066431,0.000000,-0.569474,0.081279,-0.000000
0.730000,-2.481283,-2.046851,-1.451906,0.320777,0.911381,-0.067702,0.635069,0.811784,0.140557,-0.870867,-5.606233,0.279127,-5.673615,-0.269067,-3.126777,0.083578,-0.065584,0.000000,-0.571629,0.087483,0.000000
0.740000,-2.478044,-2.037698,-1.452576,0.327083,0.919219,-0.066283,0.626078,0.755729,0.143204,-0.927118,-5.602913,0.251417,-5.574851,0.929682,-2.408455,0.077857,-0.064676,0.000000,-0.572405,0.093545,-0.000000
0.750000,-2.474742,-2.028469,-1.453232,0.333297,0.926496,-0.064838,0.616530,0.699766,0.145610,-0.982329,-5.587706,0.231085,-5.465487,2.108228,-1.652104,0.072134,-0.063708,0.000000,-0.571829,0.099454,-0.000000
0.760000,-2.471378,-2.019170,-1.453873,0.339412,0.933215,-0.063371,0.606436,0.644017,0.147847,-1.036350,-5.560503,0.218064,-5.346005,3.256932,-0.852479,0.066425,-0.062682,0.000000,-0.569900,0.105194,0.000000
0.770000,-2.467954,-2.009806,-1.454499,0.345424,0.939377,-0.061882,0.595807,0.588593,0.149999,-1.089163,-5.522283,0.213649,-5.214704,4.383218,-0.026823,0.060741,-0.061600,0.000000,-0.566723,0.110759,-0.000000
0.780000,-2.464470,-2.000384,-1.455110,0.351326,0.944988,-0.060371,0.584657,0.533608,0.152148,-1.140602,-5.472916,0.217593,-5.070909,5.486469,0.818219,0.055094,-0.060463,0.000000,-0.562304,0.116134,-0.000000
0.790000,-2.460928,-1.990908,-1.455706,0.357115,0.950051,-0.058838,0.573000,0.479172,0.154379,-1.190538,-5.412633,0.230056,-4.913948,6.566070,1.676000,0.049499,-0.059274,0.000000,-0.556680,0.121310,-0.000000
0.800000,-2.457328,-1.981385,-1.456287,0.362785,0.954574,-0.057283,0.560852,0.425391,0.156778,-1.238835,-5.341675,0.251133,-4.743148,7.621405,2.539873,0.043965,-0.058035,0.000000,-0.549893,0.126274,0.000000
0.810000,-2.453673,-1.971819,-1.456852,0.368330,0.958562,-0.055702,0.548230,0.372375,0.159429,-1.285336,-5.260098,0.280768,-4.558248,8.647068,3.405299,0.038505,-0.056747,0.000000,-0.541966,0.131015,0.000000
0.820000,-2.449962,-1.962215,-1.457401,0.373748,0.962024,-0.054093,0.535152,0.320223,0.162422,-1.329931,-5.168603,0.319120,-4.358112,9.647820,4.263265,0.033129,-0.055413,0.000000,-0.532988,0.135525,0.000000
0.830000,-2.446198,-1.952580,-1.457934,0.379032,0.964969,-0.052452,0.521638,0.269036,0.165840,-1.372445,-5.067225,0.365985,-4.142015,10.623632,5.106866,0.027848,-0.054036,0.000000,-0.522979,0.139792,0.000000
0.840000,-2.442382,-1.942917,-1.458450,0.384179,0.967408,-0.050774,0.507710,0.218911,0.169769,-1.412715,-4.956213,0.421186,-3.909233,11.574475,5.929199,0.022673,-0.052617,0.000000,-0.511980,0.143807,-0.000000
0.850000,-2.438515,-1.933233,-1.458949,0.389185,0.969351,-0.049055,0.493392,0.169943,0.174291,-1.450572,-4.835819,0.484475,-3.659043,12.500320,6.723357,0.017612,-0.051160,0.000000,-0.500034,0.147557,-0.000000
0.860000,-2.434599,-1.923532,-1.459431,0.394046,0.970811,-0.047286,0.478707,0.122224,0.179487,-1.485876,-4.706309,0.555774,-3.389695,13.401613,7.476425,0.012675,-0.049666,0.000000,-0.487180,0.151034,0.000000
0.870000,-2.430635,-1.913819,-1.459895,0.398758,0.971800,-0.045463,0.463684,0.075846,0.185431,-1.518349,-4.567891,0.634135,-3.101616,14.277792,8.188246,0.007871,-0.048140,0.000000,-0.473451,0.154221,-0.000000
0.880000,-2.426624,-1.904098,-1.460340,0.403318,0.972333,-0.043575,0.448350,0.030895,0.192193,-1.547844,-4.420837,0.719381,-2.794207,15.128768,8.852650,0.003209,-0.046583,0.000000,-0.458884,0.157106,-0.000000
0.890000,-2.422569,-1.894373,-1.460766,0.407724,0.972423,-0.041616,0.432737,-0.012543,0.199840,-1.574167,-4.265400,0.811009,-2.466872,15.954455,9.463467,-0.001304,-0.044999,0.000000,-0.443512,0.159678,0.000000
0.900000,-2.418470,-1.884651,-1.461172,0.411972,0.972087,-0.039575,0.416878,-0.054385,0.208432,-1.597113,-4.101833,0.908451,-2.119010,16.754766,10.014529,-0.005659,-0.043390,0.000000,-0.427364,0.161923,-0.000000
0.910000,-2.414330,-1.874933,-1.461557,0.416061,0.971341,-0.037444,0.400806,-0.094556,0.218032,-1.616609,-3.930624,1.011601,-1.746676,17.535538,10.486505,-0.009849,-0.041761,0.000000,-0.410492,0.163837,-0.000000
0.920000,-2.410149,-1.865225,-1.461921,0.419988,0.970202,-0.035211,0.384559,-0.132972,0.228679,-1.632125,-3.751474,1.118534,-1.353030,18.290033,10.888000,-0.013866,-0.040115,0.000000,-0.392861,0.165377,0.000000
0.930000,-2.405931,-1.855530,-1.462261,0.423752,0.968688,-0.032867,0.368177,-0.169560,0.240415,-1.643598,-3.564914,1.229111,-0.937884,19.017437,11.214456,-0.017704,-0.038455,0.000000,-0.374520,0.166538,-0.000000
0.940000,-2.401675,-1.845852,-1.462577,0.427351,0.966817,-0.030399,0.351701,-0.204247,0.253271,-1.650811,-3.371219,1.342558,-0.501049,19.716939,11.461316,-0.021354,-0.036785,0.000000,-0.355490,0.167303,0.000000
0.950000,-2.397384,-1.836195,-1.462869,0.430785,0.964610,-0.027797,0.335175,-0.236962,0.267273,-1.653546,-3.170671,1.458057,-0.042337,20.387724,11.624023,-0.024811,-0.035109,0.000000,-0.335787,0.167653,0.000000
0.960000,-2.393060,-1.826561,-1.463133,0.434055,0.962085,-0.025050,0.318643,-0.267642,0.282444,-1.651836,-2.963934,1.575501,0.444803,21.038369,11.678854,-0.028068,-0.033432,0.000000,-0.315468,0.167591,-0.000000
0.970000,-2.388704,-1.816954,-1.463369,0.437159,0.959264,-0.022145,0.302155,-0.296219,0.298783,-1.644862,-2.750428,1.692186,0.953417,21.657523,11.642765,-0.031118,-0.031758,0.000000,-0.294450,0.167038,0.000000
0.980000,-2.384317,-1.807377,-1.463575,0.440098,0.956168,-0.019071,0.285763,-0.322631,0.316285,-1.632698,-2.530895,1.808046,1.482914,22.243221,11.513543,-0.033955,-0.030091,0.000000,-0.272790,0.165998,-0.000000
0.990000,-2.379902,-1.797832,-1.463750,0.442874,0.952819,-0.015815,0.269519,-0.346818,0.334938,-1.615137,-2.305681,1.922139,2.032703,22.793503,11.288979,-0.036572,-0.028437,0.000000,-0.250502,0.164448,0.000000
1.000000,-2.375460,-1.788321,-1.463891,0.445489,0.949239,-0.012368,0.253479,-0.368727,0.354719,-1.591978,-2.075150,2.033501,2.602193,23.306404,10.966862,-0.038963,-0.026802,0.000000,-0.227599,0.162364,-0.000000
1.010000,-2.370993,-1.778848,-1.463997,0.447945,0.945452,-0.008718,0.237695,-0.388309,0.375606,-1.563394,-1.840041,2.142088,3.200021,23.788974,10.521142,-0.041123,-0.025189,0.000000,-0.204136,0.159755,0.000000
1.020000,-2.366502,-1.769413,-1.464065,0.450244,0.941481,-0.004853,0.222231,-0.405512,0.397544,-1.528332,-1.599914,2.244658,3.815238,24.229134,9.976366,-0.043044,-0.023606,0.000000,-0.180028,0.156510,0.000000
1.030000,-2.361989,-1.760019,-1.464093,0.452391,0.937350,-0.000763,0.207149,-0.420293,0.420479,-1.487037,-1.355610,2.341287,4.446123,24.623820,9.333243,-0.044721,-0.022058,0.000000,-0.155338,0.152644,0.000000
1.040000,-2.357455,-1.750666,-1.464079,0.454389,0.933083,0.003560,0.192512,-0.432612,0.444347,-1.439363,-1.107600,2.430997,5.090955,24.969964,8.592481,-0.046149,-0.020552,0.000000,-0.130087,0.148129,0.000000
1.050000,-2.352901,-1.741357,-1.464021,0.456243,0.928706,0.008126,0.178384,-0.442434,0.469073,-1.385177,-0.856383,2.512814,5.748014,25.264501,7.754789,-0.047321,-0.019095,0.000000,-0.104299,0.142942,0.000000
1.060000,-2.348330,-1.732093,-1.463916,0.457958,0.924243,0.012944,0.164826,-0.449732,0.494585,-1.324801,-0.602647,2.586826,6.426523,25.508274,6.794261,-0.048233,-0.017692,0.000000,-0.078023,0.137100,0.000000
1.070000,-2.343743,-1.722873,-1.463761,0.459542,0.919720,0.018020,0.151910,-0.454480,0.520776,-1.257111,-0.346586,2.649580,7.112476,25.693829,5.741478,-0.048880,-0.016352,0.000000,-0.051241,0.130475,-0.000000
1.080000,-2.339140,-1.713698,-1.463554,0.460999,0.915162,0.023361,0.139706,-0.456659,0.547540,-1.182537,-0.088976,2.701361,7.802812,25.817621,4.600408,-0.049257,-0.015082,0.000000,-0.024015,0.123093,0.000000
1.090000,-2.334523,-1.704569,-1.463293,0.462338,0.910595,0.028972,0.128283,-0.456257,0.574764,-1.101050,0.169549,2.741307,8.494470,25.876104,3.375018,-0.049359,-0.013890,0.000000,0.003606,0.114937,-0.000000
1.100000,-2.329893,-1.695486,-1.462974,0.463567,0.906046,0.034857,0.117708,-0.453267,0.602324,-1.012653,0.428317,2.768594,9.184388,25.865735,2.069276,-0.049183,-0.012783,0.000000,0.031570,0.105990,-0.000000
1.110000,-2.325252,-1.686448,-1.462595,0.464696,0.901539,0.041019,0.108048,-0.447690,0.630102,-0.917788,0.686837,2.783484,9.879857,25.777537,0.660732,-0.048726,-0.011770,0.000000,0.059831,0.096281,0.000000
1.120000,-2.320600,-1.677455,-1.462153,0.465732,0.897100,0.047459,0.099376,-0.439535,0.657945,-0.815549,0.943859,2.782757,10.566196,25.614061,-0.816996,-0.047986,-0.010858,0.000000,0.088275,0.085701,-0.000000
1.130000,-2.315938,-1.668506,-1.461645,0.466687,0.892756,0.054178,0.091760,-0.428819,0.685707,-0.706509,1.198858,2.766937,11.239078,25.372429,-2.356705,-0.046961,-0.010056,0.000000,0.116841,0.074292,-0.000000
1.140000,-2.311266,-1.659600,-1.461068,0.467571,0.888532,0.061173,0.085268,-0.415567,0.713232,-0.590826,1.451038,2.735440,11.894173,25.049759,-3.951193,-0.045649,-0.009373,0.000000,0.145438,0.062060,0.000000
1.150000,-2.306586,-1.650735,-1.460420,0.468396,0.884453,0.068441,0.079965,-0.399810,0.740362,-0.468699,1.699573,2.687755,12.527152,24.643173,-5.593260,-0.044052,-0.008817,0.000000,0.173964,0.049014,-0.000000
1.160000,-2.301898,-1.641910,-1.459699,0.469174,0.880544,0.075978,0.075911,-0.381583,0.766941,-0.340628,1.944283,2.624307,13.140180,24.132831,-7.297590,-0.042170,-0.008394,0.000000,0.202377,0.035198,-0.000000
1.170000,-2.297203,-1.633123,-1.458900,0.469919,0.876830,0.083777,0.073172,-0.360943,0.792790,-0.206291,2.182695,2.542678,13.721640,23.534889,-9.032413,-0.040006,-0.008115,0.000000,0.230388,0.020571,0.000000
1.180000,-2.292500,-1.624373,-1.458022,0.470642,0.873333,0.091831,0.071804,-0.337951,0.817736,-0.066318,2.414686,2.443590,14.266408,22.848545,-10.787849,-0.037564,-0.007985,0.000000,0.257942,0.005201,-0.000000
1.190000,-2.287790,-1.615656,-1.457063,0.471359,0.870078,0.100128,0.071863,-0.312674,0.841603,0.078898,2.639369,2.326886,14.769361,22.072996,-12.554015,-0.034849,-0.008013,0.000000,0.284899,-0.010869,-0.000000
1.200000,-2.283073,-1.606970,-1.456019,0.472085,0.867087,0.108659,0.073398,-0.285191,0.864215,0.228913,2.855846,2.192507,15.225376,21.207437,-14.321028,-0.031868,-0.008205,0.000000,0.311106,-0.027584,0.000000
1.210000,-2.278348,-1.598313,-1.454889,0.472833,0.864381,0.117408,0.076456,-0.255576,0.885400,0.383279,3.064260,2.040972,15.628130,20.224652,-16.091044,-0.028628,-0.008567,0.000000,0.336524,-0.044884,0.000000
1.220000,-2.273616,-1.589682,-1.453670,0.473619,0.861982,0.126361,0.081076,-0.223940,0.904976,0.541339,3.261224,1.871291,15.973845,19.153487,-17.840671,-0.025141,-0.009104,0.000000,0.360710,-0.062678,-0.000000
1.230000,-2.268876,-1.581073,-1.452361,0.474459,0.859909,0.135501,0.087294,-0.190389,0.922768,0.702550,3.447044,1.684264,16.257544,17.996373,-19.558551,-0.021418,-0.009822,0.000000,0.383627,-0.080887,0.000000
1.240000,-2.264127,-1.572482,-1.450959,0.475370,0.858180,0.144810,0.095136,-0.155039,0.938605,0.866266,3.620873,1.480264,16.474250,16.755742,-21.233330,-0.017473,-0.010723,0.000000,0.405107,-0.099410,-0.000000
1.250000,-2.259368,-1.563908,-1.449464,0.476368,0.856813,0.154266,0.104625,-0.118014,0.952318,1.031795,3.781888,1.259779,16.618986,15.434024,-22.853651,-0.013322,-0.011811,0.000000,0.424980,-0.118139,-0.000000
1.260000,-2.254599,-1.555345,-1.447874,0.477468,0.855825,0.163849,0.115779,-0.079432,0.963746,1.198737,3.930596,1.023257,16.678007,14.000694,-24.404284,-0.008978,-0.013087,0.000000,0.443227,-0.136993,0.000000
1.270000,-2.249818,-1.546790,-1.446187,0.478689,0.855229,0.173533,0.128600,-0.039451,0.972733,1.365477,4.063133,0.771776,16.656178,12.495177,-25.878222,-0.004464,-0.014551,0.000000,0.459335,-0.155750,-0.000000
1.280000,-2.245025,-1.538239,-1.444403,0.480046,0.855040,0.183295,0.143086,0.001779,0.979133,1.531578,4.180281,0.505984,16.549597,10.923939,-27.264584,0.000201,-0.016202,0.000000,0.473320,-0.174317,-0.000000
1.290000,-2.240217,-1.529688,-1.442521,0.481556,0.855268,0.193107,0.159227,0.044101,0.982808,1.696173,4.281414,0.226812,16.354360,9.293449,-28.552489,0.004995,-0.018036,0.000000,0.485046,-0.192552,-0.000000
1.300000,-2.235393,-1.521132,-1.440541,0.483236,0.855925,0.202941,0.177002,0.087352,0.983628,1.858356,4.365974,-0.064701,16.066563,7.610172,-29.731056,0.009894,-0.020051,0.000000,0.494389,-0.210304,-0.000000
1.310000,-2.230552,-1.512568,-1.438462,0.485101,0.857018,0.212770,0.196402,0.131370,0.981466,2.018949,4.434078,-0.368351,15.637693,5.865046,-30.765578,0.014875,-0.022243,0.000000,0.501313,-0.227619,0.000000
1.320000,-2.225690,-1.503990,-1.436285,0.487168,0.858554,0.222561,0.217365,0.175975,0.976229,2.172786,4.483841,-0.680649,15.113920,4.081969,-31.671917,0.019912,-0.024601,0.000000,0.505571,-0.243872,0.000000
1.330000,-2.220808,-1.495395,-1.434011,0.489453,0.860539,0.232284,0.239839,0.220987,0.967826,2.320916,4.515619,-1.001336,14.496803,2.269312,-32.442108,0.024978,-0.027118,0.000000,0.507182,-0.259139,0.000000
1.340000,-2.215901,-1.486778,-1.431640,0.491970,0.862974,0.241906,0.263761,0.266226,0.956179,2.462416,4.529157,-1.329011,13.787903,0.435443,-33.068186,0.030047,-0.029782,0.000000,0.506108,-0.273281,-0.000000
1.350000,-2.210967,-1.478134,-1.429173,0.494733,0.865863,0.251396,0.289062,0.311509,0.941227,2.596374,4.524285,-1.662192,12.988779,-1.411268,-33.542188,0.035091,-0.032582,0.000000,0.502340,-0.286165,-0.000000
1.360000,-2.206005,-1.469459,-1.426613,0.497755,0.869204,0.260720,0.315682,0.356652,0.922904,2.723838,4.501066,-2.000988,12.051941,-3.266222,-33.814039,0.040085,-0.035506,0.000000,0.495900,-0.297880,-0.000000
1.370000,-2.201011,-1.460749,-1.423960,0.501050,0.872995,0.269844,0.343506,0.401469,0.901201,2.839332,4.459143,-2.339810,11.034003,-5.116820,-33.923041,0.045000,-0.038539,0.000000,0.486812,-0.307814,0.000000
1.380000,-2.195983,-1.451998,-1.421216,0.504629,0.877232,0.278733,0.372433,0.445773,0.876107,2.944273,4.398773,-2.678897,9.942532,-6.954230,-33.866387,0.049812,-0.041664,0.000000,0.475154,-0.316119,0.000000
1.390000,-2.190918,-1.443203,-1.418386,0.508502,0.881908,0.287354,0.402354,0.489383,0.847628,3.037963,4.320132,-3.016577,8.785092,-8.769623,-33.641270,0.054495,-0.044864,0.000000,0.461021,-0.322727,-0.000000
1.400000,-2.185812,-1.434358,-1.415470,0.512679,0.887017,0.295674,0.433153,0.532116,0.815786,3.119780,4.223484,-3.351151,7.569249,-10.554168,-33.244881,0.059025,-0.048122,0.000000,0.444530,-0.327589,-0.000000
1.410000,-2.180663,-1.425461,-1.412473,0.517167,0.892547,0.303660,0.464716,0.573792,0.780599,3.189920,4.109034,-3.682864,6.283818,-12.295327,-32.624650,0.063378,-0.051422,0.000000,0.425789,-0.330746,0.000000
1.420000,-2.175468,-1.416506,-1.409398,0.521975,0.898488,0.311276,0.496908,0.614239,0.742152,3.246157,3.977572,-4.005297,4.957411,-13.988431,-31.833626,0.067534,-0.054744,0.000000,0.405027,-0.332023,0.000000
1.430000,-2.170223,-1.407490,-1.406249,0.527107,0.904827,0.318492,0.529595,0.653288,0.700523,3.288965,3.829454,-4.318978,3.599888,-15.625104,-30.875095,0.071472,-0.058071,0.000000,0.382385,-0.331513,0.000000
1.440000,-2.164924,-1.398408,-1.403030,0.532568,0.911549,0.325276,0.562641,0.690775,0.655807,3.318083,3.665286,-4.622251,2.221112,-17.196969,-29.752344,0.075176,-0.061385,0.000000,0.358050,-0.329252,-0.000000
1.450000,-2.159570,-1.389258,-1.399745,0.538361,0.918637,0.331598,0.595910,0.726543,0.608118,3.333349,3.485758,-4.913489,0.830943,-18.695651,-28.468657,0.078628,-0.064669,0.000000,0.332218,-0.325290,-0.000000
1.460000,-2.154156,-1.380034,-1.396400,0.544486,0.926074,0.337430,0.629258,0.760433,0.557562,3.334388,3.290852,-5.192961,-0.552935,-20.092750,-26.980277,0.081815,-0.067905,0.000000,0.304993,-0.319652,-0.000000
1.470000,-2.148679,-1.370735,-1.392998,0.550946,0.933839,0.342741,0.662552,0.792315,0.504311,3.321966,3.083301,-5.454699,-1.929441,-21.402365,-25.343294,0.084725,-0.071079,0.000000,0.276823,-0.312533,0.000000
1.480000,-2.143136,-1.361356,-1.389547,0.557737,0.941913,0.347507,0.695652,0.822057,0.448525,3.295853,2.863116,-5.699362,-3.289671,-22.618570,-23.566754,0.087348,-0.074174,0.000000,0.247799,-0.303977,0.000000
1.490000,-2.137523,-1.351896,-1.386050,0.564858,0.950273,0.351704,0.728424,0.849538,0.390385,3.256256,2.631261,-5.925599,-4.624723,-23.735442,-21.659705,0.089679,-0.077177,0.000000,0.218124,-0.294090,-0.000000
1.500000,-2.131838,-1.342350,-1.382515,0.572304,0.958896,0.355308,0.760733,0.874647,0.330079,3.203472,2.388758,-6.132151,-5.925692,-24.747055,-19.631192,0.091709,-0.080075,0.000000,0.187996,-0.282989,0.000000
1.510000,-2.126076,-1.332717,-1.378946,0.580071,0.967758,0.358299,0.792437,0.897268,0.267797,3.136604,2.135475,-6.319189,-7.151297,-25.616805,-17.456410,0.093436,-0.082855,0.000000,0.157469,-0.270652,-0.000000
1.520000,-2.120235,-1.322994,-1.375351,0.588151,0.976833,0.360658,0.823425,0.917329,0.203769,3.059160,1.875430,-6.482460,-8.328978,-26.373205,-15.182402,0.094859,-0.085509,0.000000,0.127052,-0.257548,0.000000
1.530000,-2.114312,-1.313180,-1.371735,0.596536,0.986096,0.362370,0.853581,0.934753,0.138225,2.970200,1.608396,-6.622550,-9.453795,-27.014086,-12.822360,0.095978,-0.088027,0.000000,0.096756,-0.243636,-0.000000
1.540000,-2.108304,-1.303272,-1.368105,0.605219,0.995519,0.363419,0.882793,0.949478,0.071398,2.870277,1.335541,-6.738664,-10.520811,-27.537280,-10.389477,0.096795,-0.090402,0.000000,0.066737,-0.229039,0.000000
1.550000,-2.102207,-1.293269,-1.364469,0.614189,1.005076,0.363794,0.910952,0.961449,0.003534,2.759993,1.058050,-6.830141,-11.525086,-27.940620,-7.896942,0.097314,-0.092627,0.000000,0.037135,-0.213876,0.000000
1.560000,-2.096019,-1.283170,-1.360832,0.623435,1.014739,0.363487,0.937947,0.970610,-0.065125,2.638741,0.775566,-6.896846,-12.429844,-28.182320,-5.347897,0.097538,-0.094697,0.000000,0.007922,-0.198134,-0.000000
1.570000,-2.089737,-1.272974,-1.357201,0.632944,1.024479,0.362490,0.963698,0.976954,-0.134318,2.510204,0.493033,-6.937440,-13.265883,-28.304681,-2.766816,0.097474,-0.096608,0.000000,-0.020409,-0.182230,-0.000000
1.580000,-2.083359,-1.262680,-1.353584,0.642704,1.034269,0.360800,0.988124,0.980469,-0.203787,2.373655,0.209862,-6.952124,-14.032162,-28.310386,-0.168120,0.097132,-0.098358,0.000000,-0.047941,-0.166120,-0.000000
1.590000,-2.076882,-1.252288,-1.349988,0.652702,1.044079,0.358414,1.011147,0.981153,-0.273273,2.229797,-0.072795,-6.940792,-14.727641,-28.202119,2.433767,0.096519,-0.099946,0.000000,-0.074592,-0.149896,0.000000
1.600000,-2.070305,-1.241799,-1.346418,0.662922,1.053882,0.355335,1.032698,0.979018,-0.342516,2.079342,-0.353810,-6.903486,-15.351281,-27.982562,5.024423,0.095643,-0.101370,0.000000,-0.100292,-0.133642,0.000000
1.610000,-2.063623,-1.231211,-1.342883,0.673351,1.063651,0.351565,1.052703,0.974073,-0.411251,1.921948,-0.633303,-6.839825,-15.875122,-27.623596,7.575165,0.094515,-0.102630,0.000000,-0.125096,-0.117339,0.000000
1.620000,-2.056837,-1.220526,-1.339389,0.683971,1.073355,0.347112,1.071121,0.966366,-0.479229,1.760873,-0.907316,-6.751474,-16.328339,-27.162480,10.087577,0.093145,-0.103728,0.000000,-0.148695,-0.101286,-0.000000
1.630000,-2.049943,-1.209744,-1.335943,0.694768,1.082969,0.341984,1.087906,0.955943,-0.546198,1.595610,-1.176234,-6.638243,-16.713189,-26.605667,12.548984,0.091545,-0.104665,0.000000,-0.171185,-0.085431,-0.000000
1.640000,-2.042941,-1.198867,-1.332552,0.705724,1.092465,0.336192,1.103021,0.942861,-0.611912,1.426830,-1.439132,-6.500706,-17.031927,-25.959613,14.946709,0.089725,-0.105444,0.000000,-0.192546,-0.069823,0.000000
1.650000,-2.035828,-1.187895,-1.329222,0.716823,1.101818,0.329751,1.116433,0.927184,-0.676133,1.255184,-1.695150,-6.339564,-17.286811,-25.230774,17.268075,0.087698,-0.106068,0.000000,-0.212771,-0.054502,0.000000
1.660000,-2.028604,-1.176831,-1.325959,0.728047,1.111001,0.322675,1.128111,0.908978,-0.738614,1.080703,-1.944030,-6.154368,-17.465051,-24.412044,19.468247,0.085473,-0.106539,0.000000,-0.231897,-0.039458,-0.000000
1.670000,-2.021267,-1.165676,-1.322770,0.739379,1.119989,0.314985,1.138042,0.888332,-0.799149,0.905403,-2.183769,-5.949089,-17.585791,-23.525099,21.570646,0.083063,-0.106861,0.000000,-0.249840,-0.024818,0.000000
1.680000,-2.013816,-1.154432,-1.319661,0.750802,1.128759,0.306699,1.146216,0.865333,-0.857527,0.729166,-2.414332,-5.723310,-17.653129,-22.578053,23.566534,0.080480,-0.107038,0.000000,-0.266659,-0.010549,-0.000000
1.690000,-2.006251,-1.143101,-1.316638,0.762298,1.137288,0.297842,1.152624,0.840077,-0.913550,0.552505,-2.635157,-5.478142,-17.671163,-21.579022,25.447173,0.077734,-0.107074,0.000000,-0.282378,0.003338,-0.000000
1.700000,-1.998570,-1.131687,-1.313706,0.773849,1.145554,0.288437,1.157266,0.812664,-0.967030,0.375893,-2.845766,-5.214780,-17.643991,-20.536121,27.203826,0.074836,-0.106973,0.000000,-0.297023,0.016839,-0.000000
1.710000,-1.990774,-1.120191,-1.310871,0.785437,1.153535,0.278510,1.160143,0.783200,-1.017772,0.199691,-3.045548,-4.932914,-17.573914,-19.462825,28.787502,0.071797,-0.106738,0.000000,-0.310599,0.029949,-0.000000
1.720000,-1.982861,-1.108617,-1.308138,0.797046,1.161211,0.268090,1.161263,0.751789,-1.065637,0.024457,-3.234689,-4.637688,-17.467049,-18.361234,30.234644,0.068627,-0.106373,0.000000,-0.323214,0.042695,-0.000000
1.730000,-1.974833,-1.096968,-1.305511,0.808657,1.168564,0.257207,1.160636,0.718543,-1.110480,-0.149542,-3.412703,-4.328689,-17.327712,-17.238805,31.541442,0.065336,-0.105883,0.000000,-0.334872,0.055080,-0.000000
1.740000,-1.966688,-1.085247,-1.302995,0.820253,1.175576,0.245891,1.158277,0.683573,-1.152170,-0.322003,-3.579420,-4.007340,-17.160223,-16.102998,32.704086,0.061933,-0.105271,0.000000,-0.345617,0.067120,0.000000
1.750000,-1.958428,-1.073458,-1.300594,0.831816,1.182230,0.234175,1.154202,0.646993,-1.190591,-0.492667,-3.734743,-3.675101,-16.968900,-14.961273,33.718769,0.058427,-0.104539,0.000000,-0.355491,0.078834,-0.000000
1.760000,-1.950052,-1.061604,-1.298313,0.843331,1.188511,0.222090,1.148434,0.608927,-1.225624,-0.661030,-3.877702,-3.331903,-16.765282,-13.845064,34.542082,0.054827,-0.103693,0.000000,-0.364449,0.090205,0.000000
1.770000,-1.941561,-1.049689,-1.296154,0.854779,1.194404,0.209673,1.140989,0.569476,-1.257204,-0.827597,-4.010595,-2.982994,-16.545583,-12.734918,35.214662,0.051140,-0.102733,0.000000,-0.372759,0.101356,0.000000
1.780000,-1.932957,-1.037717,-1.294120,0.866145,1.199896,0.196958,1.131889,0.528751,-1.285264,-0.991900,-4.132435,-2.628109,-16.313236,-11.635357,35.737549,0.047374,-0.101664,0.000000,-0.380359,0.112267,-0.000000
1.790000,-1.924239,-1.025692,-1.292215,0.877412,1.204975,0.183980,1.121159,0.486864,-1.309751,-1.153831,-4.243352,-2.268739,-16.071676,-10.550905,36.111782,0.043535,-0.100486,0.000000,-0.387292,0.122967,0.000000
1.800000,-1.915409,-1.013619,-1.290441,0.888563,1.209630,0.170775,1.108821,0.443920,-1.330628,-1.313314,-4.343519,-1.906365,-15.824337,-9.486085,36.338400,0.039630,-0.099203,0.000000,-0.393603,0.133488,-0.000000
1.810000,-1.906468,-1.001501,-1.288801,0.899583,1.213850,0.157379,1.094907,0.400033,-1.347860,-1.469693,-4.432688,-1.541257,-15.590236,-8.457194,36.388086,0.035666,-0.097816,0.000000,-0.399288,0.143796,0.000000
1.820000,-1.897418,-0.989344,-1.287294,0.910456,1.217628,0.143830,1.079435,0.355300,-1.361454,-1.624421,-4.512228,-1.177721,-15.355317,-7.455538,36.295953,0.031646,-0.096325,0.000000,-0.404495,0.154078,-0.000000
1.830000,-1.888259,-0.977150,-1.285924,0.921166,1.220954,0.130162,1.062427,0.309822,-1.371420,-1.776801,-4.581900,-0.815795,-15.121104,-6.484200,36.066757,0.027577,-0.094733,0.000000,-0.409211,0.164293,0.000000
1.840000,-1.878995,-0.964926,-1.284691,0.931699,1.223822,0.116413,1.043906,0.263694,-1.377780,-1.926850,-4.642023,-0.456827,-14.889126,-5.546259,35.705255,0.023464,-0.093038,0.000000,-0.413473,0.174471,-0.000000
1.850000,-1.869626,-0.952675,-1.283596,0.942039,1.226226,0.102618,1.023897,0.217012,-1.380571,-2.074596,-4.692947,-0.102115,-14.660908,-4.644797,35.216202,0.019309,-0.091242,0.000000,-0.417316,0.184642,-0.000000
1.860000,-1.860155,-0.940403,-1.282639,0.952172,1.228160,0.088813,1.002429,0.169883,-1.379831,-2.219441,-4.733354,0.247955,-14.454254,-3.825752,34.582449,0.015120,-0.089345,0.000000,-0.420623,0.194774,0.000000
1.870000,-1.850583,-0.928114,-1.281820,0.962083,1.229622,0.075033,0.979515,0.122371,-1.375635,-2.362971,-4.767673,0.590127,-14.252419,-3.044100,33.833341,0.010898,-0.087346,0.000000,-0.423786,0.205046,0.000000
1.880000,-1.840914,-0.915812,-1.281138,0.971758,1.230606,0.061312,0.955176,0.074555,-1.368055,-2.504504,-4.794354,0.924262,-14.054936,-2.297676,32.976316,0.006645,-0.085244,0.000000,-0.426660,0.215412,-0.000000
1.890000,-1.831149,-0.903503,-1.280593,0.981182,1.231112,0.047683,0.929432,0.026509,-1.357180,-2.644083,-4.813737,1.249319,-13.861337,-1.584312,32.018815,0.002366,-0.083037,0.000000,-0.429264,0.225896,0.000000
1.900000,-1.821291,-0.891192,-1.280184,0.990342,1.231136,0.034179,0.902301,-0.021696,-1.343103,-2.781742,-4.826143,1.564329,-13.671156,-0.901842,30.968274,-0.001939,-0.080726,0.000000,-0.431616,0.236519,-0.000000
1.910000,-1.811343,-0.878882,-1.279909,0.999223,1.230678,0.020831,0.873813,-0.069992,-1.325927,-2.916606,-4.831839,1.868623,-13.506900,-0.248859,29.826481,-0.006266,-0.078307,0.000000,-0.433723,0.247216,0.000000
1.920000,-1.801308,-0.866580,-1.279767,1.007813,1.229736,0.007670,0.843974,-0.118312,-1.305770,-3.050854,-4.831174,2.160852,-13.342315,0.377655,28.607220,-0.010613,-0.075780,0.000000,-0.435598,0.258199,-0.000000
1.930000,-1.791188,-0.854289,-1.279755,1.016098,1.228312,-0.005275,0.812802,-0.166595,-1.282752,-3.183440,-4.824367,2.440536,-13.174118,0.979961,27.318620,-0.014977,-0.073142,0.000000,-0.437242,0.269386,-0.000000
1.940000,-1.780987,-0.842015,-1.279872,1.024065,1.226405,-0.017976,0.780311,-0.214780,-1.257003,-3.314313,-4.811648,2.707021,-12.999030,1.560318,25.968814,-0.019357,-0.070391,0.000000,-0.438652,0.280782,-0.000000
1.950000,-1.770708,-0.829762,-1.280114,1.031700,1.224017,-0.030406,0.746521,-0.262809,-1.228657,-3.443387,-4.793226,2.959735,-12.813771,2.120987,24.565933,-0.023749,-0.067525,0.000000,-0.439823,0.292386,0.000000
1.960000,-1.760354,-0.817536,-1.280479,1.038991,1.221149,-0.042541,0.711453,-0.310630,-1.197856,-3.570236,-4.769696,3.198167,-12.622829,2.674558,23.118691,-0.028153,-0.064542,0.000000,-0.440783,0.304166,0.000000
1.970000,-1.749929,-0.805341,-1.280963,1.045925,1.217805,-0.054355,0.675123,-0.358184,-1.164743,-3.695438,-4.740251,3.421960,-12.414204,3.211694,21.634563,-0.032564,-0.061439,0.000000,-0.441431,0.316176,0.000000
1.980000,-1.739437,-0.793182,-1.281565,1.052489,1.213987,-0.065828,0.637552,-0.405417,-1.129467,-3.818447,-4.705513,3.630762,-12.183662,3.733390,20.121611,-0.036980,-0.058214,0.000000,-0.441795,0.328369,0.000000
1.990000,-1.728881,-0.781063,-1.282279,1.058672,1.209698,-0.076938,0.598762,-0.452277,-1.092178,-3.939024,-4.665631,3.824323,-11.926971,4.240641,18.587893,-0.041399,-0.054866,0.000000,-0.441858,0.340720,-0.000000
2.000000,-1.718265,-0.768989,-1.283102,1.064460,1.204943,-0.087666,0.558780,-0.498713,-1.053032,-4.056885,-4.620745,4.002477,-11.639901,4.734441,17.041470,-0.045817,-0.051393,0.000000,-0.441601,0.353199,-0.000000
2.010000,-1.707593,-0.756966,-1.284031,1.069844,1.199725,-0.097993,0.517629,-0.544671,-1.012182,-4.172226,-4.570493,4.165023,-11.305096,5.203380,15.493286,-0.050229,-0.047794,0.000000,-0.440958,0.365817,0.000000
2.020000,-1.696869,-0.744996,-1.285061,1.074809,1.194051,-0.107904,0.475348,-0.590108,-0.969783,-4.283449,-4.516157,4.312224,-10.933055,5.662376,13.948163,-0.054635,-0.044068,0.000000,-0.440015,0.378417,-0.000000
2.030000,-1.686098,-0.733086,-1.286187,1.079347,1.187925,-0.117384,0.431973,-0.634979,-0.925989,-4.390754,-4.457270,4.444022,-10.521150,6.113943,12.413806,-0.059028,-0.040214,0.000000,-0.438697,0.391004,0.000000
2.040000,-1.675284,-0.721239,-1.287407,1.083445,1.181353,-0.126420,0.387547,-0.679238,-0.880953,-4.493730,-4.393894,4.560562,-10.066757,6.560595,10.897922,-0.063407,-0.036234,0.000000,-0.436976,0.403523,-0.000000
2.050000,-1.664431,-0.709460,-1.288714,1.087094,1.174342,-0.134999,0.342115,-0.722842,-0.834828,-4.591939,-4.326066,4.662068,-9.567250,7.004846,9.408218,-0.067766,-0.032128,0.000000,-0.434822,0.415914,-0.000000
2.060000,-1.653543,-0.697754,-1.290105,1.090285,1.166899,-0.143113,0.295720,-0.765757,-0.787768,-4.685417,-4.254898,4.748171,-9.007352,7.477018,7.969276,-0.072103,-0.027897,0.000000,-0.432304,0.428162,0.000000
2.070000,-1.642626,-0.686124,-1.291575,1.093006,1.159030,-0.150752,0.248426,-0.807924,-0.739911,-4.772488,-4.177770,4.820832,-8.398638,7.948411,6.569859,-0.076411,-0.023543,0.000000,-0.429155,0.440080,0.000000
2.080000,-1.631685,-0.674575,-1.293119,1.095250,1.150743,-0.157909,0.200292,-0.849296,-0.691397,-4.853223,-4.095935,4.879719,-7.740034,8.418134,5.215607,-0.080684,-0.019071,0.000000,-0.425457,0.451649,-0.000000
2.090000,-1.620723,-0.663110,-1.294732,1.097009,1.142047,-0.164578,0.151384,-0.889827,-0.642361,-4.927119,-4.009416,4.925313,-7.030464,8.885293,3.912161,-0.084918,-0.014482,0.000000,-0.421181,0.462792,0.000000
2.100000,-1.609746,-0.651735,-1.296409,1.098276,1.132950,-0.170755,0.101774,-0.929469,-0.592934,-4.993659,-3.918241,4.958150,-6.268851,9.348999,2.665161,-0.089106,-0.009783,0.000000,-0.416304,0.473430,-0.000000
2.110000,-1.598759,-0.640453,-1.298145,1.099043,1.123461,-0.176436,0.051530,-0.968180,-0.543249,-5.052990,-3.822802,4.977860,-5.437163,9.817249,1.504569,-0.093242,-0.004977,0.000000,-0.410827,0.483544,-0.000000
2.120000,-1.587767,-0.629267,-1.299936,1.099305,1.113589,-0.181619,0.000743,-1.005910,-0.493414,-5.102986,-3.722314,4.987372,-4.553356,10.279173,0.408723,-0.097320,-0.000072,0.000000,-0.404674,0.492893,0.000000
2.130000,-1.576775,-0.618182,-1.301776,1.099056,1.103346,-0.186304,-0.050500,-1.042611,-0.443537,-5.143887,-3.617247,4.986259,-3.618433,10.732791,-0.619714,-0.101334,0.004925,0.000000,-0.397858,0.501467,0.000000
2.140000,-1.565788,-0.607201,-1.303660,1.098293,1.092741,-0.190490,-0.102103,-1.078240,-0.393722,-5.175187,-3.507693,4.975211,-2.633392,11.176123,-1.578081,-0.105275,0.010006,0.000000,-0.390370,0.509179,-0.000000
2.150000,-1.554811,-0.596329,-1.305584,1.097013,1.081785,-0.194179,-0.153970,-1.112751,-0.344064,-5.196391,-3.393765,4.954940,-1.599234,11.607190,-2.463716,-0.109139,0.015162,0.000000,-0.382207,0.515947,0.000000
2.160000,-1.543849,-0.585567,-1.307542,1.095214,1.070490,-0.197372,-0.206002,-1.146104,-0.294665,-5.207567,-3.275841,4.924988,-0.502924,12.030183,-3.243648,-0.112917,0.020384,0.000000,-0.373379,0.521737,0.000000
2.170000,-1.532908,-0.574920,-1.309530,1.092893,1.058867,-0.200073,-0.258084,-1.178254,-0.245589,-5.206925,-3.153493,4.888962,0.638783,12.436195,-3.949236,-0.116604,0.025660,0.000000,-0.363868,0.526345,-0.000000
2.180000,-1.521993,-0.564391,-1.311542,1.090052,1.046929,-0.202285,-0.310101,-1.209160,-0.196908,-5.194649,-3.027183,4.846247,1.823168,12.822488,-4.581531,-0.120192,0.030979,0.000000,-0.353698,0.529752,-0.000000
2.190000,-1.511109,-0.553982,-1.313574,1.086692,1.034688,-0.204012,-0.361937,-1.238785,-0.148684,-5.170328,-2.897119,4.797572,3.047514,13.186326,-5.141582,-0.123676,0.036328,0.000000,-0.342888,0.531885,-0.000000
2.200000,-1.500261,-0.543698,-1.315620,1.082814,1.022157,-0.205260,-0.413467,-1.267091,-0.100974,-5.133575,-2.763540,4.743653,4.309099,13.524973,-5.630439,-0.127048,0.041694,0.000000,-0.331462,0.532673,0.000000
2.210000,-1.489454,-0.533540,-1.317677,1.078424,1.009351,-0.206033,-0.464570,-1.294043,-0.053838,-5.084451,-2.626594,4.684044,5.615816,13.832701,-6.020022,-0.130303,0.047064,0.000000,-0.319422,0.532090,0.000000
2.220000,-1.478694,-0.523512,-1.319740,1.073525,0.996281,-0.206339,-0.515112,-1.319613,-0.007305,-5.021631,-2.486853,4.622171,6.953037,14.110131,-6.344077,-0.133435,0.052422,0.000000,-0.306869,0.529986,0.000000
2.230000,-1.467985,-0.513615,-1.321803,1.068124,0.982963,-0.206182,-0.564958,-1.343772,0.038595,-4.945302,-2.344500,4.557365,8.316743,14.354896,-6.607222,-0.136439,0.057753,0.000000,-0.293812,0.526352,0.000000
2.240000,-1.457333,-0.503853,-1.323862,1.062229,0.969410,-0.205569,-0.613972,-1.366495,0.083835,-4.855221,-2.199872,4.490214,9.702915,14.564625,-6.814073,-0.139309,0.063042,0.000000,-0.280296,0.521139,0.000000
2.250000,-1.446742,-0.494228,-1.325912,1.055848,0.955638,-0.204507,-0.662015,-1.387763,0.128394,-4.751182,-2.053332,4.421256,11.107536,14.736949,-6.969247,-0.142043,0.068272,0.000000,-0.266370,0.514308,-0.000000
2.260000,-1.436218,-0.484741,-1.327950,1.048992,0.941660,-0.203003,-0.708952,-1.407553,0.172247,-4.633330,-1.904881,4.350199,12.534380,14.859780,-7.057491,-0.144635,0.073428,0.000000,-0.252035,0.505847,0.000000
2.270000,-1.425764,-0.475395,-1.329971,1.041673,0.927492,-0.201064,-0.754634,-1.425857,0.215395,-4.500811,-1.755839,4.279353,13.970683,14.941656,-7.105725,-0.147083,0.078490,0.000000,-0.237467,0.495668,0.000000
2.280000,-1.415386,-0.466192,-1.331970,1.033904,0.913148,-0.198698,-0.798920,-1.442668,0.257833,-4.353902,-1.606188,4.208195,15.411470,14.981398,-7.120999,-0.149384,0.083443,0.000000,-0.222667,0.483778,0.000000
2.290000,-1.405088,-0.457133,-1.333944,1.025700,0.898643,-0.195910,-0.841664,-1.457980,0.299559,-4.192583,-1.456356,4.137019,16.851771,14.977828,-7.110361,-0.151536,0.088269,0.000000,-0.207692,0.470162,0.000000
2.300000,-1.394873,-0.448220,-1.335887,1.017077,0.883993,-0.192709,-0.882724,-1.471795,0.340574,-4.016885,-1.306780,4.066050,18.286612,14.929764,-7.080862,-0.153537,0.092950,0.000000,-0.192602,0.454809,0.000000
2.310000,-1.384747,-0.439453,-1.337796,1.008052,0.869212,-0.189101,-0.921957,-1.484113,0.380879,-3.827117,-1.157393,3.995243,19.716870,14.822897,-7.034552,-0.155387,0.097468,0.000000,-0.177399,0.437738,0.000000
2.320000,-1.374714,-0.430836,-1.339668,0.998644,0.854316,-0.185093,-0.959219,-1.494948,0.420481,-3.622862,-1.009887,3.925150,21.131007,14.670787,-6.984092,-0.157085,0.101805,0.000000,-0.162277,0.418899,0.000000
2.330000,-1.364776,-0.422367,-1.341497,0.988874,0.839318,-0.180694,-0.994367,-1.504316,0.459384,-3.404570,-0.864126,3.855550,22.523335,14.473861,-6.937144,-0.158633,0.105944,0.000000,-0.147229,0.398323,0.000000
2.340000,-1.354937,-0.414050,-1.343280,0.978764,0.824234,-0.175908,-1.027264,-1.512237,0.497593,-3.172487,-0.720557,3.786370,23.888166,14.232548,-6.901370,-0.160030,0.109867,0.000000,-0.132309,0.376023,-0.000000
2.350000,-1.345201,-0.405883,-1.345014,0.968337,0.809078,-0.170744,-1.057772,-1.518736,0.535112,-2.926917,-0.579622,3.717460,25.219811,13.947278,-6.884432,-0.161279,0.113556,0.000000,-0.117570,0.352018,0.000000
2.360000,-1.335571,-0.397868,-1.346694,0.957617,0.793864,-0.165208,-1.085760,-1.523834,0.571948,-2.668366,-0.441219,3.649066,26.516262,13.604887,-6.905952,-0.162382,0.116995,0.000000,-0.103014,0.326352,0.000000
2.370000,-1.326050,-0.390006,-1.348317,0.946631,0.778606,-0.159308,-1.111097,-1.527572,0.608092,-2.396906,-0.307056,3.579766,27.767699,13.221059,-6.960167,-0.163341,0.120165,0.000000,-0.088800,0.299001,-0.000000
2.380000,-1.316640,-0.382296,-1.349879,0.935405,0.763317,-0.153049,-1.133657,-1.529989,0.643540,-2.113183,-0.176929,3.509733,28.967985,12.797887,-7.053274,-0.164159,0.123050,0.000000,-0.074918,0.270022,-0.000000
2.390000,-1.307343,-0.374740,-1.351377,0.923967,0.748010,-0.146439,-1.153321,-1.531126,0.678283,-1.817737,-0.051222,3.438550,30.110979,12.337463,-7.191471,-0.164840,0.125633,0.000000,-0.061405,0.239453,0.000000
2.400000,-1.298161,-0.367336,-1.352807,0.912348,0.732699,-0.139486,-1.169975,-1.531029,0.712306,-1.511174,0.069703,3.365733,31.190542,11.841880,-7.380955,-0.165388,0.127899,0.000000,-0.048294,0.207337,0.000000
2.410000,-1.289096,-0.360086,-1.354165,0.900578,0.717394,-0.132196,-1.183510,-1.529744,0.745602,-1.194142,0.185962,3.291843,32.200125,11.301701,-7.655818,-0.165807,0.129832,0.000000,-0.035584,0.173738,0.000000
2.420000,-1.280150,-0.352988,-1.355449,0.888689,0.702107,-0.124576,-1.193825,-1.527329,0.778133,-0.867406,0.296153,3.213661,33.134050,10.731960,-7.990947,-0.166102,0.131417,0.000000,-0.023371,0.138678,0.000000
2.430000,-1.271323,-0.346043,-1.356656,0.876713,0.686851,-0.116636,-1.200828,-1.523840,0.809863,-0.531734,0.400514,3.131814,33.986227,10.136161,-8.389123,-0.166276,0.132640,0.000000,-0.011640,0.102233,0.000000
2.440000,-1.262616,-0.339251,-1.357781,0.864683,0.671634,-0.108382,-1.204433,-1.519339,0.840755,-0.187974,0.498801,3.045659,34.750568,9.517808,-8.853128,-0.166336,0.133486,0.000000,-0.000406,0.064475,0.000000
2.450000,-1.254029,-0.332610,-1.358822,0.852635,0.656467,-0.099824,-1.204564,-1.513885,0.870760,0.162964,0.590807,2.954523,35.420983,8.880405,-9.385742,-0.166286,0.133943,0.000000,0.010321,0.025481,-0.000000
2.460000,-1.245563,-0.326121,-1.359777,0.840604,0.641359,-0.090970,-1.201150,-1.507541,0.899843,0.520428,0.676633,2.859258,35.983415,8.220495,-10.028930,-0.166131,0.133999,0.000000,0.020538,-0.014674,0.000000
2.470000,-1.237217,-0.319783,-1.360641,0.828624,0.626319,-0.081831,-1.194138,-1.500375,0.927923,0.882638,0.755490,2.755463,36.440720,7.549397,-10.741494,-0.165877,0.133642,0.000000,0.030240,-0.055864,0.000000
2.480000,-1.228990,-0.313595,-1.361412,0.816733,0.611354,-0.072415,-1.183484,-1.492454,0.954927,1.248875,0.827598,2.644203,36.787784,6.871467,-11.521415,-0.165528,0.132863,0.000000,0.039433,-0.097993,-0.000000
2.490000,-1.220882,-0.307556,-1.362088,0.804967,0.596472,-0.062736,-1.169151,-1.483845,0.980780,1.618009,0.892911,2.524816,37.019495,6.191061,-12.366679,-0.165090,0.131652,0.000000,0.048125,-0.140942,-0.000000
2.500000,-1.212890,-0.301665,-1.362666,0.793363,0.581679,-0.052804,-1.151118,-1.474618,1.005394,1.988863,0.951426,2.396659,37.130739,5.512537,-13.275269,-0.164567,0.130003,0.000000,0.056327,-0.184575,-0.000000
2.510000,-1.205014,-0.295922,-1.363143,0.781957,0.566981,-0.042633,-1.129364,-1.464839,1.028699,2.360965,1.003191,2.260770,37.097219,4.840044,-14.287178,-0.163965,0.127908,0.000000,0.064025,-0.228805,-0.000000
2.520000,-1.197250,-0.290325,-1.363518,0.770787,0.552384,-0.032235,-1.103902,-1.454576,1.050575,2.731236,1.048271,2.112610,36.935356,4.178172,-15.353235,-0.163288,0.125364,0.000000,0.071311,-0.273326,-0.000000
2.530000,-1.189597,-0.284874,-1.363787,0.759891,0.537891,-0.021627,-1.074747,-1.443896,1.070915,3.099235,1.086804,1.953549,36.642385,3.531302,-16.466281,-0.162541,0.122367,0.000000,0.078172,-0.318027,-0.000000
2.540000,-1.182051,-0.279567,-1.363950,0.749305,0.523507,-0.010823,-1.041929,-1.432862,1.089608,3.463637,1.118962,1.783152,36.215541,2.903816,-17.619155,-0.161726,0.118918,0.000000,0.084631,-0.362714,0.000000
2.550000,-1.174610,-0.274403,-1.364003,0.739065,0.509235,0.000160,-1.005491,-1.421537,1.106539,3.823090,1.144960,1.601057,35.652061,2.300096,-18.804696,-0.160849,0.115018,0.000000,0.090716,-0.407179,0.000000
2.560000,-1.167269,-0.269382,-1.363946,0.729206,0.495077,0.011302,-0.965475,-1.409985,1.121604,4.177471,1.164757,1.408291,34.917432,1.732122,-20.049029,-0.159914,0.110668,0.000000,0.096394,-0.451321,0.000000
2.570000,-1.160024,-0.264501,-1.363777,0.719766,0.481036,0.022585,-0.921968,-1.398260,1.134663,4.522396,1.179369,1.201514,34.044525,1.195748,-21.307634,-0.158922,0.105877,0.000000,0.101838,-0.494605,-0.000000
2.580000,-1.152872,-0.259761,-1.363494,0.710778,0.467113,0.033988,-0.875058,-1.386415,1.145592,4.857904,1.188789,0.982128,33.034465,0.694425,-22.569272,-0.157878,0.100653,0.000000,0.107009,-0.536918,-0.000000
2.590000,-1.145807,-0.255159,-1.363097,0.702276,0.453308,0.045489,-0.824846,-1.374501,1.154264,5.182631,1.193385,0.750156,31.888376,0.231604,-23.822709,-0.156783,0.095008,0.000000,0.111938,-0.578001,0.000000
2.600000,-1.138825,-0.250694,-1.362584,0.694292,0.439623,0.057065,-0.771446,-1.362562,1.160554,5.495222,1.193561,0.505738,30.607380,-0.189262,-25.056707,-0.155640,0.088955,0.000000,0.116652,-0.617582,-0.000000
2.610000,-1.131920,-0.246366,-1.361955,0.686857,0.426057,0.068692,-0.714969,-1.350649,1.164343,5.795956,1.189153,0.249609,29.151610,-0.549600,-26.272259,-0.154451,0.082509,0.000000,0.121103,-0.655567,0.000000
2.620000,-1.125086,-0.242173,-1.361210,0.680002,0.412610,0.080343,-0.655577,-1.338791,1.165506,6.079659,1.182050,-0.019016,27.568201,-0.862931,-27.444403,-0.153218,0.075693,0.000000,0.125504,-0.691249,0.000000
2.630000,-1.118317,-0.238113,-1.360348,0.673755,0.399281,0.091993,-0.593430,-1.327018,1.163925,6.346915,1.172056,-0.299092,25.863295,-1.127659,-28.560404,-0.151942,0.068528,0.000000,0.129791,-0.724557,0.000000
2.640000,-1.111609,-0.234187,-1.359370,0.668142,0.386069,0.103612,-0.528698,-1.315357,1.159488,6.596540,1.159664,-0.589995,24.043035,-1.342181,-29.607531,-0.150623,0.061042,0.000000,0.133987,-0.755227,-0.000000
2.650000,-1.104952,-0.230391,-1.358276,0.663189,0.372973,0.115172,-0.461562,-1.303831,1.152091,6.827412,1.145385,-0.890971,22.113565,-1.504900,-30.573048,-0.149262,0.053261,0.000000,0.138110,-0.783007,0.000000
2.660000,-1.098343,-0.226727,-1.357067,0.658917,0.359992,0.126644,-0.392198,-1.292463,1.141630,7.040095,1.128952,-1.201841,20.039932,-1.594194,-31.426553,-0.147862,0.045214,0.000000,0.142099,-0.807848,0.000000
2.670000,-1.091772,-0.223191,-1.355744,0.655351,0.347124,0.137995,-0.320831,-1.281254,1.128028,7.229739,1.112783,-1.519941,17.874406,-1.630937,-32.175145,-0.146420,0.036937,0.000000,0.146157,-0.829088,0.000000
2.680000,-1.085233,-0.219784,-1.354308,0.652507,0.334366,0.149194,-0.247677,-1.270208,1.111209,7.397314,1.096505,-1.844959,15.628163,-1.615979,-32.808255,-0.144938,0.028465,0.000000,0.150203,-0.846757,-0.000000
2.690000,-1.078719,-0.216504,-1.352761,0.650402,0.321719,0.160208,-0.172961,-1.259322,1.091110,7.542070,1.080633,-2.175686,13.312378,-1.550173,-33.315312,-0.143416,0.019835,0.000000,0.154244,-0.860706,-0.000000
2.700000,-1.072223,-0.213349,-1.351104,0.649052,0.309180,0.171005,-0.096914,-1.248592,1.067680,7.663367,1.065669,-2.510810,10.938225,-1.434371,-33.685747,-0.141854,0.011085,0.000000,0.158285,-0.870823,-0.000000
2.710000,-1.065736,-0.210320,-1.349341,0.648468,0.296747,0.181551,-0.019762,-1.238013,1.040863,7.761700,1.051332,-2.850754,8.491036,-1.249798,-33.862427,-0.140251,0.002254,0.000000,0.162269,-0.877146,0.000000
2.720000,-1.059251,-0.207414,-1.347474,0.648659,0.284419,0.191811,0.058238,-1.227558,1.010662,7.834232,1.039949,-3.189630,6.010994,-1.019334,-33.887047,-0.138608,-0.006618,0.000000,0.166333,-0.879367,-0.000000
2.730000,-1.052760,-0.204631,-1.345506,0.649634,0.272195,0.201753,0.136839,-1.217205,0.977073,7.881859,1.031087,-3.527972,3.512439,-0.746237,-33.754739,-0.136924,-0.015491,0.000000,0.170408,-0.877635,-0.000000
2.740000,-1.046255,-0.201970,-1.343440,0.651397,0.260075,0.211342,0.215792,-1.206927,0.940109,7.904467,1.025156,-3.864186,1.009710,-0.433760,-33.460633,-0.135200,-0.024324,0.000000,0.174488,-0.872007,-0.000000
2.750000,-1.039729,-0.199429,-1.341281,0.653950,0.248057,0.220544,0.294845,-1.196691,0.899801,7.902087,1.022533,-4.196629,-1.482852,-0.085159,-32.999863,-0.133435,-0.033079,0.000000,0.178568,-0.862584,0.000000
2.760000,-1.033174,-0.197008,-1.339031,0.657294,0.236141,0.229327,0.373749,-1.186469,0.856169,7.874710,1.023062,-4.526034,-3.946328,0.308955,-32.306358,-0.131629,-0.041718,0.000000,0.182618,-0.849474,-0.000000
2.770000,-1.026581,-0.194706,-1.336696,0.661424,0.224328,0.237657,0.452258,-1.176216,0.809307,7.823083,1.028241,-4.844925,-6.371520,0.731134,-31.443945,-0.129782,-0.050205,0.000000,0.186680,-0.832932,-0.000000
2.780000,-1.019943,-0.192521,-1.334279,0.666337,0.212617,0.245503,0.530131,-1.165890,0.759302,7.747453,1.037762,-5.154359,-8.744648,1.176576,-30.415251,-0.127895,-0.058507,0.000000,0.190722,-0.813140,0.000000
2.790000,-1.013251,-0.190453,-1.331787,0.672024,0.201010,0.252833,0.607129,-1.155446,0.706257,7.648410,1.051834,-5.452685,-11.051934,1.640477,-29.222902,-0.125968,-0.066591,0.000000,0.194738,-0.790340,-0.000000
2.800000,-1.006500,-0.188501,-1.329225,0.678476,0.189509,0.259618,0.683023,-1.144838,0.650290,7.526680,1.070617,-5.738280,-13.279599,2.118035,-27.869525,-0.124001,-0.074430,0.000000,0.198719,-0.764798,0.000000
2.810000,-0.999679,-0.186663,-1.326597,0.685680,0.178114,0.265830,0.757574,-1.134018,0.591515,7.381660,1.094178,-6.011739,-15.376754,2.605616,-26.302381,-0.121994,-0.081996,0.000000,0.202680,-0.736625,-0.000000
2.820000,-0.992783,-0.184938,-1.323910,0.693623,0.166829,0.271441,0.830588,-1.122938,0.530110,7.217830,1.122690,-6.266303,-17.371275,3.097103,-24.586239,-0.119947,-0.089266,0.000000,0.206562,-0.706540,-0.000000
