time,x,y,z,vx,vy,vz,ax,ay,az,jx,jy,jz,sx,sy,sz,roll,pitch,yaw,p,q,r
0.000000,-1.418942,-2.326147,-1.417550,-0.007403,-0.006129,-0.003719,-0.014500,0.119467,0.021075,0.592555,1.641856,0.108345,13.649203,19.604668,-1.808324,0.012204,0.001481,0.000000,0.167837,-0.060512,0.000000
0.050000,-1.419312,-2.326453,-1.417736,-0.008128,-0.000155,-0.002665,0.015128,0.201559,0.026492,1.275015,2.622089,0.017929,16.556623,26.621223,-2.953884,0.020599,-0.001546,0.000000,0.267931,-0.130298,0.000000
0.100000,-1.419755,-2.326162,-1.417816,-0.005890,0.014027,-0.001069,0.113002,0.381675,0.022868,2.248218,4.303978,-0.187043,10.828753,28.623402,-2.490378,0.038975,-0.011545,0.000000,0.438215,-0.229286,-0.000000
0.150000,-1.419901,-2.325051,-1.417842,0.003172,0.038012,-0.000378,0.239950,0.631957,0.007788,2.357891,5.484429,-0.231109,-2.669980,13.997122,1.120361,0.064363,-0.024474,0.000000,0.555138,-0.239329,-0.000000
0.200000,-1.419438,-2.322361,-1.417854,0.018105,0.077223,-0.000291,0.348791,0.930118,-0.000243,1.981220,5.703690,-0.075007,-8.249921,-5.095713,3.267479,0.094469,-0.035539,0.000000,0.574474,-0.200530,0.000000
0.250000,-1.418091,-2.317328,-1.417872,0.038052,0.131024,-0.000402,0.438072,1.202326,0.000287,1.532899,4.974858,0.095639,-10.036730,-17.773906,3.184979,0.121836,-0.044627,0.000000,0.499481,-0.155228,-0.000000
0.300000,-1.415632,-2.309259,-1.417894,0.061912,0.197456,-0.000262,0.502081,1.427604,0.009321,0.977547,3.926300,0.243491,-11.770823,-22.347330,2.301521,0.144460,-0.051184,0.000000,0.394603,-0.099702,0.000000
0.350000,-1.411899,-2.297583,-1.417898,0.088260,0.273784,0.000530,0.535827,1.594956,0.024636,0.355816,2.740125,0.325791,-12.437988,-23.633185,0.645389,0.161336,-0.054703,0.000000,0.277337,-0.037577,0.000000
0.400000,-1.406806,-2.281880,-1.417841,0.115495,0.356951,0.002202,0.537663,1.701617,0.041900,-0.266252,1.562981,0.308029,-11.857889,-22.377002,-1.496976,0.172215,-0.054987,0.000000,0.160636,0.025068,-0.000000
0.450000,-1.400350,-2.261888,-1.417678,0.142026,0.443946,0.004720,0.509201,1.751254,0.055439,-0.829973,0.502425,0.176093,-10.237405,-19.372934,-3.655640,0.177403,-0.052154,0.000000,0.053731,0.082598,0.000000
0.500000,-1.392604,-2.237486,-1.417369,0.166415,0.532077,0.007746,0.454665,1.751859,0.059509,-1.289993,-0.374312,-0.057535,-7.845835,-15.382349,-5.312842,0.177583,-0.046596,0.000000,-0.037104,0.130207,0.000000
0.550000,-1.383708,-2.208680,-1.416903,0.187492,0.619132,0.010671,0.380202,1.713823,0.049686,-1.614556,-1.035810,-0.355191,-4.952702,-11.066425,-6.046023,0.173690,-0.038934,0.000000,-0.107967,0.164079,-0.000000
0.600000,-1.373855,-2.175573,-1.416302,0.204435,0.703459,0.012714,0.293210,1.648278,0.023990,-1.785263,-1.480955,-0.662137,-1.818812,-6.968410,-5.633514,0.166792,-0.029953,0.000000,-0.157270,0.181734,0.000000
0.650000,-1.363265,-2.138334,-1.415632,0.216813,0.783960,0.013070,0.201676,1.565728,-0.016528,-1.796437,-1.732651,-0.918542,1.315252,-3.496053,-4.098588,0.157976,-0.020521,0.000000,-0.185857,0.182356,0.000000
0.700000,-1.352173,-2.097177,-1.414995,0.224603,0.860032,0.011061,0.113566,1.475013,-0.067864,-1.653738,-1.830560,-1.071996,4.244557,-0.905987,-1.690643,0.148220,-0.011497,0.000000,-0.196834,0.166795,-0.000000
0.750000,-1.340805,-2.052331,-1.414525,0.228170,0.931461,0.006283,0.036302,1.382672,-0.123728,-1.371982,-1.823250,-1.087607,6.811414,0.698977,1.181588,0.138300,-0.003654,0.000000,-0.194932,0.137189,0.000000
0.800000,-1.329356,-2.004030,-1.414367,0.228233,0.998299,-0.001311,-0.023632,1.292688,-0.176625,-0.972596,-1.760662,-0.953837,8.906509,1.353380,4.041563,0.128726,0.002366,0.000000,-0.185585,0.096359,0.000000
0.850000,-1.317981,-1.952501,-1.414657,0.225807,1.060730,-0.011379,-0.060958,1.206605,-0.219111,-0.481331,-1.687912,-0.683450,10.458090,1.195491,6.437616,0.119733,0.006078,0.000000,-0.174013,0.047237,-0.000000
0.900000,-1.306776,-1.897957,-1.415505,0.222137,1.118959,-0.023223,-0.071765,1.123897,-0.244970,0.073213,-1.641113,-0.310075,11.413514,0.425023,8.018784,0.111310,0.007137,0.000000,-0.164595,-0.007455,-0.000000
0.950000,-1.295768,-1.840605,-1.416979,0.218630,1.173120,-0.035876,-0.053636,1.042494,-0.250119,0.660021,-1.645410,0.118428,11.721625,-0.737263,8.583660,0.103256,0.005332,0.000000,-0.160575,-0.065194,0.000000
1.000000,-1.284912,-1.780646,-1.419092,0.216774,1.223209,-0.048234,-0.005763,0.959356,-0.233127,1.245375,-1.714840,0.548291,11.325322,-2.080016,8.099521,0.095235,0.000574,0.000000,-0.164029,-0.123410,0.000000
1.050000,-1.274090,-1.718284,-1.421802,0.218054,1.269055,-0.059189,0.070901,0.871010,-0.195290,1.792553,-1.853411,0.928380,10.171465,-3.418924,6.694015,0.086834,-0.007086,0.000000,-0.175939,-0.179132,0.000000
1.100000,-1.263107,-1.653740,-1.425011,0.223864,1.310310,-0.067763,0.173492,0.774015,-0.140289,2.262522,-2.056732,1.217692,8.240563,-4.603985,4.624510,0.077620,-0.017434,0.000000,-0.196275,-0.228756,-0.000000
1.150000,-1.251704,-1.587253,-1.428579,0.235403,1.346457,-0.073218,0.297153,0.665337,-0.073520,2.616609,-2.313810,1.390831,5.592957,-5.522370,2.231990,0.067186,-0.030056,0.000000,-0.224062,-0.268126,0.000000
1.200000,-1.239567,-1.519094,-1.432333,0.253579,1.376843,-0.075115,0.435153,0.542634,-0.001206,2.821817,-2.608969,1.440891,2.424278,-6.103877,-0.111766,0.055197,-0.044324,0.000000,-0.257475,-0.293101,-0.000000
1.250000,-1.226346,-1.449569,-1.436090,0.278918,1.400720,-0.073338,0.579335,0.404440,0.070569,2.859037,-2.924197,1.379655,-0.888284,-6.329733,-2.055266,0.041429,-0.059413,0.000000,-0.294078,-0.300656,-0.000000
1.300000,-1.211675,-1.379022,-1.439667,0.311513,1.417287,-0.068059,0.721057,0.250214,0.136760,2.732989,-3.241942,1.235365,-3.802152,-6.229200,-3.319958,0.025789,-0.074404,0.000000,-0.331262,-0.290340,-0.000000
1.350000,-1.195195,-1.307840,-1.442896,0.351024,1.425742,-0.059663,0.852634,0.080246,0.194105,2.478822,-3.547117,1.047659,-5.771778,-5.836807,-3.771086,0.008312,-0.088438,0.000000,-0.366704,-0.265349,-0.000000
1.400000,-1.176573,-1.236448,-1.445633,0.396776,1.425312,-0.048648,0.968939,-0.104498,0.241526,2.155811,-3.825623,0.858256,-6.541358,-5.112046,-3.487205,-0.010865,-0.100920,0.000000,-0.398453,-0.231994,0.000000
1.450000,-1.155517,-1.165309,-1.447761,0.447918,1.415292,-0.035510,1.068215,-0.302317,0.279931,1.824686,-4.058322,0.698938,-6.319243,-3.901531,-2.749221,-0.031515,-0.111623,0.000000,-0.424387,-0.197111,-0.000000
1.500000,-1.131781,-1.094919,-1.449184,0.503598,1.395080,-0.020655,1.151407,-0.510330,0.311419,1.523887,-4.215776,0.583334,-5.620775,-2.017232,-1.921577,-0.053286,-0.120630,0.000000,-0.441557,-0.165212,-0.000000
1.550000,-1.105157,-1.025801,-1.449826,0.563059,1.364259,-0.004368,1.220604,-0.723894,0.338264,1.262608,-4.260045,0.506781,-4.957835,0.638153,-1.321502,-0.075655,-0.128162,0.000000,-0.446220,-0.137513,-0.000000
1.600000,-1.075475,-0.958493,-1.449621,0.625658,1.322691,0.013172,1.277668,-0.936334,0.362097,1.028103,-4.151961,0.451184,-4.663543,4.008016,-1.165242,-0.097897,-0.134418,0.000000,-0.434490,-0.112664,0.000000
1.650000,-1.042591,-0.893532,-1.448509,0.690826,1.270625,0.031842,1.323414,-1.139090,0.383383,0.796254,-3.859244,0.390256,-4.865635,7.881439,-1.572703,-0.119098,-0.139480,0.000000,-0.403117,-0.087909,-0.000000
1.700000,-1.006392,-0.831431,-1.446437,0.757999,1.208782,0.051510,1.357294,-1.322259,0.401123,0.541540,-3.363817,0.293914,-5.502000,11.913951,-2.575450,-0.138207,-0.143268,0.000000,-0.350202,-0.060218,-0.000000
1.750000,-0.966791,-0.772654,-1.443358,0.826555,1.138400,0.071954,1.377568,-1.475472,0.412774,0.246054,-2.667848,0.132711,-6.341581,15.660775,-4.102979,-0.154119,-0.145556,0.000000,-0.275803,-0.027332,0.000000
1.800000,-0.923737,-0.717591,-1.439241,0.895756,1.061235,0.092787,1.381899,-1.589043,0.414394,-0.092618,-1.797739,-0.116384,-7.009426,18.614540,-5.948563,-0.165790,-0.146032,0.000000,-0.182403,0.011275,0.000000
1.850000,-0.877216,-0.666530,-1.434079,0.964745,0.979495,0.113393,1.368306,-1.655246,0.401136,-0.454889,-0.806394,-0.462145,-7.048458,20.263144,-7.741149,-0.172365,-0.144415,0.000000,-0.075354,0.053535,-0.000000
1.900000,-0.827262,-0.619641,-1.427902,1.032587,0.895710,0.132901,1.336410,-1.669683,0.368180,-0.797464,0.228575,-0.890499,-6.089703,20.240887,-8.978872,-0.173337,-0.140608,0.000000,0.036974,0.094452,0.000000
1.950000,-0.773957,-0.576959,-1.420789,1.098386,0.812527,0.150211,1.288560,-1.632388,0.312086,-1.063859,1.217694,-1.360032,-4.092893,18.510972,-9.161258,-0.168689,-0.134844,0.000000,0.144263,0.127229,-0.000000
2.000000,-0.717424,-0.538388,-1.412881,1.161443,0.732471,0.164109,1.230024,-1.547913,0.232176,-1.206753,2.079672,-1.806625,-1.442070,15.391082,-7.953957,-0.158946,-0.127725,0.000000,0.236483,0.145919,0.000000
2.050000,-0.657813,-0.503712,-1.404378,1.221388,0.657736,0.173429,1.167885,-1.424421,0.131423,-1.208066,2.756802,-2.155428,1.219856,11.422888,-5.273379,-0.145086,-0.120086,0.000000,0.306152,0.147943,0.000000
2.100000,-0.595285,-0.472615,-1.395538,1.278231,0.590029,0.177252,1.109218,-1.272233,0.016634,-1.084768,3.221961,-2.333963,3.259511,7.190230,-1.288280,-0.128372,-0.112782,0.000000,0.349849,0.134894,-0.000000
2.150000,-0.529990,-0.444709,-1.386653,1.332310,0.530512,0.175092,1.059408,-1.102225,-0.101973,-0.882115,3.475825,-2.284256,4.225418,3.146428,3.599109,-0.110124,-0.106477,0.000000,0.368334,0.111662,0.000000
2.200000,-0.462054,-0.419564,-1.378029,1.384172,0.479807,0.167054,1.021006,-0.924651,-0.211792,-0.662226,3.536604,-1.974052,3.891369,-0.467410,8.789514,-0.091532,-0.101528,0.000000,0.365279,0.084904,-0.000000
2.250000,-0.391573,-0.396729,-1.369948,1.434411,0.438047,0.153913,0.993185,-0.748565,-0.299378,-0.492978,3.429084,-1.405305,2.238461,-3.608737,13.557600,-0.073559,-0.097930,0.000000,0.345493,0.061657,-0.000000
2.300000,-0.318613,-0.375759,-1.362638,1.483491,0.404950,0.137116,0.971708,-0.581742,-0.352322,-0.438380,3.175730,-0.618292,-0.576010,-6.376955,17.144180,-0.056924,-0.095329,0.000000,0.313267,0.048433,0.000000
2.350000,-0.243224,-0.356234,-1.356236,1.531582,0.379873,0.118681,0.949347,-0.430992,-0.361208,-0.550579,2.791389,0.309113,-4.248432,-8.922773,18.852837,-0.042165,-0.093067,0.000000,0.271287,0.050806,0.000000
2.400000,-0.165455,-0.337772,-1.350769,1.578425,0.361851,0.100996,0.916651,-0.302603,-0.321411,-0.863223,2.283453,1.266992,-8.349895,-11.340573,18.145845,-0.029738,-0.090230,0.000000,0.220354,0.073256,0.000000
2.450000,-0.085381,-0.320048,-1.346137,1.623247,0.349613,0.086540,0.863025,-0.202646,-0.234508,-1.385568,1.657332,2.123698,-12.340166,-13.580061,14.740891,-0.020098,-0.085710,0.000000,0.159873,0.118875,-0.000000
2.500000,-0.003130,-0.302810,-1.342115,1.664728,0.341586,0.077545,0.778094,-0.136870,-0.109041,-2.097240,0.925447,2.741081,-15.592421,-15.406485,8.706515,-0.013756,-0.078284,0.000000,0.088992,0.188580,-0.000000
2.550000,0.081092,-0.285890,-1.338382,1.701056,0.335926,0.075636,0.653301,-0.110102,0.039600,-2.944810,0.116683,2.994349,-17.453461,-16.428737,0.539563,-0.011243,-0.066766,0.000000,0.008259,0.279641,-0.000000
2.600000,0.166976,-0.269218,-1.334552,1.730058,0.330576,0.081505,0.483613,-0.125202,0.190394,-3.842586,-0.717427,2.795037,-17.355321,-16.197386,-8.809739,-0.012998,-0.050231,0.000000,-0.078500,0.383844,-0.000000
2.650000,0.254098,-0.252832,-1.330232,1.749417,0.323405,0.094675,0.269042,-0.181844,0.319103,-4.680343,-1.503056,2.113376,-14.970104,-14.352083,-18.008553,-0.019150,-0.028340,0.000000,-0.162774,0.486348,0.000000
2.700000,0.341917,-0.236877,-1.325084,1.756962,0.312392,0.113415,0.015578,-0.275507,0.401731,-5.339596,-2.152635,0.994182,-10.365697,-10.775906,-25.537512,-0.029275,-0.001656,0.000000,-0.231725,0.567123,-0.000000
2.750000,0.429794,-0.221593,-1.318890,1.750975,0.295855,0.134848,-0.264917,-0.397108,0.418522,-5.716912,-2.580646,-0.440376,-4.088215,-5.700751,-29.994548,-0.042242,0.028201,0.000000,-0.271486,0.606387,-0.000000
2.800000,0.517015,-0.207292,-1.311600,1.730470,0.272681,0.155267,-0.556113,-0.533572,0.357694,-5.748418,-2.722710,-2.005273,2.903686,0.286743,-30.424769,-0.056292,0.058766,0.000000,-0.272761,0.592673,0.000000
2.850000,0.602841,-0.194325,-1.303363,1.695364,0.242497,0.170618,-0.839759,-0.669379,0.217994,-5.426544,-2.551972,-3.482853,9.467968,6.357499,-26.560657,-0.069407,0.087325,0.000000,-0.235433,0.528610,0.000000
2.900000,0.686551,-0.183042,-1.294538,1.646494,0.205743,0.177067,-1.098767,-0.788769,0.009408,-4.801621,-2.086960,-4.661339,14.594369,11.641202,-18.886444,-0.079811,0.111646,0.000000,-0.168631,0.429817,0.000000
2.950000,0.767490,-0.173751,-1.285657,1.585487,0.163621,0.171558,-1.319921,-0.878075,-0.248140,-3.967107,-1.387852,-5.371497,17.678747,15.447720,-8.513452,-0.086343,0.130484,0.000000,-0.086316,0.317657,-0.000000
3.000000,0.845100,-0.166680,-1.277382,1.514502,0.117936,0.152253,-1.495478,-0.927554,-0.527741,-3.033746,-0.542188,-5.512684,18.658957,17.430225,3.081479,-0.088568,0.143665,0.000000,-0.001817,0.211056,0.000000
3.050000,0.918940,-0.161957,-1.270432,1.435939,0.070865,0.118784,-1.623296,-0.932294,-0.799408,-2.101211,0.355171,-5.063349,17.983224,17.639089,14.366910,-0.086646,0.151828,0.000000,0.075601,0.121711,0.000000
3.100000,0.988694,-0.159594,-1.265503,1.352173,0.024706,0.072312,-1.705599,-0.892037,-1.034076,-1.235424,1.221721,-4.075993,16.434923,16.461976,24.014355,-0.081083,0.156006,0.000000,0.141587,0.053309,-0.000000
3.150000,1.054158,-0.159486,-1.263200,1.265379,-0.018339,0.015377,-1.746838,-0.810122,-1.207007,-0.457719,2.001368,-2.661913,14.859952,14.489294,31.030824,-0.072499,0.157249,0.000000,0.195971,0.003148,0.000000
3.200000,1.115232,-0.161427,-1.263966,1.177489,-0.056306,-0.048389,-1.751371,-0.691901,-1.300268,0.250571,2.670650,-0.972910,13.877579,12.365196,34.778841,-0.061439,0.156349,0.000000,0.241573,-0.035409,-0.000000
3.250000,1.171907,-0.165117,-1.268039,1.090242,-0.087529,-0.114650,-1.721781,-0.543057,-1.304298,0.930039,3.237888,0.815971,13.701051,10.628087,34.965993,-0.048248,0.153694,0.000000,0.283159,-0.070529,0.000000
3.300000,1.224256,-0.170180,-1.275431,1.005311,-0.110612,-0.178819,-1.658367,-0.368112,-1.218670,1.620677,3.733459,2.523689,14.144314,9.526239,31.666433,-0.032995,0.149251,0.000000,0.326305,-0.109994,0.000000
3.350000,1.272438,-0.176178,-1.285921,0.924406,-0.124340,-0.236517,-1.559713,-0.169711,-1.051929,2.344471,4.190512,3.982614,14.755522,8.906280,25.341340,-0.015465,0.142620,0.000000,0.375766,-0.159877,-0.000000
3.400000,1.316697,-0.182614,-1.299083,0.849339,-0.127583,-0.284012,-1.423920,0.050939,-0.820409,3.096229,4.624087,5.057823,14.963892,8.281976,16.794681,0.004749,0.133155,0.000000,0.433528,-0.223518,0.000000
3.450000,1.357372,-0.188936,-1.314322,0.782014,-0.119246,-0.318558,-1.250090,0.292698,-0.546147,3.840860,5.018709,5.662082,14.196157,7.065723,7.066540,0.028052,0.120129,0.000000,0.497087,-0.300384,0.000000
3.500000,1.394898,-0.194539,-1.330938,0.724330,-0.098313,-0.338626,-1.039834,0.552810,-0.254201,4.515845,5.330659,5.764477,11.995797,4.826522,-2.692638,0.054583,0.102955,0.000000,0.558663,-0.384837,-0.000000
3.550000,1.429805,-0.198768,-1.348185,0.678030,-0.063965,-0.343978,-0.798506,0.825764,0.030301,5.040440,5.501362,5.392818,8.163627,1.418738,-11.349894,0.083959,0.081469,0.000000,0.605988,-0.465613,0.000000
3.600000,1.462701,-0.200935,-1.365336,0.644480,-0.015737,-0.335596,-0.535790,1.102947,0.285081,5.332207,5.472533,4.629487,2.860534,-3.005822,-17.941053,0.115102,0.056192,0.000000,0.624934,-0.527284,-0.000000
3.650000,1.494253,-0.200341,-1.381744,0.624451,0.046330,-0.315470,-0.265285,1.373017,0.493249,5.326493,5.200779,3.598713,-3.397053,-8.031907,-21.835499,0.146259,0.028466,0.000000,0.604133,-0.554277,0.000000
3.700000,1.525146,-0.196302,-1.396883,0.617951,0.121565,-0.286271,-0.003141,1.623024,0.644952,4.992502,4.669342,2.445938,-9.847004,-13.088524,-22.850114,0.175271,0.000343,0.000000,0.539837,-0.536297,0.000000
3.750000,1.556048,-0.188185,-1.410372,0.624137,0.208632,-0.250975,0.233965,1.839951,0.737843,4.341793,3.891927,1.313701,-15.654356,-17.585874,-21.267825,0.200034,-0.025784,0.000000,0.437701,-0.472387,0.000000
3.800000,1.587560,-0.175439,-1.421981,0.641348,0.305560,-0.212487,0.431039,2.012217,0.776322,3.427066,2.910755,0.319155,-20.099790,-21.012158,-17.753117,0.218927,-0.047678,0.000000,0.310309,-0.371111,-0.000000
3.850000,1.620183,-0.157629,-1.431620,0.667241,0.409854,-0.173343,0.576672,2.131027,0.769759,2.331814,1.790711,-0.461610,-22.723966,-23.026805,-13.178763,0.231048,-0.063703,0.000000,0.172325,-0.246908,0.000000
3.900000,1.654284,-0.134454,-1.439315,0.699015,0.518663,-0.135511,0.664220,2.191288,0.730161,1.154670,0.608074,-0.998721,-23.384867,-23.522026,-8.417842,0.236200,-0.073023,0.000000,0.036137,-0.115198,0.000000
3.950000,1.690084,-0.105763,-1.445171,0.733663,0.628983,-0.100326,0.692139,2.191834,0.669886,-0.006673,-0.561491,-1.303394,-22.227748,-22.592516,-4.170779,0.234712,-0.075581,0.000000,-0.090001,0.011149,-0.000000
4.000000,1.727650,-0.071555,-1.449348,0.768229,0.737846,-0.068522,0.663553,2.135139,0.599822,-1.068105,-1.651177,-1.415799,-19.597015,-20.469168,-0.868499,0.227231,-0.071921,0.000000,-0.201481,0.123140,-0.000000
4.050000,1.766907,-0.031978,-1.452024,0.800018,0.842497,-0.040344,0.585328,2.026716,0.528306,-1.966375,-2.608408,-1.390244,-15.933242,-17.463211,1.339594,0.214569,-0.062979,0.000000,-0.296024,0.215370,-0.000000
4.100000,1.807652,0.012694,-1.453382,0.826762,0.940518,-0.015692,0.466915,1.874298,0.460797,-2.661429,-3.397498,-1.281840,-11.688949,-13.911826,2.529620,0.197614,-0.049900,0.000000,-0.372556,0.285132,0.000000
4.150000,1.849583,0.062074,-1.453593,0.846710,1.029926,0.005736,0.319185,1.686967,0.400122,-3.135270,-3.999591,-1.137282,-7.273578,-10.133958,2.913690,0.177292,-0.033907,0.000000,-0.430582,0.331620,-0.000000
4.200000,1.892323,0.115687,-1.452808,0.858680,1.109215,0.024320,0.153388,1.474339,0.347069,-3.388787,-4.410894,-0.990471,-3.024833,-6.404009,2.750347,0.154539,-0.016208,0.000000,-0.470052,0.355427,-0.000000
4.250000,1.935451,0.172995,-1.451161,0.862049,1.177360,0.040442,-0.019694,1.245877,0.301075,-3.437753,-4.639992,-0.862248,0.801004,-2.939407,2.276788,0.130279,0.002071,0.000000,-0.491502,0.358278,-0.000000
4.300000,1.978528,0.233423,-1.448764,0.856711,1.233802,0.054428,-0.190387,1.010340,0.260844,-3.308687,-4.704835,-0.762792,4.027747,0.102162,1.671890,0.105391,0.019935,0.000000,-0.496223,0.342847,-0.000000
4.350000,2.021122,0.296376,-1.445718,0.843010,1.278394,0.066527,-0.350562,0.775394,0.224796,-3.034978,-4.629776,-0.695059,6.552642,2.620250,1.048258,0.080665,0.036557,0.000000,-0.486301,0.312540,0.000000
4.400000,2.062829,0.361262,-1.442111,0.821654,1.311342,0.076908,-0.493885,0.547362,0.191339,-2.653422,-4.442810,-0.657966,8.337337,4.566508,0.464794,0.056770,0.051301,0.000000,-0.464467,0.271196,0.000000
4.450000,2.103288,0.427510,-1.438027,0.793622,1.333131,0.085661,-0.615905,0.331113,0.159000,-2.201244,-4.173125,-0.648579,9.397660,5.938120,-0.051197,0.034226,0.063731,0.000000,-0.433805,0.222758,0.000000
4.500000,2.142191,0.494575,-1.433545,0.760064,1.344453,0.092808,-0.714009,0.130050,0.126481,-1.713657,-3.848998,-0.663086,9.792635,6.770360,-0.482291,0.013393,0.073601,0.000000,-0.397418,0.170972,-0.000000
4.550000,2.179294,0.561955,-1.428747,0.722221,1.346136,0.098309,-0.787270,-0.053787,0.092691,-1.221981,-3.496089,-0.696808,9.613123,7.128534,-0.806370,-0.005517,0.080841,0.000000,-0.358145,0.119159,-0.000000
4.600000,2.214413,0.629189,-1.423715,0.681337,1.339074,0.102077,-0.836207,-0.219559,0.056800,-0.752344,-3.136145,-0.743723,8.970541,7.099442,-0.991953,-0.022425,0.085528,0.000000,-0.318370,0.070068,-0.000000
4.650000,2.247428,0.695863,-1.418539,0.638600,1.324180,0.103989,-0.862505,-0.367402,0.018319,-0.324927,-2.786145,-0.796004,7.986201,6.782461,-1.002614,-0.037360,0.087859,0.000000,-0.279930,0.025805,0.000000
4.700000,2.278273,0.761607,-1.413316,0.595087,1.302334,0.103908,-0.868700,-0.498173,-0.022801,0.046276,-2.457898,-0.843984,6.781695,6.280488,-0.807232,-0.050425,0.088118,0.000000,-0.244100,-0.012179,-0.000000
4.750000,2.306936,0.826096,-1.408148,0.551730,1.274362,0.101709,-0.857877,-0.613191,-0.066080,0.353243,-2.158096,-0.876727,5.470672,5.691158,-0.391785,-0.061777,0.086647,0.000000,-0.211629,-0.043071,-0.000000
4.800000,2.333446,0.889043,-1.403145,0.509299,1.241015,0.097301,-0.833376,-0.713983,-0.110473,0.593343,-1.888783,-0.883163,4.152314,5.099029,0.231294,-0.071595,0.083809,0.000000,-0.182802,-0.066646,0.000000
4.850000,2.357866,0.950197,-1.398418,0.468392,1.202964,0.090661,-0.798543,-0.802070,-0.154396,0.768474,-1.648193,-0.853597,2.906756,4.569630,1.018948,-0.080065,0.079969,0.000000,-0.157529,-0.083184,-0.000000
4.900000,2.380285,1.009340,-1.394079,0.429445,1.160808,0.081861,-0.756528,-0.878802,-0.195833,0.884019,-1.431820,-0.781268,1.792665,4.146291,1.899655,-0.087356,0.075465,0.000000,-0.135435,-0.093361,-0.000000
4.950000,2.400811,1.066278,-1.390232,0.392739,1.115084,0.071078,-0.710141,-0.945252,-0.232523,0.947741,-1.233564,-0.663632,0.847062,3.850212,2.781384,-0.093616,0.070596,0.000000,-0.115956,-0.098121,-0.000000
5.000000,2.419559,1.120848,-1.386971,0.358430,1.066283,0.058609,-0.661754,-1.002159,-0.262196,0.968725,-1.046798,-0.503130,0.087198,3.683678,3.563652,-0.098959,0.065607,0.000000,-0.098422,-0.098548,-0.000000
5.050000,2.436654,1.172907,-1.384371,0.326564,1.014868,0.044859,-0.613268,-1.049932,-0.282836,0.956460,-0.865196,-0.307267,-0.485982,3.635601,4.151351,-0.103465,0.060688,0.000000,-0.082127,-0.095746,-0.000000
5.100000,2.452216,1.222335,-1.382485,0.297104,0.961290,0.030325,-0.566108,-1.088678,-0.292923,0.920127,-0.683238,-0.087994,-0.883514,3.687994,4.467966,-0.107178,0.055976,0.000000,-0.066367,-0.090753,0.000000
5.150000,2.466364,1.269035,-1.381338,0.269953,0.906000,0.015566,-0.521256,-1.118255,-0.291635,0.868109,-0.496397,0.139530,-1.124037,3.821702,4.466154,-0.110106,0.051555,0.000000,-0.050470,-0.084484,-0.000000
5.200000,2.479211,1.312935,-1.380928,0.244978,0.849464,0.001162,-0.479297,-1.138318,-0.278970,0.807723,-0.301068,0.358621,-1.230093,4.019895,4.134253,-0.112227,0.047471,0.000000,-0.033803,-0.077703,0.000000
5.250000,2.490862,1.353982,-1.381222,0.222023,0.792168,-0.012331,-0.440483,-1.148362,-0.255773,0.745100,-0.094407,0.552955,-1.225600,4.268390,3.497965,-0.113487,0.043733,0.000000,-0.015783,-0.071022,0.000000
5.300000,2.501413,1.392152,-1.382161,0.200930,0.734628,-0.024416,-0.404787,-1.147759,-0.223674,0.685163,0.125771,0.708417,-1.134615,4.552728,2.617100,-0.113804,0.040321,0.000000,0.004100,-0.064909,0.000000
5.350000,2.510955,1.427445,-1.383664,0.181545,0.677392,-0.034698,-0.371967,-1.135785,-0.184931,0.631638,0.360865,0.814665,-0.981190,4.852786,1.577871,-0.113073,0.037198,0.000000,0.026232,-0.059696,-0.000000
5.400000,2.519568,1.459891,-1.385631,0.163733,0.621049,-0.042909,-0.341624,-1.111672,-0.142208,0.587044,0.611049,0.866205,-0.789860,5.136434,0.481800,-0.111175,0.034313,0.000000,0.050798,-0.055587,-0.000000
5.450000,2.527328,1.489550,-1.387955,0.147382,0.566225,-0.048919,-0.313263,-1.074680,-0.098311,0.552652,0.874509,0.862845,-0.586208,5.353973,-0.567266,-0.107987,0.031606,0.000000,0.077681,-0.052662,-0.000000
5.500000,2.534306,1.516513,-1.390523,0.132407,0.513581,-0.052740,-0.286358,-1.024221,-0.055923,0.528423,1.146447,0.809478,-0.397050,5.435038,-1.476145,-0.103400,0.029017,0.000000,0.106341,-0.050863,-0.000000
5.550000,2.540569,1.540908,-1.393229,0.118746,0.463803,-0.054511,-0.260420,-0.960035,-0.017363,0.512947,1.418013,0.715231,-0.249954,5.288996,-2.173404,-0.097347,0.026493,0.000000,0.135710,-0.049994,0.000000
5.600000,2.546181,1.562894,-1.395974,0.106365,0.417578,-0.054476,-0.235064,-0.882420,0.015600,0.503428,1.675346,0.592138,-0.172194,4.808956,-2.616798,-0.089826,0.023995,0.000000,0.164118,-0.049719,-0.000000
5.650000,2.551205,1.582666,-1.398676,0.095240,0.375561,-0.052951,-0.210078,-0.792501,0.041851,0.495728,1.898908,0.453551,-0.189883,3.878078,-2.796009,-0.080935,0.021503,0.000000,0.189255,-0.049565,-0.000000
5.700000,2.555705,1.600450,-1.401269,0.085357,0.338328,-0.050291,-0.185491,-0.692529,0.060955,0.484439,2.063154,0.312537,-0.328789,2.375151,-2.730440,-0.070904,0.019024,0.000000,0.208195,-0.048940,0.000000
5.750000,2.559741,1.616498,-1.403706,0.076691,0.306308,-0.046856,-0.161634,-0.586185,0.073104,0.462849,2.136423,0.180507,-0.604730,0.194775,-2.462815,-0.060122,0.016599,0.000000,0.217434,-0.047130,0.000000
5.800000,2.563374,1.631081,-1.405955,0.069194,0.279709,-0.042981,-0.139206,-0.478887,0.079006,0.423966,2.082632,0.066255,-0.779669,-2.361133,-2.050138,-0.049168,0.014304,0.000000,0.213117,-0.043410,0.000000
5.850000,2.566660,1.644469,-1.408004,0.062770,0.258420,-0.038955,-0.119237,-0.377922,0.079730,0.384882,1.900310,-0.024507,1.083923,-0.652266,-3.149325,-0.038817,0.012254,0.000000,0.195069,-0.039550,0.000000
5.900000,2.569651,1.656923,-1.409851,0.057270,0.241917,-0.035008,-0.100718,-0.288856,0.076555,0.532359,2.017405,-0.248677,2.165155,-0.587727,-3.853979,-0.029666,0.010347,0.000000,0.207812,-0.054928,-0.000000
5.950000,2.572387,1.668661,-1.411504,0.052699,0.229534,-0.031300,-0.066001,-0.176182,0.054862,0.601397,1.841537,-0.409905,-0.238976,-5.878121,-1.372796,-0.018058,0.006766,0.000000,0.189461,-0.061921,0.000000
6.000000,2.574921,1.679876,-1.412980,0.050670,0.224299,-0.029522,-0.040578,-0.104702,0.035564,0.508461,1.429593,-0.385957,-1.858725,-8.238888,0.478963,-0.010711,0.004151,0.000000,0.146661,-0.052180,0.000000
