time,x,y,z,vx,vy,vz,ax,ay,az,jx,jy,jz,sx,sy,sz,roll,pitch,yaw,p,q,r
0.000000,-2.641931,-2.313792,-1.369760,0.017727,0.009281,-0.007844,-0.838427,-0.081925,0.066832,18.337384,-1.148077,-0.249075,-285.260291,160.316353,-34.012121,-0.008377,0.085841,0.000000,-0.118526,-1.870360,-0.000000
0.010000,-2.641793,-2.313703,-1.369835,0.010213,0.008430,-0.007193,-0.668665,-0.085754,0.062700,15.678626,0.346693,-0.571553,-247.108668,138.960160,-30.504972,-0.008777,0.068493,0.000000,0.035030,-1.604917,0.000000
0.020000,-2.641721,-2.313623,-1.369904,0.004271,0.007612,-0.006600,-0.523644,-0.075671,0.055516,13.383155,1.637426,-0.859602,-212.573762,119.493691,-27.126213,-0.007746,0.053631,0.000000,0.167724,-1.372734,-0.000000
0.030000,-2.641703,-2.313550,-1.369968,-0.000330,0.006957,-0.006092,-0.399909,-0.053624,0.045618,11.415680,2.742558,-1.114504,-181.480108,101.824653,-23.875419,-0.005487,0.040933,0.000000,0.280993,-1.171806,-0.000000
0.040000,-2.641724,-2.313483,-1.370026,-0.003788,0.006574,-0.005696,-0.294349,-0.021380,0.033332,9.742667,3.679602,-1.337536,-153.652246,85.860751,-20.752170,-0.002186,0.030098,0.000000,0.376427,-0.999733,0.000000
0.050000,-2.641775,-2.313418,-1.370082,-0.006269,0.006558,-0.005432,-0.204180,0.019463,0.018969,8.332334,4.465149,-1.529971,-128.914712,71.509689,-17.756044,0.001987,0.020851,0.000000,0.455669,-0.853903,-0.000000
0.060000,-2.641847,-2.313350,-1.370135,-0.007914,0.006987,-0.005322,-0.126927,0.067470,0.002830,7.154656,5.114865,-1.693079,-107.092043,58.679174,-14.886619,0.006879,0.012942,0.000000,0.520353,-0.731628,0.000000
0.070000,-2.641931,-2.313276,-1.370189,-0.008843,0.007927,-0.005381,-0.060406,0.121357,-0.014799,6.181362,5.643493,-1.828125,-88.008778,47.276910,-12.143472,0.012351,0.006148,0.000000,0.572065,-0.630231,0.000000
0.080000,-2.642022,-2.313190,-1.370244,-0.009152,0.009430,-0.005622,-0.002707,0.179982,-0.033643,5.385934,6.064856,-1.936368,-71.489454,37.210604,-9.526182,0.018282,0.000275,0.000000,0.612320,-0.547111,-0.000000
0.090000,-2.642112,-2.313086,-1.370302,-0.008921,0.011539,-0.006057,0.047823,0.242339,-0.053441,4.743611,6.391851,-2.019066,-57.358609,28.387960,-7.034326,0.024564,-0.004848,0.000000,0.642553,-0.479780,0.000000
0.100000,-2.642198,-2.312957,-1.370366,-0.008215,0.014286,-0.006693,0.092598,0.307545,-0.073943,4.231385,6.636453,-2.077471,-45.440779,20.716684,-4.667484,0.031104,-0.009368,0.000000,0.664101,-0.425894,0.000000
0.110000,-2.642275,-2.312798,-1.370437,-0.007084,0.017697,-0.007537,0.132813,0.374831,-0.094914,3.828004,6.809715,-2.112831,-35.560503,14.104481,-2.425233,0.037821,-0.013408,0.000000,0.678210,-0.383272,0.000000
0.120000,-2.642339,-2.312601,-1.370517,-0.005570,0.021788,-0.008592,0.169456,0.443535,-0.116127,3.513968,6.921765,-2.126390,-27.542318,8.459057,-0.307150,0.044647,-0.017070,0.000000,0.686019,-0.349904,0.000000
0.130000,-2.642385,-2.312360,-1.370609,-0.003704,0.026570,-0.009860,0.203331,0.513093,-0.137373,3.271535,6.981811,-2.119387,-21.210761,3.688116,1.687185,0.051524,-0.020438,0.000000,0.688568,-0.323963,0.000000
0.140000,-2.642412,-2.312067,-1.370715,-0.001511,0.032051,-0.011339,0.235072,0.583026,-0.158451,3.084716,6.998135,-2.093057,-16.390371,-0.300635,3.558195,0.058404,-0.023577,0.000000,0.686789,-0.303808,-0.000000
0.150000,-2.642415,-2.311716,-1.370837,0.000992,0.038231,-0.013028,0.265163,0.652935,-0.179174,2.939276,6.978098,-2.048633,-12.905684,-3.599491,5.306302,0.065248,-0.026539,0.000000,0.681509,-0.287985,0.000000
0.160000,-2.642391,-2.311300,-1.370976,0.003788,0.045108,-0.014921,0.293954,0.722488,-0.199367,2.822735,6.928137,-1.987339,-10.581238,-6.300747,6.931928,0.072025,-0.029359,0.000000,0.673451,-0.275225,-0.000000
0.170000,-2.642338,-2.310812,-1.371136,0.006867,0.052678,-0.017013,0.321678,0.791416,-0.218868,2.724368,6.853767,-1.910401,-9.241571,-8.496698,8.435494,0.078710,-0.032064,0.000000,0.663231,-0.264448,-0.000000
0.180000,-2.642253,-2.310244,-1.371317,0.010219,0.060934,-0.019295,0.348472,0.859498,-0.237527,2.635206,6.759580,-1.819035,-8.711221,-10.279638,9.817423,0.085284,-0.034668,0.000000,0.651360,-0.254758,0.000000
0.190000,-2.642133,-2.309591,-1.371522,0.013834,0.069865,-0.021760,0.374389,0.926554,-0.255205,2.548031,6.649244,-1.714456,-8.814724,-11.741862,11.078137,0.091733,-0.037179,0.000000,0.638246,-0.245439,0.000000
0.200000,-2.641975,-2.308845,-1.371753,0.017703,0.079461,-0.024396,0.399420,0.992438,-0.271776,2.457383,6.525504,-1.597875,-9.376618,-12.975664,12.218057,0.098046,-0.039597,0.000000,0.624198,-0.235955,-0.000000
0.210000,-2.641778,-2.307999,-1.372011,0.021831,0.089701,-0.027191,0.423071,1.057327,-0.287127,2.318919,6.418009,-1.470501,-9.195044,-14.776128,13.237726,0.104245,-0.041876,0.000000,0.612154,-0.221956,-0.000000
0.220000,-2.641538,-2.307049,-1.372297,0.026176,0.100593,-0.030134,0.445801,1.120740,-0.301154,2.226884,6.261789,-1.333526,-9.246617,-16.446704,14.137431,0.110285,-0.044061,0.000000,0.595740,-0.212709,0.000000
0.230000,-2.641253,-2.305986,-1.372614,0.030744,0.112110,-0.033210,0.467604,1.182510,-0.313769,2.133375,6.089487,-1.188151,-9.481557,-17.993630,14.917579,0.116156,-0.046156,0.000000,0.578193,-0.203491,-0.000000
0.240000,-2.640922,-2.304804,-1.372962,0.035525,0.124237,-0.036404,0.488458,1.242480,-0.324893,2.036807,5.902308,-1.035571,-9.850082,-19.423146,15.578576,0.121846,-0.048158,0.000000,0.559642,-0.194141,0.000000
0.250000,-2.640542,-2.303499,-1.373342,0.040510,0.136954,-0.039703,0.508326,1.300510,-0.334460,1.936094,5.701395,-0.876976,-10.302412,-20.741491,16.120831,0.127345,-0.050067,0.000000,0.540198,-0.184547,0.000000
0.260000,-2.640111,-2.302063,-1.373756,0.045691,0.150240,-0.043088,0.527030,1.356484,-0.342410,1.818336,5.489519,-0.712936,-10.477849,-21.997629,16.529262,0.132649,-0.051865,0.000000,0.520141,-0.173450,0.000000
0.270000,-2.639628,-2.300492,-1.374204,0.051051,0.164075,-0.046545,0.544687,1.410260,-0.348707,1.712583,5.263696,-0.546086,-10.675599,-23.149842,16.821660,0.137746,-0.053566,0.000000,0.499132,-0.163660,0.000000
0.280000,-2.639090,-2.298780,-1.374687,0.056582,0.178437,-0.050057,0.561275,1.461722,-0.353324,1.604789,5.026866,-0.376882,-10.883952,-24.199136,17.000330,0.142629,-0.055170,0.000000,0.477452,-0.153800,-0.000000
0.290000,-2.638496,-2.296922,-1.375205,0.062273,0.193302,-0.053606,0.576776,1.510764,-0.356241,1.494907,4.780053,-0.206450,-11.091199,-25.146520,17.067573,0.147293,-0.056674,0.000000,0.455177,-0.143851,0.000000
0.300000,-2.637844,-2.294912,-1.375759,0.068113,0.208644,-0.057176,0.591167,1.557293,-0.357452,1.383008,4.524272,-0.035894,-11.285629,-25.992999,17.025695,0.151731,-0.058078,0.000000,0.432373,-0.133805,-0.000000
0.310000,-2.637133,-2.292747,-1.376349,0.074093,0.224439,-0.060750,0.604393,1.601217,-0.356953,1.265862,4.259943,0.134517,-11.369298,-26.724866,16.856548,0.155938,-0.059377,0.000000,0.409063,-0.123338,-0.000000
0.320000,-2.636362,-2.290422,-1.376974,0.080199,0.240660,-0.064310,0.616482,1.642469,-0.354769,1.151857,3.989441,0.301810,-11.427291,-27.359646,16.585391,0.159911,-0.060575,0.000000,0.385399,-0.113234,0.000000
0.330000,-2.635529,-2.287933,-1.377635,0.086419,0.257279,-0.067840,0.627428,1.680986,-0.350928,1.037406,3.713065,0.465901,-11.458456,-27.900147,16.217029,0.163645,-0.061671,0.000000,0.361383,-0.103134,0.000000
0.340000,-2.634633,-2.285275,-1.378331,0.092743,0.274270,-0.071323,0.637229,1.716714,-0.345465,0.922782,3.431743,0.625842,-11.461643,-28.349178,15.756272,0.167138,-0.062665,0.000000,0.337062,-0.093046,0.000000
0.350000,-2.633673,-2.282446,-1.379061,0.099160,0.291604,-0.074744,0.645884,1.749607,-0.338428,0.808270,3.146377,0.780734,-11.435701,-28.709548,15.207927,0.170386,-0.063558,0.000000,0.312474,-0.082981,-0.000000
0.360000,-2.632649,-2.279442,-1.379826,0.105658,0.309253,-0.078087,0.653388,1.779630,-0.329863,0.693416,2.857745,0.930373,-11.360476,-28.981706,14.560430,0.173386,-0.064349,0.000000,0.287660,-0.072881,0.000000
0.370000,-2.631560,-2.276260,-1.380623,0.112224,0.327187,-0.081336,0.659756,1.806755,-0.319843,0.580309,2.566913,1.072421,-11.256148,-29.171110,13.836965,0.176138,-0.065038,0.000000,0.262647,-0.062922,0.000000
0.380000,-2.630405,-2.272898,-1.381452,0.118849,0.345378,-0.084479,0.664998,1.830963,-0.308440,0.468386,2.274588,1.206882,-11.123893,-29.280858,13.044344,0.178639,-0.065627,0.000000,0.237467,-0.053039,0.000000
0.390000,-2.629183,-2.269352,-1.382312,0.125520,0.363797,-0.087501,0.669128,1.852244,-0.295733,0.357921,1.981551,1.333100,-10.964888,-29.314049,12.189378,0.180887,-0.066116,0.000000,0.212151,-0.043242,-0.000000
0.400000,-2.627894,-2.265621,-1.383201,0.132228,0.382413,-0.090390,0.672162,1.870594,-0.281808,0.249174,1.688552,1.450484,-10.780310,-29.273780,11.278880,0.182881,-0.066506,0.000000,0.186724,-0.033544,-0.000000
0.410000,-2.626538,-2.261703,-1.384119,0.138960,0.401199,-0.093133,0.674117,1.886019,-0.266752,0.142333,1.396436,1.558795,-10.569752,-29.166341,10.312584,0.184621,-0.066799,0.000000,0.161232,-0.023950,-0.000000
0.420000,-2.625115,-2.257597,-1.385064,0.145707,0.420124,-0.095721,0.675016,1.898528,-0.250665,0.037785,1.105593,1.656915,-10.336167,-28.991249,9.305247,0.186106,-0.066994,0.000000,0.135660,-0.014485,-0.000000
0.430000,-2.623624,-2.253300,-1.386033,0.152457,0.439160,-0.098144,0.674881,1.908138,-0.233647,-0.064318,0.816828,1.744789,-10.080925,-28.751209,8.264548,0.187334,-0.067094,0.000000,0.110054,-0.005154,-0.000000
0.440000,-2.622066,-2.248813,-1.387026,0.159201,0.458277,-0.100391,0.673739,1.914873,-0.215804,-0.163766,0.530776,1.822121,-9.805397,-28.448929,7.198166,0.188307,-0.067100,0.000000,0.084442,0.004030,0.000000
0.450000,-2.620440,-2.244135,-1.388040,0.165928,0.477448,-0.102457,0.671615,1.918764,-0.197241,-0.260363,0.248048,1.888692,-9.510952,-28.087118,6.113780,0.189023,-0.067012,0.000000,0.058854,0.013054,0.000000
0.460000,-2.618747,-2.239264,-1.389074,0.172630,0.496643,-0.104334,0.668542,1.919848,-0.178068,-0.353883,-0.030718,1.944216,-9.200066,-27.669966,5.022758,0.189484,-0.066834,0.000000,0.033324,0.021903,-0.000000
0.470000,-2.616988,-2.234202,-1.390126,0.179296,0.515835,-0.106017,0.664548,1.918165,-0.158393,-0.444261,-0.305104,1.988972,-8.872868,-27.198514,3.928637,0.189690,-0.066567,0.000000,0.007878,0.030569,-0.000000
0.480000,-2.615161,-2.228948,-1.391194,0.185918,0.534997,-0.107501,0.659668,1.913762,-0.138325,-0.531290,-0.574516,2.022802,-8.530594,-26.675288,2.838645,0.189642,-0.066213,0.000000,-0.017446,0.039035,0.000000
0.490000,-2.613269,-2.223502,-1.392276,0.192487,0.554102,-0.108782,0.653934,1.906693,-0.117973,-0.614826,-0.838446,2.045783,-8.174478,-26.102813,1.760009,0.189342,-0.065773,0.000000,-0.042608,0.047286,-0.000000
0.500000,-2.611312,-2.217866,-1.393369,0.198994,0.573122,-0.109860,0.647383,1.897013,-0.097445,-0.694738,-1.096416,2.058064,-7.805756,-25.483615,0.699957,0.188791,-0.065250,0.000000,-0.067571,0.055308,-0.000000
0.510000,-2.609290,-2.212040,-1.394472,0.205432,0.592033,-0.110731,0.640052,1.884785,-0.076852,-0.770881,-1.348020,2.059350,-7.426222,-24.818990,-0.321194,0.187991,-0.064648,0.000000,-0.092304,0.063086,-0.000000
0.520000,-2.607204,-2.206026,-1.395583,0.211793,0.610810,-0.111397,0.631979,1.870076,-0.056292,-0.843203,-1.592712,2.051161,-7.036484,-24.112843,-1.310911,0.186946,-0.063967,0.000000,-0.116728,0.070600,0.000000
0.530000,-2.605054,-2.199824,-1.396699,0.218069,0.629427,-0.111857,0.623201,1.852955,-0.035862,-0.911581,-1.830147,2.033255,-6.637706,-23.367850,-2.263568,0.185658,-0.063211,0.000000,-0.140813,0.077836,0.000000
0.540000,-2.602843,-2.193438,-1.397819,0.224254,0.647861,-0.112115,0.613760,1.833498,-0.015658,-0.975931,-2.059949,2.006032,-6.231056,-22.586687,-3.173543,0.184131,-0.062384,0.000000,-0.164510,0.084777,-0.000000
0.550000,-2.600569,-2.186868,-1.398941,0.230342,0.666089,-0.112171,0.603696,1.811783,0.004230,-1.036180,-2.281769,1.969945,-5.817700,-21.772030,-4.035212,0.182369,-0.061488,0.000000,-0.187767,0.091408,0.000000
0.560000,-2.598236,-2.180117,-1.400062,0.236326,0.684090,-0.112031,0.593051,1.787890,0.023705,-1.092254,-2.495355,1.924742,-5.399108,-20.924827,-4.823627,0.180377,-0.060526,0.000000,-0.210552,0.097716,-0.000000
0.570000,-2.595843,-2.173187,-1.401181,0.242201,0.701840,-0.111699,0.581865,1.761904,0.042699,-1.144134,-2.700250,1.872801,-4.976105,-20.049693,-5.554854,0.178160,-0.059502,0.000000,-0.232765,0.103675,-0.000000
0.580000,-2.593392,-2.166081,-1.402296,0.247962,0.719321,-0.111179,0.570182,1.733914,0.061138,-1.191766,-2.896265,1.813847,-4.549820,-19.149516,-6.225633,0.175723,-0.058421,0.000000,-0.254374,0.109276,-0.000000
0.590000,-2.590884,-2.158801,-1.403404,0.253604,0.736512,-0.110478,0.558044,1.704010,0.078955,-1.235123,-3.083166,1.748500,-4.121384,-18.227182,-6.832706,0.173074,-0.057284,0.000000,-0.275325,0.114503,-0.000000
0.600000,-2.588321,-2.151352,-1.404505,0.259122,0.753395,-0.109602,0.545494,1.672282,0.096089,-1.274190,-3.260745,1.677416,-3.691924,-17.285580,-7.372815,0.170219,-0.056097,0.000000,-0.295568,0.119343,-0.000000
0.610000,-2.585702,-2.143734,-1.405595,0.264512,0.769952,-0.108558,0.532575,1.638826,0.112477,-1.308924,-3.428810,1.600424,-3.263521,-16.327924,-7.821118,0.167165,-0.054864,0.000000,-0.315062,0.123783,0.000000
0.620000,-2.583031,-2.135954,-1.406675,0.269772,0.786166,-0.107355,0.519330,1.603738,0.128083,-1.339422,-3.587244,1.520266,-2.836237,-15.356734,-8.198584,0.163921,-0.053588,0.000000,-0.333726,0.127811,0.000000
0.630000,-2.580307,-2.128012,-1.407742,0.274898,0.802022,-0.105999,0.505801,1.567114,0.142871,-1.365656,-3.735909,1.436690,-2.411085,-14.374857,-8.504596,0.160494,-0.052274,0.000000,-0.351528,0.131417,0.000000
0.640000,-2.577533,-2.119914,-1.408795,0.279887,0.817504,-0.104500,0.492031,1.529053,0.156808,-1.387654,-3.874715,1.350414,-1.989077,-13.385140,-8.738540,0.156893,-0.050927,0.000000,-0.368423,0.134593,-0.000000
0.650000,-2.574710,-2.111664,-1.409832,0.284738,0.832598,-0.102866,0.478062,1.489653,0.169872,-1.405451,-4.003595,1.262162,-1.571226,-12.390432,-8.899799,0.153128,-0.049550,0.000000,-0.384369,0.137331,0.000000
0.660000,-2.571839,-2.103264,-1.410852,0.289448,0.847293,-0.101106,0.463937,1.449016,0.182039,-1.419014,-4.122371,1.171870,-1.160609,-11.397252,-8.967731,0.149209,-0.048149,0.000000,-0.399327,0.139623,-0.000000
0.670000,-2.568922,-2.094719,-1.411853,0.294016,0.861575,-0.099228,0.449695,1.407239,0.193309,-1.428591,-4.231377,1.082151,-0.755921,-10.404324,-8.964201,0.145145,-0.046728,0.000000,-0.413267,0.141475,-0.000000
0.680000,-2.565959,-2.086034,-1.412836,0.298441,0.875434,-0.097242,0.435378,1.364421,0.203683,-1.434155,-4.330466,0.992818,-0.357924,-9.414047,-8.891046,0.140947,-0.045291,0.000000,-0.426160,0.142881,-0.000000
0.690000,-2.562953,-2.077212,-1.413798,0.302724,0.888860,-0.095157,0.421025,1.320662,0.213169,-1.435774,-4.419675,0.904556,0.032622,-8.428815,-8.750102,0.136626,-0.043843,0.000000,-0.437980,0.143842,-0.000000
0.700000,-2.559905,-2.068258,-1.414739,0.306862,0.901844,-0.092982,0.406676,1.276060,0.221780,-1.433529,-4.499067,0.818035,0.414958,-7.451028,-8.543208,0.132191,-0.042389,0.000000,-0.448708,0.144358,0.000000
0.710000,-2.556817,-2.059176,-1.415657,0.310857,0.914379,-0.090724,0.392369,1.230716,0.229531,-1.427388,-4.568468,0.733289,0.785366,-6.489664,-8.256626,0.127655,-0.040932,0.000000,-0.458313,0.144426,-0.000000
0.720000,-2.553689,-2.049972,-1.416553,0.314710,0.926456,-0.088394,0.378140,1.184723,0.236456,-1.417721,-4.628605,0.652409,1.146406,-5.539732,-7.909674,0.123029,-0.039478,0.000000,-0.466829,0.144072,-0.000000
0.730000,-2.550523,-2.040649,-1.417425,0.318420,0.938071,-0.085998,0.364026,1.138176,0.242591,-1.404493,-4.679306,0.575284,1.497678,-4.602825,-7.506096,0.118323,-0.038030,0.000000,-0.474232,0.143294,0.000000
0.740000,-2.547321,-2.031212,-1.418273,0.321991,0.949218,-0.083545,0.350062,1.091168,0.247976,-1.387802,-4.720710,0.502463,1.838785,-3.680534,-7.049637,0.113548,-0.036593,0.000000,-0.480524,0.142100,0.000000
0.750000,-2.544083,-2.021666,-1.419096,0.325422,0.959893,-0.081041,0.336281,1.043792,0.252657,-1.367752,-4.752971,0.434455,2.169328,-2.774449,-6.544041,0.108716,-0.035171,0.000000,-0.485713,0.140501,-0.000000
0.760000,-2.540813,-2.012016,-1.419893,0.328717,0.970093,-0.078493,0.322719,0.996142,0.256679,-1.344326,-4.775950,0.371355,2.485730,-1.893946,-5.983496,0.103838,-0.033768,0.000000,-0.489780,0.138496,-0.000000
0.770000,-2.537510,-2.002266,-1.420665,0.331877,0.979815,-0.075909,0.309405,0.948302,0.260103,-1.317932,-4.790564,0.314494,2.791162,-1.031879,-5.382471,0.098924,-0.032387,0.000000,-0.492810,0.136126,-0.000000
0.780000,-2.534176,-1.992421,-1.421411,0.334906,0.989059,-0.073293,0.296370,0.900359,0.262990,-1.288539,-4.796651,0.263825,3.085615,-0.188888,-4.745882,0.093985,-0.031033,0.000000,-0.494789,0.133390,0.000000
0.790000,-2.530812,-1.982486,-1.422131,0.337806,0.997823,-0.070651,0.283644,0.852397,0.265401,-1.256256,-4.794407,0.219678,3.369081,0.634388,-4.078641,0.089031,-0.029709,0.000000,-0.495743,0.130302,0.000000
0.800000,-2.527420,-1.972466,-1.422824,0.340580,1.006107,-0.067987,0.271254,0.804498,0.267406,-1.221194,-4.784031,0.182338,3.641550,1.437312,-3.385664,0.084073,-0.028418,0.000000,-0.495696,0.126877,-0.000000
0.810000,-2.524001,-1.962366,-1.423491,0.343232,1.013913,-0.065304,0.259230,0.756745,0.269070,-1.183362,-4.765465,0.151904,3.900474,2.212531,-2.668561,0.079121,-0.027164,0.000000,-0.494654,0.123120,0.000000
0.820000,-2.520556,-1.952190,-1.424130,0.345766,1.021243,-0.062606,0.247596,0.709214,0.270468,-1.143107,-4.739550,0.128871,4.148696,2.966943,-1.935953,0.074183,-0.025949,0.000000,-0.492710,0.119069,0.000000
0.830000,-2.517086,-1.941942,-1.424743,0.348185,1.028098,-0.059895,0.236376,0.661979,0.271672,-1.100422,-4.706195,0.113219,4.386517,3.700730,-1.193161,0.069270,-0.024777,0.000000,-0.489868,0.114728,0.000000
0.840000,-2.513592,-1.931629,-1.425328,0.350495,1.034483,-0.057173,0.225595,0.615114,0.272757,-1.055410,-4.665604,0.105024,4.614241,4.414077,-0.445502,0.064389,-0.023650,0.000000,-0.486162,0.110111,-0.000000
0.850000,-2.510076,-1.921254,-1.425886,0.352699,1.040402,-0.054440,0.215275,0.568690,0.273798,-1.008170,-4.617981,0.104307,4.832170,5.107167,0.301705,0.059549,-0.022571,0.000000,-0.481629,0.105233,-0.000000
0.860000,-2.506539,-1.910823,-1.426417,0.354802,1.045859,-0.051697,0.205439,0.522779,0.274869,-0.958752,-4.563383,0.111127,5.039444,5.776540,1.040898,0.054759,-0.021542,0.000000,-0.476287,0.100102,-0.000000
0.870000,-2.502981,-1.900339,-1.426920,0.356809,1.050859,-0.048942,0.196107,0.477445,0.276045,-0.907359,-4.502352,0.125189,5.237670,6.426469,1.769276,0.050026,-0.020566,0.000000,-0.470210,0.094742,0.000000
0.880000,-2.499403,-1.889807,-1.427396,0.358726,1.055410,-0.046175,0.187298,0.432753,0.277397,-0.854028,-4.434917,0.146460,5.427293,7.057583,2.481794,0.045357,-0.019646,0.000000,-0.463415,0.089162,0.000000
0.890000,-2.495806,-1.879232,-1.427844,0.360557,1.059517,-0.043394,0.179033,0.388767,0.278997,-0.798841,-4.361261,0.174755,5.608758,7.670513,3.173410,0.040760,-0.018782,0.000000,-0.455936,0.083372,0.000000
0.900000,-2.492192,-1.868618,-1.428264,0.362308,1.063188,-0.040594,0.171328,0.345548,0.280915,-0.741878,-4.281565,0.209842,5.782509,8.265888,3.839077,0.036241,-0.017977,0.000000,-0.447805,0.077382,0.000000
0.910000,-2.488560,-1.857970,-1.428655,0.363985,1.066431,-0.037774,0.164200,0.303155,0.283219,-0.683236,-4.196018,0.251699,5.949537,8.844807,4.467041,0.031806,-0.017234,0.000000,-0.439055,0.071205,-0.000000
0.920000,-2.484912,-1.847291,-1.429019,0.365594,1.069254,-0.034929,0.157668,0.261647,0.285969,-0.622935,-4.104744,0.299365,6.109673,9.407373,5.059791,0.027462,-0.016553,0.000000,-0.429712,0.064844,-0.000000
0.930000,-2.481249,-1.836586,-1.429354,0.367141,1.071667,-0.032053,0.151747,0.221079,0.289225,-0.561065,-4.007924,0.352764,6.263297,9.954157,5.613105,0.023214,-0.015937,0.000000,-0.419805,0.058309,-0.000000
0.940000,-2.477570,-1.825859,-1.429660,0.368631,1.073679,-0.029142,0.146452,0.181506,0.293042,-0.497689,-3.905712,0.411481,6.410787,10.485731,6.122760,0.019067,-0.015387,0.000000,-0.409358,0.051608,-0.000000
0.950000,-2.473876,-1.815114,-1.429937,0.370072,1.075300,-0.026190,0.141798,0.142982,0.297471,-0.432868,-3.798258,0.475059,6.552521,11.002668,6.584534,0.015028,-0.014905,0.000000,-0.398395,0.044746,-0.000000
0.960000,-2.470168,-1.804354,-1.430184,0.371470,1.076542,-0.023191,0.137798,0.105556,0.302562,-0.366743,-3.685883,0.543403,6.691047,11.510019,6.983991,0.011101,-0.014493,0.000000,-0.386955,0.037736,0.000000
0.970000,-2.466447,-1.793584,-1.430400,0.372830,1.077415,-0.020137,0.134468,0.069281,0.308351,-0.299162,-3.568304,0.615011,6.824307,12.003328,7.328374,0.007291,-0.014151,0.000000,-0.375013,0.030562,-0.000000
0.980000,-2.462712,-1.782807,-1.430586,0.374161,1.077932,-0.017021,0.131819,0.034206,0.314873,-0.230274,-3.445863,0.689777,6.952414,12.482617,7.614710,0.003602,-0.013882,0.000000,-0.362606,0.023239,0.000000
0.990000,-2.458964,-1.772027,-1.430741,0.375469,1.078104,-0.013837,0.129866,0.000380,0.322155,-0.160130,-3.318699,0.767102,7.075480,12.947909,7.840028,0.000040,-0.013687,0.000000,-0.349748,0.015768,0.000000
1.000000,-2.455203,-1.761246,-1.430863,0.376761,1.077944,-0.010576,0.128621,-0.032152,0.330221,-0.088781,-3.186951,0.846364,7.193617,13.399228,8.001356,-0.003391,-0.013567,0.000000,-0.336452,0.008152,-0.000000
1.010000,-2.451429,-1.750469,-1.430952,0.378044,1.077465,-0.007230,0.128093,-0.063348,0.339093,-0.016404,-3.051046,0.927424,7.310225,13.843802,8.082640,-0.006688,-0.013524,0.000000,-0.322760,0.000408,0.000000
1.020000,-2.447642,-1.739698,-1.431007,0.379325,1.076681,-0.003791,0.128297,-0.093159,0.348772,0.057260,-2.910446,1.008373,7.421726,14.273566,8.095593,-0.009845,-0.013559,0.000000,-0.308608,-0.007496,-0.000000
1.030000,-2.443842,-1.728936,-1.431027,0.380612,1.075607,-0.000252,0.129242,-0.121543,0.359259,0.132013,-2.765627,1.089104,7.527831,14.687661,8.038845,-0.012859,-0.013674,0.000000,-0.294039,-0.015540,-0.000000
1.040000,-2.440029,-1.718187,-1.431012,0.381913,1.074255,0.003397,0.130940,-0.148458,0.370551,0.207798,-2.616748,1.168913,7.628249,15.085228,7.911027,-0.015725,-0.013871,0.000000,-0.279061,-0.023724,-0.000000
1.050000,-2.436204,-1.707452,-1.430959,0.383234,1.072643,0.007162,0.133401,-0.173865,0.382632,0.284558,-2.463980,1.247083,7.722692,15.465407,7.710769,-0.018439,-0.014149,0.000000,-0.263680,-0.032044,-0.000000
1.060000,-2.432365,-1.696735,-1.430868,0.384583,1.070783,0.011052,0.136633,-0.197728,0.395491,0.362091,-2.307806,1.323497,7.814405,15.835043,7.421176,-0.020997,-0.014512,0.000000,-0.247938,-0.040484,0.000000
1.070000,-2.428512,-1.686037,-1.430737,0.385969,1.068693,0.015074,0.140646,-0.220009,0.409091,0.440665,-2.147690,1.395955,7.899129,16.184629,7.058305,-0.023396,-0.014960,0.000000,-0.231761,-0.049072,-0.000000
1.080000,-2.424645,-1.675361,-1.430566,0.387399,1.066389,0.019236,0.145449,-0.240671,0.423397,0.520048,-1.984186,1.464420,7.976141,16.512363,6.622687,-0.025631,-0.015494,0.000000,-0.215195,-0.057788,0.000000
1.090000,-2.420764,-1.664710,-1.430352,0.388881,1.063885,0.023544,0.151049,-0.259682,0.438364,0.600159,-1.817522,1.528168,8.044717,16.816442,6.114854,-0.027699,-0.016116,0.000000,-0.198249,-0.066625,-0.000000
1.100000,-2.416867,-1.654084,-1.430095,0.390422,1.061201,0.028005,0.157454,-0.277012,0.453942,0.680911,-1.647942,1.586479,8.104133,17.095065,5.535338,-0.029595,-0.016828,0.000000,-0.180935,-0.075577,-0.000000
1.110000,-2.412955,-1.643486,-1.429792,0.392032,1.058351,0.032625,0.164668,-0.292634,0.470080,0.762102,-1.475927,1.639324,8.156372,17.351878,4.867346,-0.031316,-0.017629,0.000000,-0.163290,-0.084623,0.000000
1.120000,-2.409026,-1.632918,-1.429442,0.393719,1.055354,0.037408,0.172698,-0.306522,0.486705,0.843882,-1.301247,1.684371,8.197674,17.578961,4.130854,-0.032860,-0.018521,0.000000,-0.145270,-0.093777,-0.000000
1.130000,-2.405081,-1.622380,-1.429043,0.395489,1.052226,0.042360,0.181547,-0.318652,0.503742,0.926015,-1.124455,1.721721,8.226985,17.773846,3.328515,-0.034221,-0.019506,0.000000,-0.126921,-0.103014,0.000000
1.140000,-2.401116,-1.611874,-1.428594,0.397352,1.048987,0.047484,0.191219,-0.329005,0.521112,1.008378,-0.945885,1.750730,8.243251,17.934063,2.462983,-0.035397,-0.020583,0.000000,-0.108265,-0.112319,0.000000
1.150000,-2.397133,-1.601400,-1.428093,0.399316,1.045652,0.052783,0.201715,-0.337565,0.538727,1.090833,-0.765897,1.770779,8.245417,18.057141,1.536910,-0.036385,-0.021754,0.000000,-0.089328,-0.121675,0.000000
1.160000,-2.393130,-1.590961,-1.427538,0.401389,1.042241,0.058259,0.213035,-0.344320,0.556503,1.173207,-0.584894,1.781978,8.233168,18.141109,0.535197,-0.037183,-0.023018,0.000000,-0.070145,-0.131058,0.000000
1.170000,-2.389105,-1.580556,-1.426927,0.403580,1.038772,0.063913,0.225178,-0.349261,0.574332,1.255410,-0.403238,1.782099,8.204620,18.182938,-0.519578,-0.037787,-0.024377,0.000000,-0.050741,-0.140451,0.000000
1.180000,-2.385058,-1.570185,-1.426259,0.405896,1.035262,0.069745,0.238142,-0.352384,0.592109,1.337241,-0.221384,1.771426,8.158629,18.180099,-1.622588,-0.038197,-0.025829,0.000000,-0.031159,-0.149825,0.000000
1.190000,-2.380987,-1.559851,-1.425531,0.408345,1.031730,0.075755,0.251921,-0.353689,0.609723,1.418520,-0.039793,1.749502,8.094049,18.130061,-2.769007,-0.038410,-0.027375,0.000000,-0.011447,-0.159152,-0.000000
1.200000,-2.376890,-1.549551,-1.424743,0.410937,1.028194,0.081939,0.266510,-0.353182,0.627060,1.499056,0.141051,1.715917,8.009737,18.030293,-3.954008,-0.038426,-0.029014,0.000000,0.008346,-0.168400,0.000000
1.210000,-2.372767,-1.539287,-1.423892,0.413678,1.024673,0.088294,0.281900,-0.350870,0.644008,1.578725,0.320887,1.670932,7.902524,17.871990,-5.188483,-0.038243,-0.030745,0.000000,0.028185,-0.177546,-0.000000
1.220000,-2.368616,-1.529057,-1.422977,0.416577,1.021183,0.094817,0.298081,-0.346771,0.660437,1.657124,0.498591,1.612759,7.773536,17.659666,-6.449963,-0.037862,-0.032567,0.000000,0.047949,-0.186526,-0.000000
1.230000,-2.364435,-1.518863,-1.421995,0.419642,1.017743,0.101501,0.315038,-0.340906,0.676221,1.734120,0.673894,1.541865,7.621877,17.391557,-7.731697,-0.037284,-0.034478,0.000000,0.067597,-0.195312,-0.000000
1.240000,-2.360223,-1.508702,-1.420946,0.422881,1.014371,0.108339,0.332758,-0.333303,0.691232,1.809483,0.846230,1.458080,7.446649,17.065901,-9.026934,-0.036511,-0.036475,0.000000,0.087054,-0.203862,0.000000
1.250000,-2.355977,-1.498575,-1.419828,0.426300,1.011083,0.115323,0.351221,-0.323993,0.705339,1.882972,1.015014,1.361304,7.246955,16.680936,-10.328925,-0.035544,-0.038557,0.000000,0.106240,-0.212132,0.000000
1.260000,-2.351696,-1.488480,-1.418639,0.429907,1.007896,0.122442,0.370412,-0.313011,0.718419,1.954534,1.180171,1.251906,7.016928,16.221631,-11.641139,-0.034387,-0.040720,0.000000,0.125125,-0.220097,0.000000
1.270000,-2.347378,-1.478417,-1.417379,0.433710,1.004828,0.129687,0.390304,-0.300406,0.730334,2.023447,1.339835,1.128964,6.761249,15.701117,-12.945352,-0.033043,-0.042960,0.000000,0.143485,-0.227654,-0.000000
1.280000,-2.343021,-1.468383,-1.416045,0.437716,1.001893,0.137045,0.410872,-0.286232,0.740955,2.089673,1.493988,0.993053,6.479631,15.119258,-14.233562,-0.031519,-0.045274,0.000000,0.161289,-0.234780,0.000000
1.290000,-2.338623,-1.458378,-1.414637,0.441930,0.999108,0.144501,0.432088,-0.270547,0.750152,2.152952,1.642016,0.844373,6.171783,14.475915,-15.497765,-0.029819,-0.047656,0.000000,0.178440,-0.241425,0.000000
1.300000,-2.334182,-1.448401,-1.413155,0.446360,0.996487,0.152043,0.453920,-0.253414,0.757800,2.213020,1.783301,0.683204,5.837418,13.770952,-16.729959,-0.027952,-0.050103,0.000000,0.194839,-0.247538,0.000000
1.310000,-2.329695,-1.438448,-1.411596,0.451010,0.994044,0.159652,0.476340,-0.234898,0.763776,2.269898,1.917955,0.509945,5.469000,12.985895,-17.923109,-0.025925,-0.052608,0.000000,0.210466,-0.253103,0.000000
1.320000,-2.325161,-1.428519,-1.409961,0.455888,0.991793,0.167312,0.499306,-0.215083,0.767960,2.322636,2.043639,0.324946,5.074374,12.141187,-19.068127,-0.023746,-0.055164,0.000000,0.225029,-0.257996,-0.000000
1.330000,-2.320577,-1.418612,-1.408250,0.460998,0.989747,0.175005,0.522779,-0.194054,0.770238,2.371300,2.160587,0.128770,4.654140,11.238937,-20.156891,-0.021428,-0.057767,0.000000,0.238521,-0.262205,0.000000
1.340000,-2.315940,-1.408723,-1.406461,0.466345,0.987916,0.182710,0.546717,-0.171902,0.770500,2.415636,2.268233,-0.077978,4.208896,10.281252,-21.181280,-0.018980,-0.060407,0.000000,0.250845,-0.265690,0.000000
1.350000,-2.311249,-1.398852,-1.404596,0.471934,0.986312,0.190408,0.571076,-0.148722,0.768645,2.455397,2.366034,-0.294614,3.739242,9.270240,-22.133173,-0.016415,-0.063079,0.000000,0.261912,-0.268409,-0.000000
1.360000,-2.306501,-1.388996,-1.402653,0.477768,0.984944,0.198076,0.595812,-0.124607,0.764573,2.490653,2.454233,-0.520815,3.237898,8.188661,-22.993279,-0.013745,-0.065774,0.000000,0.271721,-0.270358,0.000000
1.370000,-2.301693,-1.379153,-1.400634,0.483851,0.983822,0.205692,0.620872,-0.099674,0.758202,2.520432,2.530515,-0.754687,2.714306,7.060339,-23.766014,-0.010985,-0.068484,0.000000,0.279991,-0.271433,-0.000000
1.380000,-2.296823,-1.369319,-1.398540,0.490186,0.982953,0.213232,0.646203,-0.074035,0.749455,2.544870,2.595299,-0.995821,2.170029,5.889752,-24.444626,-0.008150,-0.071200,0.000000,0.286749,-0.271644,-0.000000
1.390000,-2.291888,-1.359493,-1.396370,0.496776,0.982344,0.220673,0.671751,-0.047808,0.738265,2.563769,2.648184,-1.243243,1.606629,4.681377,-25.022360,-0.005256,-0.073914,0.000000,0.291937,-0.270973,0.000000
1.400000,-2.286887,-1.349671,-1.394127,0.503622,0.981999,0.227989,0.697460,-0.021113,0.724573,2.576944,2.688815,-1.495910,1.025670,3.439690,-25.492463,-0.002317,-0.076617,0.000000,0.295508,-0.269407,0.000000
1.410000,-2.281815,-1.339852,-1.391811,0.510725,0.981922,0.235156,0.723273,0.005933,0.708322,2.584476,2.717478,-1.753660,0.422462,2.154119,-25.824201,0.000650,-0.079299,0.000000,0.297492,-0.266959,0.000000
1.420000,-2.276671,-1.330032,-1.389424,0.518087,0.982118,0.242147,0.749129,0.033194,0.689490,2.585627,2.732495,-2.013070,-0.194413,0.846033,-26.037738,0.003627,-0.081953,0.000000,0.297710,-0.263587,0.000000
1.430000,-2.271452,-1.320209,-1.386969,0.525708,0.982586,0.248937,0.774965,0.060539,0.668056,2.580550,2.734344,-2.274008,-0.822626,-0.478248,-26.129257,0.006598,-0.084568,0.000000,0.296231,-0.259321,-0.000000
1.440000,-2.266156,-1.310379,-1.384446,0.533586,0.983328,0.255499,0.800719,0.087836,0.644009,2.569145,2.722897,-2.535236,-1.459848,-1.812404,-26.094940,0.009546,-0.087136,0.000000,0.293059,-0.254177,0.000000
1.450000,-2.260780,-1.300541,-1.381859,0.541722,0.984343,0.261808,0.826326,0.114952,0.617354,2.551331,2.698084,-2.795475,-2.103750,-3.150117,-25.930971,0.012454,-0.089649,0.000000,0.288216,-0.248180,0.000000
1.460000,-2.255321,-1.290692,-1.379211,0.550112,0.985626,0.267838,0.851725,0.141756,0.588093,2.527154,2.660135,-3.054772,-2.754511,-4.490913,-25.599151,0.015305,-0.092098,0.000000,0.281758,-0.241357,0.000000
1.470000,-2.249777,-1.280828,-1.376504,0.558755,0.987176,0.273562,0.876848,0.168110,0.556272,2.496347,2.608560,-3.308549,-3.406988,-5.821910,-25.134254,0.018084,-0.094474,0.000000,0.273679,-0.233750,-0.000000
1.480000,-2.244145,-1.270947,-1.373741,0.567648,0.988987,0.278955,0.901630,0.193883,0.521939,2.459018,2.543753,-3.557014,-4.058544,-7.136071,-24.536675,0.020774,-0.096771,0.000000,0.264067,-0.225401,-0.000000
1.490000,-2.238423,-1.261047,-1.370926,0.576786,0.991051,0.283993,0.926006,0.218942,0.485154,2.415188,2.465918,-3.798842,-4.706545,-8.426361,-23.806806,0.023360,-0.098981,0.000000,0.252993,-0.216357,0.000000
1.500000,-2.232608,-1.251125,-1.368062,0.586166,0.993363,0.288650,0.949912,0.243159,0.445989,2.364907,2.375329,-4.032711,-5.348353,-9.685744,-22.945041,0.025829,-0.101097,0.000000,0.240542,-0.206669,0.000000
1.510000,-2.226699,-1.241179,-1.365154,0.595783,0.995911,0.292905,0.973282,0.266405,0.404514,2.308153,2.272089,-4.258853,-5.978863,-10.901099,-21.912657,0.028167,-0.103113,0.000000,0.226777,-0.196367,0.000000
1.520000,-2.220692,-1.231206,-1.362206,0.605630,0.998687,0.296734,0.996054,0.288561,0.360849,2.245257,2.157183,-4.472289,-6.598212,-12.072220,-20.753952,0.030361,-0.105024,0.000000,0.211872,-0.185575,-0.000000
1.530000,-2.214586,-1.221205,-1.359221,0.615702,1.001679,0.300115,1.018167,0.309510,0.315109,2.176233,2.030813,-4.673528,-7.204067,-13.192817,-19.474110,0.032400,-0.106825,0.000000,0.195900,-0.174322,0.000000
1.540000,-2.208377,-1.211172,-1.356205,0.625991,1.004873,0.303030,1.039559,0.329141,0.267423,2.101228,1.893516,-4.861385,-7.794094,-14.256599,-18.078314,0.034276,-0.108511,0.000000,0.178974,-0.162670,0.000000
1.550000,-2.202065,-1.201107,-1.353162,0.636490,1.008257,0.305458,1.060172,0.347346,0.217929,2.020412,1.745891,-5.034725,-8.365959,-15.257275,-16.571747,0.035977,-0.110079,0.000000,0.161212,-0.150681,-0.000000
1.560000,-2.195647,-1.191006,-1.350097,0.647192,1.011815,0.307383,1.079945,0.364018,0.166765,1.933674,1.587852,-5.193834,-8.909651,-16.169626,-14.925084,0.037496,-0.111525,0.000000,0.142649,-0.138370,-0.000000
1.570000,-2.189121,-1.180870,-1.347016,0.658086,1.015532,0.308789,1.098828,0.379074,0.114109,1.841949,1.421898,-5.334447,-9.431456,-17.008608,-13.182242,0.038828,-0.112848,0.000000,0.123602,-0.125908,-0.000000
1.580000,-2.182484,-1.170695,-1.343923,0.669165,1.019391,0.309661,1.116767,0.392429,0.060136,1.745122,1.247938,-5.457190,-9.929981,-17.770248,-11.352628,0.039967,-0.114045,0.000000,0.104096,-0.113300,-0.000000
1.590000,-2.175737,-1.160482,-1.340825,0.680419,1.023375,0.309988,1.133714,0.404009,0.005028,1.643432,1.066764,-5.561242,-10.403832,-18.450573,-9.445650,0.040909,-0.115115,0.000000,0.084245,-0.100600,-0.000000
1.600000,-2.168875,-1.150227,-1.337725,0.691836,1.027465,0.309758,1.149621,0.413743,-0.051024,1.537132,0.879211,-5.645876,-10.851618,-19.045611,-7.470718,0.041651,-0.116058,0.000000,0.064161,-0.087860,-0.000000
1.610000,-2.161899,-1.139932,-1.334631,0.703407,1.031643,0.308965,1.164437,0.421562,-0.107831,1.426046,0.685005,-5.711224,-11.260699,-19.522473,-5.417968,0.042190,-0.116873,0.000000,0.043836,-0.075073,0.000000
1.620000,-2.154807,-1.129594,-1.331548,0.715121,1.035890,0.307600,1.178128,0.427429,-0.165179,1.311508,0.487769,-5.754940,-11.642305,-19.909642,-3.318439,0.042528,-0.117561,0.000000,0.023654,-0.062411,0.000000
1.630000,-2.147597,-1.119214,-1.328481,0.726966,1.040185,0.305660,1.190655,0.431306,-0.222859,1.193291,0.287112,-5.777476,-11.996420,-20.206688,-1.183899,0.042664,-0.118123,0.000000,0.003575,-0.049850,0.000000
1.640000,-2.140267,-1.108791,-1.325437,0.738930,1.044509,0.303143,1.201983,0.433163,-0.280657,1.071671,0.083937,-5.778540,-12.323030,-20.413177,0.973883,0.042600,-0.118560,0.000000,-0.016311,-0.037424,-0.000000
1.650000,-2.132818,-1.098324,-1.322420,0.751002,1.048842,0.300047,1.212078,0.432979,-0.338358,0.946922,-0.120848,-5.757960,-12.622119,-20.528678,3.143140,0.042339,-0.118873,0.000000,-0.035923,-0.025161,-0.000000
1.660000,-2.125247,-1.087814,-1.319438,0.763168,1.053162,0.296376,1.220907,0.430731,-0.395744,0.818903,-0.327495,-5.715625,-12.883138,-20.523374,5.310753,0.041881,-0.119064,0.000000,-0.055299,-0.013044,0.000000
1.670000,-2.117554,-1.077261,-1.316495,0.775416,1.057450,0.292134,1.228448,0.426431,-0.452598,0.688877,-0.532333,-5.651724,-13.117894,-20.429816,7.466470,0.041234,-0.119135,0.000000,-0.074104,-0.001186,0.000000
1.680000,-2.109738,-1.066665,-1.313597,0.787732,1.061684,0.287327,1.234677,0.420089,-0.508707,0.556629,-0.735808,-5.566374,-13.327660,-20.251170,9.598689,0.040401,-0.119088,0.000000,-0.092408,0.010445,-0.000000
1.690000,-2.101799,-1.056027,-1.310750,0.800105,1.065845,0.281963,1.239574,0.411722,-0.563855,0.422403,-0.937083,-5.459867,-13.513710,-19.990601,11.695807,0.039388,-0.118926,0.000000,-0.110160,0.021842,-0.000000
1.700000,-2.093736,-1.045348,-1.307959,0.812519,1.069912,0.276054,1.243120,0.401357,-0.617835,0.286430,-1.135357,-5.332614,-13.677318,-19.651275,13.746221,0.038200,-0.118652,0.000000,-0.127320,0.033002,0.000000
1.710000,-2.085549,-1.034629,-1.305231,0.824963,1.073866,0.269611,1.245295,0.389020,-0.670432,0.148721,-1.330613,-5.184353,-13.814566,-19.217259,15.718510,0.036843,-0.118267,0.000000,-0.143920,0.043936,0.000000
1.720000,-2.077237,-1.023871,-1.302569,0.837421,1.077686,0.262650,1.246090,0.374761,-0.721457,0.009971,-1.520321,-5.017584,-13.932556,-18.713157,17.623317,0.035324,-0.117773,0.000000,-0.159768,0.054626,0.000000
1.730000,-2.068800,-1.013076,-1.299979,0.849880,1.081355,0.255188,1.245491,0.358631,-0.770721,-0.129872,-1.704661,-4.832142,-14.033196,-18.144474,19.451466,0.033650,-0.117174,0.000000,-0.174922,0.065094,-0.000000
1.740000,-2.060239,-1.002245,-1.297467,0.862326,1.084853,0.247242,1.243489,0.340687,-0.818040,-0.270642,-1.883014,-4.628840,-14.118398,-17.516713,21.193782,0.031828,-0.116471,0.000000,-0.189368,0.075352,-0.000000
1.750000,-2.051554,-0.991380,-1.295036,0.874745,1.088163,0.238834,1.240076,0.320993,-0.863241,-0.412195,-2.054817,-4.408583,-14.190070,-16.835380,22.841089,0.029865,-0.115667,0.000000,-0.203095,0.085418,0.000000
1.760000,-2.042744,-0.980482,-1.292692,0.887123,1.091267,0.229985,1.235244,0.299613,-0.906145,-0.554310,-2.219712,-4.171109,-14.252511,-16.102181,24.352479,0.027768,-0.114763,0.000000,-0.216114,0.095290,0.000000
1.770000,-2.033811,-0.969555,-1.290438,0.899445,1.094150,0.220719,1.228988,0.276624,-0.946615,-0.697105,-2.376890,-3.920482,-14.304949,-15.326884,25.754393,0.025545,-0.113761,0.000000,-0.228398,0.105044,-0.000000
1.780000,-2.024756,-0.958600,-1.288279,0.911698,1.096795,0.211061,1.221301,0.252102,-0.984510,-0.840381,-2.526129,-3.656404,-14.349002,-14.515459,27.041543,0.023202,-0.112662,0.000000,-0.239966,0.114677,-0.000000
1.790000,-2.015578,-0.947620,-1.286218,0.923866,1.099187,0.201037,1.212179,0.226129,-1.019702,-0.984062,-2.667098,-3.380051,-14.386286,-13.673876,28.208639,0.020748,-0.111467,0.000000,-0.250828,0.124218,0.000000
1.800000,-2.006279,-0.936617,-1.284259,0.935936,1.101313,0.190676,1.201618,0.198788,-1.052074,-1.128090,-2.799526,-3.092649,-14.418419,-12.808103,29.250389,0.018188,-0.110177,0.000000,-0.260995,0.133694,-0.000000
1.810000,-1.996859,-0.925595,-1.282405,0.947894,1.103158,0.180005,1.189620,0.170171,-1.081507,-1.272059,-2.922813,-2.794054,-14.456102,-11.933886,30.125524,0.015531,-0.108793,0.000000,-0.270447,0.143089,0.000000
1.820000,-1.987321,-0.914555,-1.280660,0.959724,1.104712,0.169056,1.176176,0.140361,-1.107928,-1.416796,-3.037722,-2.488971,-14.490756,-11.046222,30.869140,0.012781,-0.107315,0.000000,-0.279290,0.152544,-0.000000
1.830000,-1.977665,-0.903501,-1.279025,0.971412,1.105962,0.157857,1.161283,0.109447,-1.131264,-1.561866,-3.143708,-2.177113,-14.522885,-10.149885,31.480352,0.009947,-0.105742,0.000000,-0.287501,0.162036,0.000000
1.840000,-1.967894,-0.892437,-1.277503,0.982945,1.106897,0.146441,1.144937,0.077517,-1.151452,-1.707247,-3.240707,-1.859808,-14.552995,-9.249648,31.958276,0.007033,-0.104074,0.000000,-0.295099,0.171596,0.000000
1.850000,-1.958007,-0.881365,-1.276097,0.994306,1.107509,0.134839,1.127137,0.044663,-1.168446,-1.852921,-3.328704,-1.538394,-14.581591,-8.350284,32.302028,0.004047,-0.102310,0.000000,-0.302105,0.181253,0.000000
1.860000,-1.948008,-0.870288,-1.274807,1.005482,1.107788,0.123082,1.107883,0.010980,-1.182197,-1.998392,-3.407063,-1.212884,-14.621398,-7.473449,32.477029,0.000994,-0.100449,0.000000,-0.308481,0.190982,0.000000
1.870000,-1.937898,-0.859210,-1.273636,1.016459,1.107726,0.111205,1.087168,-0.023450,-1.192700,-2.144797,-3.477447,-0.887789,-14.659204,-6.604965,32.520216,-0.002121,-0.098489,0.000000,-0.314392,0.200944,-0.000000
1.880000,-1.927680,-0.848134,-1.272583,1.027221,1.107316,0.099239,1.064986,-0.058540,-1.199953,-2.291566,-3.539199,-0.562908,-14.694017,-5.747538,32.434828,-0.005292,-0.096429,0.000000,-0.319790,0.211103,-0.000000
1.890000,-1.917355,-0.837065,-1.271651,1.037754,1.106553,0.087217,1.041335,-0.094205,-1.203964,-2.438664,-3.592444,-0.239510,-14.724845,-4.903873,32.224109,-0.008515,-0.094267,0.000000,-0.324693,0.221484,0.000000
1.900000,-1.906925,-0.826005,-1.270839,1.048043,1.105431,0.075171,1.016212,-0.130361,-1.204752,-2.586046,-3.637332,0.081167,-14.750697,-4.076676,31.891299,-0.011785,-0.091999,0.000000,-0.329121,0.232108,0.000000
1.910000,-1.896395,-0.814957,-1.270148,1.058073,1.103944,0.063132,0.989618,-0.166918,-1.202342,-2.733228,-3.673396,0.398979,-14.781439,-3.284932,31.412887,-0.015095,-0.089624,0.000000,-0.333033,0.242951,-0.000000
1.920000,-1.885765,-0.803927,-1.269576,1.067830,1.102091,0.051134,0.961546,-0.203803,-1.196791,-2.881162,-3.702370,0.710245,-14.803892,-2.513075,30.822144,-0.018444,-0.087138,0.000000,-0.336581,0.254142,0.000000
1.930000,-1.875039,-0.792917,-1.269125,1.077299,1.099868,0.039207,0.931994,-0.240940,-1.188158,-3.029270,-3.723727,1.015069,-14.815734,-1.761814,30.125586,-0.021826,-0.084539,0.000000,-0.339712,0.265642,-0.000000
1.940000,-1.864220,-0.781931,-1.268792,1.086465,1.097272,0.027381,0.900961,-0.278253,-1.176514,-3.177434,-3.737677,1.312426,-14.814646,-1.031863,29.329730,-0.025237,-0.081823,0.000000,-0.342439,0.277461,-0.000000
1.950000,-1.853311,-0.770973,-1.268577,1.095313,1.094302,0.015686,0.868446,-0.315669,-1.161938,-3.325512,-3.744437,1.601354,-14.798305,-0.323933,28.441093,-0.028673,-0.078987,0.000000,-0.344770,0.289606,-0.000000
1.960000,-1.842315,-0.760046,-1.268477,1.103829,1.090958,0.004151,0.834454,-0.353114,-1.144511,-3.473119,-3.743838,1.881618,-14.770001,0.351332,27.449580,-0.032130,-0.076028,0.000000,-0.346678,0.302055,0.000000
1.970000,-1.831235,-0.749155,-1.268493,1.111997,1.087240,-0.007195,0.798985,-0.390524,-1.124340,-3.620593,-3.737041,2.150828,-14.721115,1.004368,26.380355,-0.035605,-0.072942,0.000000,-0.348247,0.314866,-0.000000
1.980000,-1.820076,-0.738303,-1.268621,1.119804,1.083148,-0.018327,0.762044,-0.427833,-1.101531,-3.767463,-3.723823,2.408994,-14.648639,1.635678,25.241970,-0.039094,-0.069725,0.000000,-0.349442,0.328003,0.000000
1.990000,-1.808840,-0.727493,-1.268859,1.127233,1.078684,-0.029217,0.723638,-0.464980,-1.076199,-3.913477,-3.704399,2.655466,-14.549566,2.245768,24.042975,-0.042593,-0.066375,0.000000,-0.350263,0.341455,-0.000000
2.000000,-1.797533,-0.716730,-1.269204,1.134272,1.073849,-0.039843,0.683778,-0.501901,-1.048463,-4.058356,-3.678977,2.889680,-14.420886,2.835140,22.791923,-0.046098,-0.062889,0.000000,-0.350705,0.355204,0.000000
2.010000,-1.786156,-0.706017,-1.269655,1.140904,1.068647,-0.050179,0.642476,-0.538539,-1.018446,-4.201846,-3.647698,3.111323,-14.258093,3.402661,21.493239,-0.049606,-0.059263,0.000000,-0.350760,0.369234,-0.000000
2.020000,-1.774716,-0.695358,-1.270207,1.147116,1.063079,-0.060205,0.599747,-0.574837,-0.986280,-4.343466,-3.610916,3.319614,-14.059862,3.950673,20.160105,-0.053112,-0.055494,0.000000,-0.350434,0.383504,0.000000
2.030000,-1.763215,-0.684757,-1.270857,1.152894,1.057151,-0.069898,0.555613,-0.610739,-0.952099,-4.482915,-3.568747,3.514440,-13.823367,4.479883,18.801577,-0.056613,-0.051581,0.000000,-0.349713,0.397986,-0.000000
2.040000,-1.751659,-0.674217,-1.271603,1.158224,1.050866,-0.079240,0.510098,-0.646194,-0.916037,-4.619797,-3.521378,3.695591,-13.545783,4.990993,17.426713,-0.060105,-0.047521,0.000000,-0.348586,0.412642,0.000000
2.050000,-1.740053,-0.663741,-1.272441,1.163092,1.044229,-0.088213,0.463228,-0.681150,-0.878233,-4.753685,-3.468986,3.862950,-13.224286,5.484710,16.044568,-0.063583,-0.043313,0.000000,-0.347043,0.427425,0.000000
2.060000,-1.728399,-0.653333,-1.273366,1.167484,1.037245,-0.096799,0.415032,-0.715560,-0.838828,-4.884429,-3.411919,4.016102,-12.848412,5.966265,14.673976,-0.067044,-0.038955,0.000000,-0.345088,0.442314,0.000000
2.070000,-1.716704,-0.642997,-1.274376,1.171388,1.029920,-0.104985,0.365552,-0.749373,-0.797956,-5.010832,-3.349918,4.156025,-12.423910,6.431280,13.313019,-0.070484,-0.034447,0.000000,-0.342673,0.457182,-0.000000
2.080000,-1.704973,-0.632736,-1.275465,1.174791,1.022260,-0.112754,0.314830,-0.782543,-0.755753,-5.132739,-3.283348,4.282420,-11.948892,6.879908,11.969557,-0.073896,-0.029788,0.000000,-0.339803,0.472001,-0.000000
2.090000,-1.693210,-0.622553,-1.276629,1.177681,1.014271,-0.120096,0.262914,-0.815025,-0.712352,-5.249635,-3.212373,4.395501,-11.421467,7.312298,10.651449,-0.077278,-0.024981,0.000000,-0.336468,0.486704,-0.000000
2.100000,-1.681421,-0.612451,-1.277865,1.180046,1.005962,-0.126998,0.209856,-0.846776,-0.667886,-5.360987,-3.137156,4.495560,-10.839746,7.728601,9.366555,-0.080624,-0.020026,0.000000,-0.332656,0.501219,0.000000
2.110000,-1.669611,-0.602435,-1.279168,1.181874,0.997338,-0.133450,0.155710,-0.877757,-0.622493,-5.466686,-3.058099,4.582070,-10.190642,8.135141,8.145448,-0.083930,-0.014924,0.000000,-0.328375,0.515514,-0.000000
2.120000,-1.657786,-0.592506,-1.280533,1.183157,0.988409,-0.139444,0.100545,-0.907925,-0.576285,-5.565111,-2.974784,4.657609,-9.484835,8.525138,6.970493,-0.087190,-0.009680,0.000000,-0.323577,0.529404,0.000000
2.130000,-1.645950,-0.582668,-1.281955,1.183882,0.979183,-0.144973,0.044432,-0.937240,-0.529379,-5.656192,-2.887653,4.721650,-8.721806,8.897988,5.846767,-0.090400,-0.004297,0.000000,-0.318277,0.542855,-0.000000
2.140000,-1.634110,-0.572923,-1.283431,1.184042,0.969667,-0.150030,-0.012552,-0.965666,-0.481889,-5.739355,-2.796883,4.774732,-7.901037,9.253085,4.779349,-0.093554,0.001220,0.000000,-0.312471,0.555782,0.000000
2.150000,-1.622271,-0.563275,-1.284954,1.183629,0.959872,-0.154609,-0.070327,-0.993166,-0.433919,-5.814019,-2.702653,4.817442,-7.022011,9.589824,3.773316,-0.096647,0.006865,0.000000,-0.306159,0.568096,-0.000000
2.160000,-1.610439,-0.553726,-1.286521,1.182634,0.949807,-0.158707,-0.128808,-1.019710,-0.385585,-5.880085,-2.605314,4.849189,-6.071924,9.911751,2.864823,-0.099675,0.012633,0.000000,-0.299348,0.579752,0.000000
2.170000,-1.598620,-0.544280,-1.288127,1.181051,0.939482,-0.162320,-0.187896,-1.045262,-0.336965,-5.935813,-2.504670,4.873577,-5.064048,10.213600,2.024066,-0.102633,0.018515,0.000000,-0.292035,0.590550,0.000000
2.180000,-1.586820,-0.534938,-1.289766,1.178874,0.928906,-0.165445,-0.247489,-1.069794,-0.288141,-5.981177,-2.401113,4.889901,-3.999367,10.494257,1.252319,-0.105515,0.024504,0.000000,-0.284236,0.600452,-0.000000
2.190000,-1.575045,-0.525703,-1.291434,1.176099,0.918089,-0.168082,-0.307483,-1.093276,-0.239191,-6.015614,-2.294859,4.898857,-2.878867,10.752607,0.550854,-0.108316,0.030588,0.000000,-0.275963,0.609367,0.000000
2.200000,-1.563300,-0.516577,-1.293126,1.172723,0.907044,-0.170229,-0.367763,-1.115683,-0.190186,-6.038571,-2.186139,4.901156,-1.703536,10.987538,-0.079054,-0.111032,0.036759,0.000000,-0.267236,0.617206,0.000000
2.210000,-1.551592,-0.507562,-1.294837,1.168744,0.895779,-0.171886,-0.428219,-1.136991,-0.141202,-6.049977,-2.075213,4.896216,-0.462441,11.198502,-0.603213,-0.113659,0.043005,0.000000,-0.258064,0.623922,-0.000000
2.220000,-1.539927,-0.498662,-1.296562,1.164159,0.884307,-0.173053,-0.488721,-1.157180,-0.092278,-6.048181,-1.962280,4.887856,0.830056,11.383749,-1.057301,-0.116192,0.049314,0.000000,-0.248501,0.629333,-0.000000
2.230000,-1.528311,-0.489877,-1.298296,1.158970,0.872639,-0.173731,-0.549139,-1.176231,-0.043459,-6.033213,-1.847628,4.875294,2.171508,11.542094,-1.444077,-0.118628,0.055673,0.000000,-0.238566,0.633404,0.000000
2.240000,-1.516750,-0.481210,-1.300035,1.153177,0.860787,-0.173923,-0.609340,-1.194128,0.005216,-6.004596,-1.731531,4.859189,3.559471,11.672355,-1.766299,-0.120962,0.062067,0.000000,-0.228289,0.636058,0.000000
2.250000,-1.505250,-0.472662,-1.301773,1.146784,0.848761,-0.173628,-0.669184,-1.210858,0.053715,-5.961876,-1.614278,4.840174,4.991500,11.773348,-2.026726,-0.123193,0.068483,0.000000,-0.217710,0.637222,-0.000000
2.260000,-1.493816,-0.464235,-1.303506,1.139795,0.836573,-0.172849,-0.728533,-1.226409,0.102000,-5.905071,-1.496023,4.817719,6.476359,11.840266,-2.199509,-0.125315,0.074904,0.000000,-0.206836,0.636862,-0.000000
2.270000,-1.482456,-0.455931,-1.305229,1.132216,0.824237,-0.171588,-0.787235,-1.240777,0.150065,-5.832724,-1.377415,4.795083,7.999020,11.875993,-2.319516,-0.127329,0.081315,0.000000,-0.195782,0.634827,-0.000000
2.280000,-1.471174,-0.447751,-1.306936,1.124053,0.811762,-0.169848,-0.845137,-1.253957,0.197898,-5.744977,-1.258609,4.771484,9.555666,11.879788,-2.393008,-0.129230,0.087699,0.000000,-0.184558,0.631101,0.000000
2.290000,-1.459977,-0.439696,-1.308624,1.115316,0.799161,-0.167631,-0.902082,-1.265949,0.245493,-5.641510,-1.139928,4.747357,11.142481,11.850913,-2.426245,-0.131019,0.094037,0.000000,-0.173212,0.625630,-0.000000
2.300000,-1.448869,-0.431768,-1.310287,1.106015,0.786447,-0.164939,-0.957913,-1.276757,0.292845,-5.522039,-1.021702,4.723072,12.755646,11.788627,-2.425490,-0.132694,0.100313,0.000000,-0.161792,0.618365,0.000000
2.310000,-1.437858,-0.423967,-1.311921,1.096162,0.773630,-0.161775,-1.012474,-1.286383,0.339947,-5.386759,-0.903972,4.698202,14.402386,11.684683,-2.378369,-0.134255,0.106509,0.000000,-0.150303,0.609301,0.000000
2.320000,-1.426948,-0.416295,-1.313521,1.085771,0.760723,-0.158141,-1.065593,-1.294840,0.386811,-5.234427,-0.787787,4.674737,16.066490,11.546769,-2.312059,-0.135701,0.112604,0.000000,-0.138894,0.598309,0.000000
2.330000,-1.416144,-0.408753,-1.315082,1.074856,0.747737,-0.154039,-1.117106,-1.302143,0.433444,-5.065389,-0.673149,4.651996,17.742786,11.375062,-2.235102,-0.137033,0.118579,0.000000,-0.127567,0.585399,0.000000
2.340000,-1.405453,-0.401341,-1.316600,1.063434,0.734684,-0.149473,-1.166845,-1.308310,0.479853,-4.879548,-0.560398,4.630042,19.426105,11.169743,-2.156041,-0.138252,0.124416,0.000000,-0.116370,0.570543,-0.000000
2.350000,-1.394877,-0.394060,-1.318070,1.051525,0.721575,-0.144443,-1.214641,-1.313359,0.526047,-4.676860,-0.449866,4.608854,21.111278,10.930991,-2.083419,-0.139361,0.130093,0.000000,-0.105347,0.553715,-0.000000
2.360000,-1.384424,-0.386910,-1.319488,1.039149,0.708420,-0.138952,-1.260331,-1.317311,0.572031,-4.457732,-0.341486,4.588198,22.803213,10.648821,-2.022598,-0.140360,0.135592,0.000000,-0.094499,0.534936,-0.000000
2.370000,-1.374096,-0.379891,-1.320848,1.026326,0.695232,-0.133003,-1.303740,-1.320198,0.617813,-4.221278,-0.236542,4.568180,24.485428,10.334821,-1.985691,-0.141252,0.140892,0.000000,-0.083975,0.514092,-0.000000
2.380000,-1.363899,-0.373005,-1.322146,1.013082,0.682020,-0.126597,-1.344700,-1.322053,0.663396,-3.968078,-0.134891,4.548374,26.151517,9.990416,-1.981629,-0.142040,0.145971,0.000000,-0.073762,0.491216,0.000000
2.390000,-1.353836,-0.366251,-1.323378,0.999441,0.668794,-0.119736,-1.383046,-1.322908,0.708780,-3.698323,-0.036830,4.528408,27.795077,9.617029,-2.019346,-0.142728,0.150809,0.000000,-0.063896,0.466296,0.000000
2.400000,-1.343911,-0.359629,-1.324539,0.985430,0.655565,-0.112422,-1.418612,-1.322802,0.753962,-3.412272,0.057358,4.507819,29.409704,9.216083,-2.107772,-0.143319,0.155385,0.000000,-0.054408,0.439327,0.000000
2.410000,-1.334128,-0.353140,-1.325625,0.971079,0.642341,-0.104657,-1.451245,-1.321771,0.798938,-3.110906,0.147777,4.486625,31.005635,8.779588,-2.270276,-0.143817,0.159680,0.000000,-0.045293,0.410383,0.000000
2.420000,-1.324490,-0.346782,-1.326631,0.956416,0.629132,-0.096444,-1.480778,-1.319862,0.843688,-2.793049,0.233291,4.462835,32.557786,8.319536,-2.499586,-0.144227,0.163672,0.000000,-0.036652,0.379273,-0.000000
2.430000,-1.315001,-0.340557,-1.327553,0.941474,0.615947,-0.087784,-1.507055,-1.317121,0.888186,-2.459924,0.314098,4.436387,34.057715,7.838503,-2.802868,-0.144552,0.167338,0.000000,-0.028467,0.346088,0.000000
2.440000,-1.305662,-0.334463,-1.328385,0.926286,0.602792,-0.078681,-1.529927,-1.313596,0.932404,-2.112097,0.390000,4.406507,35.496981,7.339066,-3.187285,-0.144798,0.170659,0.000000,-0.020751,0.310838,-0.000000
2.450000,-1.296476,-0.328501,-1.329125,0.910887,0.589677,-0.069137,-1.549250,-1.309338,0.976302,-1.750215,0.460826,4.372347,36.867141,6.823802,-3.660001,-0.144968,0.173614,0.000000,-0.013512,0.273533,-0.000000
2.460000,-1.287445,-0.322670,-1.329767,0.895314,0.576608,-0.059157,-1.564886,-1.304393,1.019850,-1.374886,0.526814,4.334483,38.156557,6.285622,-4.265909,-0.145069,0.176181,0.000000,-0.006736,0.234210,0.000000
2.470000,-1.278570,-0.316969,-1.330306,0.879602,0.563591,-0.048742,-1.576707,-1.298820,1.062970,-0.987226,0.586939,4.288387,39.360375,5.737952,-4.969826,-0.145105,0.178341,0.000000,-0.000463,0.192857,-0.000000
2.480000,-1.269853,-0.311398,-1.330740,0.863793,0.550633,-0.037899,-1.584592,-1.292672,1.105592,-0.587990,0.641554,4.234751,40.470544,5.184552,-5.774297,-0.145080,0.180073,0.000000,0.005336,0.149522,0.000000
2.490000,-1.261294,-0.305956,-1.331063,0.847924,0.537739,-0.026632,-1.588431,-1.286007,1.147636,-0.178154,0.690623,4.172557,41.479014,4.629181,-6.681865,-0.145000,0.181357,0.000000,0.010674,0.104246,-0.000000
2.500000,-1.252894,-0.300643,-1.331271,0.832038,0.524915,-0.014948,-1.588123,-1.278878,1.189012,0.241224,0.734144,4.100761,42.377734,4.075600,-7.695077,-0.144868,0.182174,0.000000,0.015572,0.057083,0.000000
2.510000,-1.244653,-0.295457,-1.331361,0.816176,0.512163,-0.002855,-1.583579,-1.271341,1.229638,0.668992,0.772265,4.020291,43.159047,3.524756,-8.866892,-0.144690,0.182505,0.000000,0.020034,0.008140,-0.000000
2.520000,-1.236571,-0.290399,-1.331327,0.800381,0.499489,0.009641,-1.574719,-1.263451,1.269377,1.103968,0.804797,3.925326,43.814461,2.983566,-10.143267,-0.144469,0.182332,0.000000,0.024139,-0.042606,-0.000000
2.530000,-1.228645,-0.285467,-1.331166,0.784696,0.486895,0.022529,-1.561480,-1.255263,1.308100,1.544835,0.831982,3.817089,44.335877,2.456134,-11.520571,-0.144208,0.181638,0.000000,0.027902,-0.095011,0.000000
2.540000,-1.220876,-0.280661,-1.330875,0.769166,0.474385,0.035799,-1.543808,-1.246829,1.345671,1.990212,0.853979,3.694590,44.715197,1.946565,-12.995176,-0.143912,0.180407,0.000000,0.031364,-0.148955,-0.000000
2.550000,-1.213261,-0.275979,-1.330449,0.753835,0.461959,0.049438,-1.521665,-1.238200,1.381941,2.438638,0.870987,3.556873,44.944322,1.458964,-14.563454,-0.143582,0.178623,0.000000,0.034573,-0.204299,0.000000
2.560000,-1.205799,-0.271421,-1.329885,0.738747,0.449621,0.063432,-1.495022,-1.229427,1.416779,2.889270,0.883076,3.405247,44.997486,1.001713,-16.278015,-0.143221,0.176274,0.000000,0.037523,-0.260909,0.000000
2.570000,-1.198486,-0.266986,-1.329179,0.723949,0.437371,0.077767,-1.463881,-1.220553,1.449988,3.338829,0.890929,3.233559,44.886421,0.574114,-18.072105,-0.142832,0.173348,0.000000,0.040410,-0.318509,-0.000000
2.580000,-1.191319,-0.262674,-1.328329,0.709485,0.425210,0.092426,-1.428252,-1.211622,1.481389,3.786431,0.894669,3.043575,44.605192,0.179748,-19.935208,-0.142413,0.169835,0.000000,0.043227,-0.376909,-0.000000
2.590000,-1.184295,-0.258482,-1.327330,0.695399,0.413139,0.107388,-1.388165,-1.202673,1.510796,4.230346,0.894646,2.834660,44.147864,-0.177804,-21.856808,-0.141967,0.165731,0.000000,0.046037,-0.435851,-0.000000
2.600000,-1.177409,-0.254411,-1.326180,0.681736,0.401157,0.122634,-1.343664,-1.193740,1.538017,4.668782,0.891247,2.606279,43.508503,-0.494962,-23.826390,-0.141492,0.161029,0.000000,0.048906,-0.495039,0.000000
2.610000,-1.170658,-0.250459,-1.324876,0.668539,0.389264,0.138140,-1.294790,-1.184862,1.562876,5.102039,0.884480,2.359958,42.626866,-0.757686,-25.882721,-0.140989,0.155728,0.000000,0.051814,-0.554362,0.000000
2.620000,-1.164037,-0.246625,-1.323416,0.655854,0.377459,0.153883,-1.241655,-1.176059,1.585147,5.523119,0.875781,2.090755,41.557974,-0.974135,-27.959969,-0.140455,0.149832,0.000000,0.055034,-0.612937,0.000000
2.630000,-1.157539,-0.242909,-1.321798,0.643720,0.365742,0.169834,-1.184366,-1.167353,1.604622,5.932577,0.865159,1.800744,40.302542,-1.142010,-30.041583,-0.139888,0.143350,0.000000,0.058531,-0.670609,0.000000
2.640000,-1.151160,-0.239310,-1.320019,0.632180,0.354112,0.185965,-1.123049,-1.158760,1.621093,6.328551,0.853110,1.489964,38.861284,-1.259009,-32.111015,-0.139284,0.136292,0.000000,0.062366,-0.726952,-0.000000
2.650000,-1.144894,-0.235827,-1.318078,0.621272,0.342567,0.202245,-1.057846,-1.150294,1.634353,6.709186,0.840156,1.158620,37.234915,-1.322833,-34.151714,-0.138639,0.128675,0.000000,0.066596,-0.781512,0.000000
2.660000,-1.138733,-0.232458,-1.315974,0.611035,0.331106,0.218641,-0.988898,-1.141967,1.644205,7.074882,0.826036,0.807750,35.367385,-1.310900,-36.164034,-0.137951,0.120516,0.000000,0.071162,-0.834076,0.000000
2.670000,-1.132671,-0.229204,-1.313705,0.601505,0.319727,0.235117,-0.916414,-1.133772,1.650442,7.418478,0.813217,0.436306,33.323124,-1.243676,-38.112451,-0.137214,0.111843,0.000000,0.076370,-0.883537,-0.000000
2.680000,-1.126700,-0.226063,-1.311271,0.592717,0.308430,0.251637,-0.840599,-1.125700,1.652868,7.740781,0.801346,0.045776,31.109796,-1.121344,-39.978347,-0.136422,0.102688,0.000000,0.082128,-0.929696,0.000000
2.690000,-1.120814,-0.223035,-1.308672,0.584704,0.297213,0.268161,-0.761675,-1.117740,1.651297,8.040136,0.790973,-0.362923,28.735066,-0.944087,-41.743101,-0.135570,0.093088,0.000000,0.088457,-0.972068,0.000000
2.700000,-1.115003,-0.220119,-1.305908,0.577493,0.286075,0.284649,-0.679878,-1.109873,1.645552,8.314970,0.782647,-0.788687,26.206601,-0.712090,-43.388093,-0.134651,0.083081,0.000000,0.095366,-1.010184,0.000000
2.710000,-1.109261,-0.217314,-1.302980,0.571114,0.275015,0.301058,-0.595434,-1.102088,1.635460,8.566428,0.776006,-1.231222,23.465216,-0.402623,-44.869504,-0.133662,0.072712,0.000000,0.102757,-1.043927,-0.000000
2.720000,-1.103578,-0.214618,-1.299888,0.565592,0.264033,0.317343,-0.508643,-1.094342,1.620881,8.786824,0.773743,-1.686689,20.593612,-0.041588,-46.197000,-0.132594,0.062032,0.000000,0.110842,-1.072114,0.000000
2.730000,-1.097946,-0.212033,-1.296633,0.560948,0.253129,0.333460,-0.419795,-1.086600,1.601684,8.977919,0.775336,-2.154597,17.607638,0.368026,-47.355047,-0.131443,0.051098,0.000000,0.119482,-1.094769,-0.000000
2.740000,-1.092356,-0.209556,-1.293219,0.557202,0.242301,0.349361,-0.329186,-1.078821,1.577754,9.138648,0.781256,-2.633173,14.523145,0.823229,-48.328111,-0.130203,0.039966,0.000000,0.128634,-1.111612,-0.000000
2.750000,-1.086799,-0.207186,-1.289647,0.554369,0.231552,0.364999,-0.237126,-1.070959,1.548992,9.268106,0.791943,-3.120491,11.355983,1.321032,-49.100658,-0.128869,0.028696,0.000000,0.138244,-1.122435,-0.000000
2.760000,-1.081266,-0.204924,-1.285920,0.552462,0.220883,0.380325,-0.143912,-1.062973,1.515292,9.367281,0.807016,-3.617181,8.078156,1.878467,-49.588587,-0.127437,0.017348,0.000000,0.148195,-1.127316,0.000000
2.770000,-1.075747,-0.202768,-1.282042,0.551493,0.210294,0.395289,-0.049891,-1.054800,1.476635,9.431475,0.828732,-4.114579,4.754732,2.470072,-49.853328,-0.125904,0.005987,0.000000,0.158541,-1.125707,-0.000000
2.780000,-1.070233,-0.200718,-1.278016,0.551466,0.199788,0.409842,0.044606,-1.046379,1.432995,9.462295,0.856513,-4.613480,1.406929,3.090406,-49.887742,-0.124265,-0.005325,0.000000,0.169146,-1.117904,-0.000000
2.790000,-1.064714,-0.198772,-1.273846,0.552385,0.189367,0.423933,0.139244,-1.037648,1.384369,9.459603,0.890618,-5.111543,-1.944032,3.734029,-49.684690,-0.122520,-0.016525,0.000000,0.179927,-1.104049,-0.000000
2.800000,-1.059182,-0.196930,-1.269539,0.554250,0.179036,0.437512,0.233687,-1.028545,1.330775,9.423474,0.931253,-5.606358,-5.276931,4.395501,-49.237035,-0.120667,-0.027553,0.000000,0.190804,-1.084366,0.000000
2.810000,-1.053626,-0.195191,-1.265098,0.557057,0.168798,0.450533,0.327602,-1.019005,1.272222,9.354125,0.978198,-6.099032,-8.568781,5.078763,-48.447021,-0.118704,-0.038352,0.000000,0.201699,-1.059129,-0.000000
2.820000,-1.048038,-0.193554,-1.260530,0.560800,0.158658,0.462942,0.420661,-1.008958,1.208825,9.252221,1.032429,-6.578518,-11.800345,5.767843,-47.409223,-0.116633,-0.048868,0.000000,0.212520,-1.028772,0.000000
