time,x,y,z,vx,vy,vz,ax,ay,az,jx,jy,jz,sx,sy,sz,roll,pitch,yaw,p,q,r
0.000000,-1.490530,-2.327297,-1.453732,0.003098,0.007514,-0.006329,-0.117830,0.021602,0.021943,0.350733,1.681802,0.071823,23.757033,32.348070,-2.917229,0.002207,0.012038,0.000000,0.171826,-0.035739,-0.000000
0.050000,-1.490375,-2.326921,-1.454049,-0.002794,0.008594,-0.005232,-0.100293,0.105692,0.025534,1.538585,3.299205,-0.074038,29.371876,41.325641,-4.503981,0.010801,0.010250,0.000000,0.337067,-0.157300,0.000000
0.100000,-1.490809,-2.326438,-1.454255,-0.006931,0.018083,-0.003776,0.036029,0.351522,0.014539,3.287921,5.814366,-0.378575,16.874315,33.938854,-3.827590,0.035871,-0.003678,0.000000,0.591381,-0.335295,-0.000000
0.150000,-1.491068,-2.325113,-1.454426,0.000809,0.043747,-0.003778,0.228499,0.687129,-0.012323,3.226016,6.693091,-0.456797,-9.812724,4.494133,1.385581,0.069823,-0.023259,0.000000,0.674150,-0.326381,-0.000000
0.200000,-1.490728,-2.322063,-1.454633,0.015919,0.086796,-0.005008,0.358630,1.020832,-0.031141,2.306649,6.263779,-0.240017,-14.650866,-14.561834,5.152981,0.103293,-0.036426,0.000000,0.625932,-0.231947,0.000000
0.250000,-1.489476,-2.316433,-1.454927,0.036672,0.145830,-0.006892,0.459164,1.313507,-0.036325,1.760930,5.236907,0.058501,-10.517056,-23.679269,6.122471,0.132475,-0.046599,0.000000,0.521704,-0.177164,-0.000000
0.300000,-1.487061,-2.307480,-1.455322,0.061835,0.218147,-0.008641,0.534723,1.544522,-0.025290,1.254943,3.895852,0.372231,-10.167318,-28.132518,5.708654,0.155541,-0.054314,0.000000,0.390750,-0.127711,-0.000000
0.350000,-1.483293,-2.294619,-1.455791,0.090145,0.300282,-0.009421,0.584658,1.703092,0.000898,0.744198,2.423656,0.629366,-9.986870,-29.213506,3.972594,0.171611,-0.059533,0.000000,0.249451,-0.078244,-0.000000
0.400000,-1.478046,-2.277452,-1.456265,0.120301,0.388456,-0.008551,0.609143,1.786888,0.037646,0.256256,0.974502,0.769490,-9.171608,-27.546285,1.294246,0.180511,-0.062253,0.000000,0.109885,-0.030506,0.000000
0.450000,-1.471263,-2.255773,-1.456646,0.151059,0.478971,-0.005657,0.610284,1.800542,0.077847,-0.172963,-0.330973,0.758791,-7.722732,-23.840644,-1.715512,0.182590,-0.062626,0.000000,-0.018757,0.012619,-0.000000
0.500000,-1.462941,-2.229555,-1.456830,0.181329,0.568510,-0.000766,0.591847,1.753791,0.113525,-0.516017,-1.409563,0.597939,-5.843201,-18.837124,-4.382619,0.178609,-0.060962,0.000000,-0.129212,0.048486,-0.000000
0.550000,-1.453130,-2.198922,-1.456723,0.210244,0.654350,0.005696,0.558682,1.659586,0.137641,-0.757283,-2.214685,0.320529,-3.765998,-13.237188,-6.144874,0.169648,-0.057697,0.000000,-0.215827,0.075033,-0.000000
0.600000,-1.441916,-2.164120,-1.456261,0.237197,0.734469,0.012998,0.516119,1.532322,0.145578,-0.892617,-2.733281,-0.016549,-1.705768,-7.663918,-6.678935,0.157024,-0.053353,0.000000,-0.275014,0.091055,0.000000
0.650000,-1.429410,-2.125475,-1.455423,0.261856,0.807582,0.020254,0.469420,1.386258,0.135986,-0.927860,-2.981077,-0.347364,0.159788,-2.628433,-5.951200,0.142163,-0.048486,0.000000,-0.305985,0.096443,0.000000
0.700000,-1.415731,-2.083362,-1.454235,0.284139,0.873095,0.026596,0.423333,1.234214,0.110842,-0.876638,-2.996125,-0.611669,1.702094,1.501358,-4.191731,0.126450,-0.043619,0.000000,-0.311086,0.092216,0.000000
0.750000,-1.400996,-2.038166,-1.452763,0.304189,0.931003,0.031338,0.381756,1.086645,0.074819,-0.757650,-2.830941,-0.766537,2.848990,4.518951,-1.811018,0.111076,-0.039194,0.000000,-0.295327,0.080292,-0.000000
0.800000,-1.385312,-1.990261,-1.451102,0.322315,0.981759,0.034078,0.347568,0.951120,0.034188,-0.591739,-2.544230,-0.792770,3.584404,6.374711,0.709990,0.096927,-0.035539,0.000000,-0.265252,0.063037,0.000000
0.850000,-1.368764,-1.939990,-1.449356,0.338946,1.026116,0.034757,0.322582,0.832222,-0.004458,-0.399210,-2.193470,-0.695538,3.939566,7.147850,2.925957,0.084548,-0.032856,0.000000,-0.227625,0.042805,0.000000
0.900000,-1.351417,-1.887650,-1.447626,0.354573,1.064981,0.033633,0.307647,0.731773,-0.035366,-0.197783,-1.829444,-0.500175,3.977844,7.003084,4.506536,0.074154,-0.031238,0.000000,-0.188411,0.021596,-0.000000
0.950000,-1.333307,-1.833492,-1.445992,0.369710,1.099293,0.031220,0.302804,0.649278,-0.054475,-0.001425,-1.493162,-0.244885,3.777254,6.144656,5.277818,0.065694,-0.030687,0.000000,-0.152269,0.000904,-0.000000
1.000000,-1.314446,-1.777720,-1.444504,0.384854,1.129909,0.028185,0.307504,0.582457,-0.059854,0.179943,-1.214979,0.027607,3.414847,4.779284,5.225883,0.058917,-0.031146,0.000000,-0.122483,-0.018269,-0.000000
1.050000,-1.294822,-1.720501,-1.443174,0.400461,1.157539,0.025235,0.320798,0.527780,-0.051715,0.340059,-1.015233,0.277703,2.955768,3.094336,4.470346,0.053439,-0.032518,0.000000,-0.101158,-0.035311,-0.000000
1.100000,-1.274400,-1.661967,-1.441980,0.416933,1.182687,0.023014,0.341510,0.480934,-0.032084,0.475520,-0.905545,0.474642,2.447817,1.251195,3.219659,0.048797,-0.034685,0.000000,-0.089468,-0.049869,0.000000
1.150000,-1.253128,-1.602232,-1.440873,0.434612,1.205632,0.022026,0.368350,0.437225,-0.004250,0.584841,-0.890114,0.599669,1.920840,-0.610854,1.720156,0.044489,-0.037515,0.000000,-0.087841,-0.061736,0.000000
1.200000,-1.230939,-1.541403,-1.439778,0.453769,1.226410,0.022588,0.399994,0.391922,0.027883,0.667604,-0.966631,0.646657,1.389526,-2.366824,0.208896,0.040010,-0.040868,0.000000,-0.096049,-0.070775,0.000000
1.250000,-1.207752,-1.479591,-1.438614,0.474611,1.244824,0.024814,0.435111,0.340562,0.060415,0.723794,-1.126796,0.620559,0.858011,-3.900118,-1.122674,0.034882,-0.044599,0.000000,-0.113220,-0.076879,0.000000
1.300000,-1.183478,-1.416921,-1.437296,0.497280,1.260466,0.028630,0.472373,0.279243,0.089939,0.753405,-1.356643,0.534390,0.325027,-5.102013,-2.150444,0.028687,-0.048560,0.000000,-0.137827,-0.079960,-0.000000
1.350000,-1.158024,-1.353544,-1.435751,0.521848,1.272748,0.033808,0.510451,0.204898,0.113854,0.756296,-1.636997,0.405515,-0.210986,-5.877022,-2.823899,0.021100,-0.052596,0.000000,-0.167728,-0.079962,0.000000
1.400000,-1.131293,-1.289646,-1.433916,0.548325,1.280956,0.040015,0.548003,0.115543,0.130490,0.732306,-1.944345,0.252000,-0.746754,-6.152352,-3.158537,0.011917,-0.056554,0.000000,-0.200264,-0.076877,0.000000
1.450000,-1.103191,-1.225449,-1.431749,0.576649,1.284303,0.046857,0.583682,0.010464,0.139054,0.681621,-2.252233,0.089661,-1.268748,-5.888639,-3.217803,0.001080,-0.060281,0.000000,-0.232458,-0.070783,-0.000000
1.500000,-1.073628,-1.161216,-1.429230,0.606693,1.282002,0.053921,0.616165,-0.109680,0.139456,0.605431,-2.533209,-0.069780,-1.747317,-5.089284,-3.088888,-0.011318,-0.063630,0.000000,-0.261261,-0.061891,-0.000000
1.550000,-1.042522,-1.097249,-1.426357,0.638265,1.273335,0.060803,0.644225,-0.242857,0.132076,0.506889,-2.761161,-0.219228,-2.131538,-3.805959,-2.857301,-0.025033,-0.066468,0.000000,-0.283846,-0.050628,-0.000000
1.600000,-1.009802,-1.033882,-1.423150,0.671115,1.257716,0.067128,0.666854,-0.385796,0.117534,0.392278,-2.913805,-0.355510,-2.349222,-2.137543,-2.585925,-0.039689,-0.068693,0.000000,-0.297887,-0.037740,0.000000
1.650000,-0.975410,-0.971477,-1.419644,0.704951,1.234755,0.072556,0.683453,-0.534238,0.096525,0.271967,-2.974915,-0.477820,-2.317817,-0.220280,-2.303972,-0.054809,-0.070246,0.000000,-0.301810,-0.024380,-0.000000
1.700000,-0.939307,-0.910407,-1.415894,0.739461,1.204293,0.076781,0.694051,-0.683288,0.069752,0.160496,-2.935833,-0.585908,-1.966321,1.790013,-2.007840,-0.069860,-0.071136,0.000000,-0.294936,-0.012100,-0.000000
1.750000,-0.901464,-0.851048,-1.411966,0.774356,1.166426,0.079532,0.699502,-0.827821,0.037934,0.075335,-2.795914,-0.678604,-1.259929,3.739028,-1.670708,-0.084297,-0.071460,0.000000,-0.277517,-0.002715,0.000000
1.800000,-0.861871,-0.793764,-1.407941,0.809411,1.121511,0.080574,0.701584,-0.962879,0.001891,0.034503,-2.561930,-0.752979,-0.217441,5.492675,-1.255484,-0.097610,-0.071409,0.000000,-0.250633,0.001954,-0.000000
1.850000,-0.820523,-0.738897,-1.403909,0.844514,1.070138,0.079721,0.702953,-1.084014,-0.037363,0.053591,-2.246646,-0.804153,1.083070,6.949737,-0.727051,-0.109364,-0.071264,0.000000,-0.216000,0.000383,-0.000000
1.900000,-0.777420,-0.686750,-1.399969,0.879706,1.013109,0.076838,0.706943,-1.187544,-0.078524,0.142810,-1.866956,-0.825684,2.509414,8.047402,-0.061707,-0.119219,-0.071370,0.000000,-0.175724,-0.008370,0.000000
1.950000,-0.732553,-0.637586,-1.396225,0.915208,0.951384,0.071868,0.717234,-1.270710,-0.119932,0.304532,-1.441906,-0.810324,3.888369,8.760594,0.747326,-0.126949,-0.072104,0.000000,-0.132037,-0.024447,0.000000
2.000000,-0.685899,-0.591612,-1.392782,0.951430,0.886038,0.064845,0.737397,-1.331734,-0.159556,0.531647,-0.990897,-0.750951,5.023818,9.097037,1.688662,-0.132436,-0.073830,0.000000,-0.087074,-0.047080,0.000000
2.050000,-0.637410,-0.548982,-1.389740,0.988948,0.818211,0.055913,0.770398,-1.369799,-0.195027,0.806914,-0.532203,-0.641457,5.717407,9.089289,2.735077,-0.135668,-0.076849,0.000000,-0.042698,-0.074576,-0.000000
2.100000,-0.587004,-0.509791,-1.387191,1.028469,0.749058,0.045342,0.818088,-1.384955,-0.223702,1.103388,-0.081968,-0.477443,5.789850,8.783574,3.847419,-0.136716,-0.081354,0.000000,-0.000406,-0.104404,0.000000
2.150000,-0.534563,-0.474076,-1.385206,1.070757,0.679715,0.033542,0.880737,-1.377996,-0.242771,1.385899,0.346155,-0.256715,5.101070,8.226516,4.976614,-0.135714,-0.087388,0.000000,0.038678,-0.133354,0.000000
2.200000,-0.479928,-0.441819,-1.383836,1.116543,0.611259,0.021065,0.956678,-1.350339,-0.249374,1.613495,0.740684,0.020218,3.566520,7.454500,6.059692,-0.132847,-0.094818,0.000000,0.073738,-0.157747,-0.000000
2.250000,-0.422908,-0.412950,-1.383100,1.166425,0.544681,0.008605,1.042087,-1.303928,-0.240749,1.742551,1.091605,0.349254,1.168064,6.490817,7.007948,-0.128333,-0.103313,0.000000,0.104154,-0.173656,-0.000000
2.300000,-0.363286,-0.387351,-1.382976,1.220752,0.480866,-0.003010,1.130933,-1.241179,-0.214448,1.730301,1.389765,0.721013,-2.038706,5.351316,7.690897,-0.122419,-0.112342,0.000000,0.129432,-0.177116,-0.000000
2.350000,-0.300833,-0.364864,-1.383401,1.279518,0.420563,-0.012840,1.215117,-1.164951,-0.168648,1.538681,1.626737,1.118343,-5.915160,4.055630,7.925679,-0.115374,-0.121175,0.000000,0.149169,-0.164293,0.000000
2.400000,-0.235334,-0.345295,-1.384260,1.342263,0.364371,-0.019875,1.284801,-1.078505,-0.102614,1.138785,1.795328,1.513581,-10.230408,2.639608,7.482561,-0.107483,-0.128894,0.000000,0.163091,-0.131684,-0.000000
2.450000,-0.166607,-0.328427,-1.385388,1.407998,0.312713,-0.023101,1.328995,-0.985418,-0.017290,0.515640,1.890697,1.866600,-14.655476,1.165882,6.116085,-0.099044,-0.134420,0.000000,0.171125,-0.076377,-0.000000
2.500000,-0.094534,-0.314024,-1.386570,1.475163,0.265829,-0.021604,1.336365,-0.889435,0.084046,-0.326763,1.911917,2.125189,-18.752370,-0.268043,3.628599,-0.090352,-0.136547,0.000000,0.173485,0.003493,0.000000
2.550000,-0.019091,-0.301844,-1.387548,1.541635,0.223769,-0.014697,1.296319,-0.794227,0.195229,-1.359597,1.863893,2.229460,-21.987285,-1.530406,-0.044836,-0.081682,-0.134018,0.000000,0.170798,0.107817,-0.000000
2.600000,0.059629,-0.291647,-1.388040,1.604795,0.186406,-0.002081,1.200405,-0.703046,0.306992,-2.525491,1.758876,2.120706,-23.802084,-2.471398,-4.753937,-0.073267,-0.125653,0.000000,0.164195,0.233209,0.000000
2.650000,0.141389,-0.283203,-1.387757,1.661675,0.153465,0.016003,1.043770,-0.618339,0.407299,-3.739806,1.616753,1.754066,-23.707523,-2.949953,-10.073551,-0.065268,-0.110555,0.000000,0.155337,0.371647,-0.000000
2.700000,0.225797,-0.276300,-1.386439,1.709172,0.124572,0.038649,0.826425,-0.541371,0.482398,-4.896243,1.463881,1.113350,-21.389509,-2.867883,-15.302358,-0.057749,-0.088369,0.000000,0.146325,0.509488,-0.000000
2.750000,0.312306,-0.270746,-1.383892,1.744318,0.099328,0.064242,0.554146,-0.471951,0.518634,-5.878756,1.329965,0.223830,-16.842261,-2.209165,-19.556408,-0.050661,-0.059570,0.000000,0.139404,0.628230,-0.000000
2.800000,0.400229,-0.266367,-1.380015,1.764586,0.077377,0.090513,0.238549,-0.408374,0.504781,-6.580469,1.242964,-0.842290,-10.456339,-1.068040,-21.950081,-0.043844,-0.025630,0.000000,0.136444,0.708354,-0.000000
2.850000,0.488765,-0.263008,-1.374840,1.768173,0.058490,0.114721,-0.103901,-0.347655,0.434405,-6.924390,1.223161,-1.971178,-2.987976,0.350884,-21.815099,-0.037062,0.011082,0.000000,0.138362,0.735629,-0.000000
2.900000,0.577046,-0.260518,-1.368543,1.754196,0.042612,0.133953,-0.453890,-0.286058,0.307664,-6.879267,1.278053,-3.023800,4.594094,1.765746,-18.887005,-0.030061,0.047730,0.000000,0.144799,0.706822,-0.000000
2.950000,0.664184,-0.258747,-1.361445,1.722784,0.029884,0.145487,-0.791828,-0.219849,0.132025,-6.464981,1.399736,-3.859879,11.339600,2.877617,-13.393115,-0.022637,0.081636,0.000000,0.154269,0.630992,0.000000
3.000000,0.749324,-0.257530,-1.353994,1.675013,0.020627,0.147156,-1.100388,-0.146085,-0.078324,-5.745307,1.565814,-4.363112,16.542225,3.440028,-6.014291,-0.014682,0.110826,0.000000,0.164680,0.525354,-0.000000
3.050000,0.831686,-0.256684,-1.346729,1.612745,0.015276,0.137654,-1.366359,-0.063268,-0.304286,-4.810758,1.743738,-4.461308,19.880408,3.316821,2.260790,-0.006199,0.134279,0.000000,0.173921,0.408588,-0.000000
3.100000,0.910599,-0.256002,-1.340229,1.538378,0.014300,0.116727,-1.581464,0.028289,-0.524455,-3.757266,1.897496,-4.137033,21.437111,2.513240,10.339003,0.002706,0.151850,0.000000,0.180289,0.295389,-0.000000
3.150000,0.985524,-0.255254,-1.335057,1.454599,0.018105,0.085209,-1.742085,0.126482,-0.717989,-2.667047,1.995062,-3.427407,21.607056,1.174418,17.223994,0.011852,0.163986,0.000000,0.182693,0.194130,0.000000
3.200000,1.056059,-0.254192,-1.331708,1.364169,0.026948,0.044928,-1.848168,0.227796,-0.867196,-1.596561,2.014938,-2.414633,20.932965,-0.445666,22.167215,0.021019,0.171397,0.000000,0.180725,0.107150,-0.000000
3.250000,1.121940,-0.252559,-1.330564,1.269782,0.040884,-0.001511,-1.901742,0.327976,-0.959452,-0.573751,1.950496,-1.210686,19.927151,-2.035261,24.746095,0.029981,0.174785,0.000000,0.174654,0.032399,-0.000000
3.300000,1.183037,-0.250104,-1.331859,1.173995,0.059746,-0.051017,-1.905544,0.422845,-0.988264,0.396155,1.811412,0.059976,18.930699,-3.283781,24.872551,0.038544,0.174669,0.000000,0.165402,-0.034603,0.000000
3.350000,1.239340,-0.246585,-1.335666,1.079227,0.083169,-0.100337,-1.862126,0.509117,-0.953455,1.319319,1.622118,1.276569,18.043523,-3.937542,22.751140,0.046574,0.171309,0.000000,0.154491,-0.098982,-0.000000
3.400000,1.290960,-0.241787,-1.341893,0.987782,0.110657,-0.146363,-1.773612,0.585057,-0.860607,2.200507,1.417658,2.335090,17.133726,-3.844709,18.809521,0.054034,0.164709,0.000000,0.143959,-0.165040,-0.000000
3.450000,1.338118,-0.235519,-1.350302,0.901866,0.141675,-0.186398,-1.642075,0.650883,-0.719946,3.032692,1.237647,3.157521,15.912736,-2.985443,13.618437,0.060999,0.154697,0.000000,0.136181,-0.235080,0.000000
3.500000,1.381146,-0.227619,-1.360533,0.823575,0.175746,-0.218357,-1.470343,0.708822,-0.544855,3.791780,1.119114,3.696934,14.048691,-1.486021,7.810946,0.067670,0.141053,0.000000,0.133562,-0.308545,-0.000000
3.550000,1.420476,-0.217945,-1.372138,0.754832,0.212557,-0.240883,-1.262897,0.762794,-0.350252,4.437561,1.089045,3.938616,11.286801,0.378869,2.006457,0.074366,0.123664,0.000000,0.138027,-0.381603,0.000000
3.600000,1.456629,-0.206363,-1.384621,0.697285,0.252025,-0.253382,-1.026586,0.817726,-0.150994,4.920460,1.157001,3.897580,7.545057,2.205500,-3.255701,0.081479,0.102698,0.000000,0.150269,-0.447390,0.000000
3.650000,1.490204,-0.192742,-1.397476,0.652173,0.294329,-0.255983,-0.770851,0.878494,0.039506,5.192066,1.309595,3.613046,2.958647,3.521054,-7.566505,0.089396,0.078733,0.000000,0.168939,-0.497128,-0.000000
3.700000,1.521847,-0.176931,-1.410219,0.620200,0.339875,-0.249432,-0.507380,0.948686,0.210311,5.216325,1.509106,3.140929,-2.139687,3.881770,-10.672995,0.098368,0.052805,0.000000,0.190158,-0.522090,-0.000000
3.750000,1.552224,-0.158755,-1.422419,0.601435,0.389198,-0.234952,-0.249219,1.029405,0.353598,4.978098,1.697772,2.545746,-7.306525,3.030243,-12.480467,0.108394,0.026348,0.000000,0.207797,-0.515925,-0.000000
3.800000,1.581990,-0.138011,-1.433714,0.595278,0.442815,-0.214072,-0.009570,1.118463,0.464885,4.485673,1.812130,1.892882,-12.095765,1.042202,-13.037793,0.119118,0.001024,0.000000,0.215132,-0.476394,0.000000
3.850000,1.611752,-0.114473,-1.443826,0.600478,0.501044,-0.188463,0.199348,1.210618,0.542887,3.768521,1.801992,1.241967,-16.108324,-1.724185,-12.509103,0.129871,-0.021508,0.000000,0.207224,-0.405902,0.000000
3.900000,1.642038,-0.087906,-1.452561,0.615213,0.563877,-0.159783,0.367282,1.298662,0.589082,2.874840,1.639712,0.641972,-19.002694,-4.814013,-11.142734,0.139809,-0.039810,0.000000,0.182115,-0.310984,0.000000
3.950000,1.673273,-0.058085,-1.459805,0.637206,0.630910,-0.129555,0.486833,1.374589,0.607084,1.868252,1.320591,0.127693,-20.535745,-7.788323,-9.243132,0.148064,-0.052851,0.000000,0.140634,-0.200949,0.000000
4.000000,1.705759,-0.024815,-1.465516,0.663896,0.701336,-0.099075,0.554107,1.430721,0.601851,0.821266,0.860879,-0.282341,-20.615094,-10.279147,-7.132656,0.153869,-0.060103,0.000000,0.085693,-0.086001,-0.000000
4.050000,1.739663,0.012048,-1.469712,0.692617,0.773982,-0.069370,0.568959,1.460677,0.578850,-0.193258,0.292676,-0.585572,-19.317086,-12.038536,-5.100884,0.156640,-0.061557,0.000000,0.021336,0.024448,0.000000
4.100000,1.775020,0.052583,-1.472453,0.720792,0.847403,-0.041190,0.534781,1.459989,0.543294,-1.110443,-0.342974,-0.792430,-16.863806,-12.951041,-3.359146,0.156012,-0.057646,0.000000,-0.048082,0.122842,-0.000000
4.150000,1.811742,0.096789,-1.473831,0.746095,0.919981,-0.015040,0.457915,1.426379,0.499607,-1.879638,-1.002428,-0.921487,-13.571646,-13.016093,-2.017308,0.151840,-0.049144,0.000000,-0.118359,0.203882,0.000000
4.200000,1.849630,0.144581,-1.473957,0.766583,0.990041,0.008771,0.346818,1.359746,0.451146,-2.467607,-1.644583,-0.994160,-9.793268,-12.320028,-1.088364,0.144183,-0.037041,0.000000,-0.185675,0.264462,-0.000000
4.250000,1.888400,0.195793,-1.472954,0.780777,1.055956,0.030074,0.211154,1.261921,0.400191,-2.858965,-2.234431,-1.030323,-5.869899,-11.004953,-0.514340,0.133278,-0.022436,0.000000,-0.246722,0.303416,0.000000
4.300000,1.927708,0.250177,-1.470950,0.787699,1.116233,0.048790,0.060921,1.136303,0.348113,-3.054597,-2.745079,-1.045594,-2.098670,-9.240553,-0.200683,0.119518,-0.006438,0.000000,-0.298825,0.321222,-0.000000
4.350000,1.967170,0.307416,-1.468075,0.786869,1.169586,0.064886,-0.094306,0.987413,0.295631,-3.068832,-3.158486,-1.050391,1.285772,-7.201255,-0.047470,0.103406,0.009912,0.000000,-0.340079,0.319704,0.000000
4.400000,2.006395,0.367135,-1.464461,0.778268,1.214975,0.078353,-0.245962,0.820454,0.243074,-2.926020,-3.465204,-1.050341,4.118586,-5.049287,0.029496,0.085522,0.025704,0.000000,-0.369451,0.301718,-0.000000
4.450000,2.044997,0.428913,-1.460240,0.762273,1.251632,0.089193,-0.386908,0.640893,0.190597,-2.656973,-3.663415,-1.047442,6.304392,-2.923393,0.089598,0.066473,0.040200,0.000000,-0.386790,0.270792,0.000000
4.500000,2.082622,0.492298,-1.455542,0.739578,1.279064,0.097413,-0.511659,0.454113,0.138330,-2.295581,-3.757544,-1.041382,7.811354,-0.932611,0.168290,0.046853,0.052854,0.000000,-0.392726,0.230755,0.000000
4.550000,2.118955,0.556820,-1.450498,0.711107,1.297043,0.103026,-0.616466,0.265138,0.086459,-1.875838,-3.756676,-1.030613,8.661308,0.845824,0.283810,0.027206,0.063315,0.000000,-0.388491,0.185383,0.000000
4.600000,2.153733,0.622003,-1.445239,0.677931,1.305578,0.106059,-0.699243,0.078445,0.035269,-1.429450,-3.672961,-1.013001,8.917670,2.365474,0.445271,0.008005,0.071414,0.000000,-0.375688,0.138115,-0.000000
4.650000,2.186748,0.687378,-1.439893,0.641183,1.304887,0.106553,-0.759411,-0.102158,-0.014841,-0.984071,-3.520129,-0.986086,8.672515,3.607379,0.658737,-0.010367,0.077142,0.000000,-0.356071,0.091850,0.000000
4.700000,2.217851,0.752491,-1.434584,0.601990,1.295362,0.104574,-0.797650,-0.273568,-0.063340,-0.562199,-3.312223,-0.947127,8.033963,4.575125,0.929617,-0.027611,0.080613,0.000000,-0.331371,0.048854,0.000000
4.750000,2.246947,0.816914,-1.429435,0.561418,1.277530,0.100219,-0.815631,-0.433380,-0.109554,-0.180675,-3.062616,-0.893124,7.114851,5.289045,1.261378,-0.043515,0.082040,0.000000,-0.303173,0.010728,-0.000000
4.800000,2.273993,0.880244,-1.424562,0.520427,1.252024,0.093619,-0.815718,-0.579830,-0.152652,0.149287,-2.783319,-0.820989,6.023447,5.780264,1.651863,-0.057941,0.081695,0.000000,-0.272848,-0.021551,0.000000
4.850000,2.298990,0.942116,-1.420073,0.479846,1.219547,0.084954,-0.800702,-0.711712,-0.191653,0.421670,-2.484590,-0.727938,4.856573,6.085230,2.089101,-0.070814,0.079887,0.000000,-0.241519,-0.047562,0.000000
4.900000,2.321977,1.002199,-1.416067,0.440357,1.180853,0.074454,-0.773551,-0.828289,-0.225446,0.634944,-2.174796,-0.612079,3.695076,6.241262,2.548429,-0.082107,0.076930,0.000000,-0.210057,-0.067342,0.000000
4.950000,2.343025,1.060202,-1.412628,0.402491,1.136719,0.062409,-0.737208,-0.929192,-0.252860,0.791178,-1.860464,-0.473095,2.601599,6.283504,2.992232,-0.091833,0.073130,0.000000,-0.179092,-0.081286,-0.000000
5.000000,2.362226,1.115871,-1.409826,0.366636,1.087934,0.049168,-0.694433,-1.014335,-0.272756,0.895104,-1.546445,-0.312856,1.620508,6.243404,3.372840,-0.100028,0.068765,0.000000,-0.149023,-0.090031,-0.000000
5.050000,2.379689,1.168995,-1.407711,0.333048,1.035285,0.035134,-0.647697,-1.083836,-0.284146,0.953228,-1.236123,-0.135811,0.779448,6.148528,3.638266,-0.106745,0.064078,0.000000,-0.120041,-0.094366,0.000000
5.100000,2.395531,1.219400,-1.406312,0.301866,0.979550,0.020753,-0.599110,-1.137947,-0.286337,0.973049,-0.931593,0.050971,0.091918,6.023173,3.739858,-0.112040,0.059270,0.000000,-0.092149,-0.095139,-0.000000
5.150000,2.409875,1.266950,-1.405636,0.273137,0.921490,0.006500,-0.550392,-1.176995,-0.279049,0.962420,-0.633806,0.238175,-0.439692,5.889031,3.640497,-0.115965,0.054499,0.000000,-0.065190,-0.093195,-0.000000
5.200000,2.422845,1.311549,-1.405662,0.246827,0.861851,-0.007152,-0.502868,-1.201328,-0.262519,0.929079,-0.342689,0.415021,-0.821153,5.765109,3.321849,-0.118561,0.049883,0.000000,-0.038871,-0.089326,0.000000
5.250000,2.434558,1.353135,-1.406351,0.222850,0.801358,-0.019752,-0.457484,-1.211264,-0.237547,0.880305,-0.057295,0.570360,-1.063994,5.666313,2.789309,-0.119851,0.045501,0.000000,-0.012812,-0.084245,0.000000
5.300000,2.445130,1.391684,-1.407638,0.201079,0.740724,-0.030906,-0.414838,-1.207057,-0.205483,0.822680,0.223942,0.693951,-1.183890,5.600448,2.073592,-0.119839,0.041396,0.000000,0.013408,-0.078568,-0.000000
5.350000,2.454666,1.427207,-1.409442,0.181366,0.680652,-0.040300,-0.375216,-1.188870,-0.168152,0.761916,0.502750,0.777719,-1.199861,5.563939,1.228496,-0.118505,0.037586,0.000000,0.040172,-0.072810,-0.000000
5.400000,2.463266,1.459750,-1.411668,0.163557,0.621837,-0.047722,-0.338646,-1.156782,-0.127711,0.702694,0.780336,0.816801,-1.134064,5.537048,0.324934,-0.115815,0.034064,0.000000,0.067730,-0.067376,0.000000
5.450000,2.471022,1.489391,-1.414214,0.147501,0.564974,-0.053072,-0.304947,-1.110836,-0.086472,0.648510,1.056455,0.810213,-1.011831,5.479710,-0.557928,-0.111725,0.030804,0.000000,0.096088,-0.062554,0.000000
5.500000,2.478016,1.516247,-1.416975,0.133062,0.510753,-0.056369,-0.273795,-1.051137,-0.046690,0.601511,1.328307,0.761008,-0.861556,5.329203,-1.343076,-0.106200,0.027770,0.000000,0.124886,-0.058504,0.000000
5.550000,2.484328,1.540466,-1.419851,0.120122,0.459860,-0.057740,-0.244796,-0.978006,-0.010371,0.562354,1.589375,0.675905,-0.714172,5.000539,-1.965818,-0.099232,0.024922,0.000000,0.153285,-0.055241,-0.000000
5.600000,2.490029,1.562233,-1.422749,0.108583,0.412953,-0.057406,-0.217560,-0.892199,0.020901,0.530094,1.828361,0.564426,-0.602125,4.389858,-2.381944,-0.090869,0.022221,0.000000,0.179875,-0.052626,0.000000
5.650000,2.495186,1.581762,-1.425591,0.098366,0.370640,-0.055650,-0.191786,-0.795170,0.046072,0.502141,2.028361,0.437711,-0.557720,3.380484,-2.572432,-0.081245,0.019640,0.000000,0.202626,-0.050362,0.000000
5.700000,2.499865,1.599297,-1.428314,0.089404,0.333436,-0.052799,-0.167346,-0.689363,0.064672,0.474322,2.166409,0.307183,-0.609038,1.851703,-2.543950,-0.070610,0.017170,0.000000,0.218887,-0.047996,0.000000
5.750000,2.504127,1.615105,-1.430871,0.081631,0.301704,-0.049183,-0.144354,-0.578529,0.076790,0.441238,2.213531,0.183316,-0.762649,-0.303453,-2.325306,-0.059362,0.014830,0.000000,0.225440,-0.044965,0.000000
5.800000,2.508028,1.629467,-1.433232,0.074969,0.275583,-0.045120,-0.123222,-0.468010,0.083003,0.398057,2.136064,0.074653,-0.921079,-3.109393,-1.960862,-0.048074,0.012667,0.000000,0.218684,-0.040772,-0.000000
5.850000,2.511623,1.642664,-1.435383,0.069309,0.254903,-0.040883,-0.104549,-0.364922,0.084255,0.349130,1.902592,-0.012771,0.603896,-2.006404,-3.263444,-0.037502,0.010749,0.000000,0.195373,-0.035882,0.000000
5.900000,2.514959,1.654958,-1.437321,0.064514,0.239091,-0.036694,-0.088309,-0.277751,0.081726,0.458447,1.935423,-0.251692,1.669954,-1.600583,-4.195029,-0.028542,0.009077,0.000000,0.199504,-0.047337,-0.000000
5.950000,2.518075,1.666573,-1.439052,0.060478,0.227128,-0.032710,-0.058704,-0.171380,0.059086,0.516125,1.742533,-0.432274,-0.182967,-5.777725,-1.600583,-0.017574,0.006020,0.000000,0.179419,-0.053188,0.000000
6.000000,2.521007,1.677670,-1.440592,0.058643,0.221953,-0.030785,-0.036696,-0.103498,0.038499,0.440150,1.357651,-0.411750,-1.519505,-7.697651,0.410470,-0.010591,0.003755,0.000000,0.139368,-0.045199,-0.000000
