time,x,y,z,vx,vy,vz,ax,ay,az,jx,jy,jz,sx,sy,sz,roll,pitch,yaw,p,q,r
0.000000,-1.490530,-2.327297,-1.453732,0.017727,0.009284,-0.007840,-0.838486,-0.082064,0.066763,18.351432,-1.170076,-0.304566,-289.587068,169.825390,-6.719272,-0.008391,0.085847,0.000000,-0.120730,-1.872262,-0.000000
0.010000,-1.490391,-2.327209,-1.453807,0.010213,0.008432,-0.007189,-0.668790,-0.085661,0.063393,15.652167,0.412794,-0.368419,-250.890454,147.083706,-6.048307,-0.008768,0.068510,0.000000,0.041618,-1.600903,-0.000000
0.020000,-1.490320,-2.327128,-1.453876,0.004267,0.007620,-0.006574,-0.524214,-0.074533,0.059418,13.321428,1.778146,-0.425475,-215.852184,126.306215,-5.360309,-0.007633,0.053711,0.000000,0.181863,-1.364581,0.000000
0.030000,-1.490302,-2.327056,-1.453939,-0.000344,0.006984,-0.006002,-0.401253,-0.050759,0.054907,11.323519,2.945154,-0.475580,-184.295112,107.399445,-4.658760,-0.005199,0.041109,0.000000,0.301651,-1.160806,0.000000
0.040000,-1.490323,-2.326988,-1.453996,-0.003819,0.006640,-0.005478,-0.296748,-0.016230,0.049930,9.624513,3.932059,-0.518617,-156.042088,90.269922,-3.947145,-0.001662,0.030395,0.000000,0.402723,-0.986813,0.000000
0.050000,-1.490375,-2.326921,-1.454049,-0.006331,0.006689,-0.005005,-0.207873,0.027339,0.044558,8.192254,4.756165,-0.554501,-130.915967,74.824171,-3.228947,0.002799,0.021283,0.000000,0.486817,-0.839727,0.000000
0.060000,-1.490447,-2.326852,-1.454097,-0.008021,0.007212,-0.004588,-0.132115,0.078405,0.038864,6.996361,5.433843,-0.583185,-108.739599,60.968718,-2.507649,0.008023,0.013520,0.000000,0.555624,-0.716676,-0.000000
0.070000,-1.490533,-2.326775,-1.454141,-0.009009,0.008278,-0.004228,-0.067254,0.135580,0.032918,6.008220,5.980529,-0.604655,-89.335837,48.610092,-1.786736,0.013866,0.006879,0.000000,0.610758,-0.614858,0.000000
0.080000,-1.490625,-2.326685,-1.454181,-0.009395,0.009940,-0.003930,-0.011348,0.197627,0.026795,5.200992,6.410723,-0.618933,-72.527533,37.654816,-1.069691,0.020198,0.001160,0.000000,0.653746,-0.531589,-0.000000
0.090000,-1.490719,-2.326574,-1.454219,-0.009260,0.012243,-0.003693,0.037285,0.263451,0.020564,4.549609,6.737992,-0.626074,-58.137541,28.009419,-0.359997,0.026905,-0.003809,0.000000,0.686022,-0.464328,-0.000000
0.100000,-1.490809,-2.326438,-1.454255,-0.008669,0.015218,-0.003519,0.080086,0.332086,0.014297,4.030771,6.974966,-0.626169,-45.988711,19.580425,0.338862,0.033887,-0.008175,0.000000,0.708924,-0.410698,0.000000
0.110000,-1.490891,-2.326268,-1.454290,-0.007674,0.018891,-0.003407,0.118271,0.402689,0.008063,3.622954,7.133343,-0.619344,-35.903897,12.274362,1.023402,0.041056,-0.012065,0.000000,0.723696,-0.368489,-0.000000
0.120000,-1.490961,-2.326057,-1.454324,-0.006316,0.023276,-0.003357,0.152849,0.474527,0.001932,3.306404,7.223885,-0.605760,-27.705950,5.997755,1.690140,0.048338,-0.015583,0.000000,0.731482,-0.335674,-0.000000
0.130000,-1.491016,-2.325800,-1.454357,-0.004626,0.028384,-0.003368,0.184643,0.546973,-0.004030,3.063136,7.256418,-0.585612,-21.217723,0.657131,2.335592,0.055666,-0.018812,0.000000,0.733333,-0.310404,0.000000
0.140000,-1.491053,-2.325487,-1.454391,-0.002630,0.034216,-0.003437,0.214302,0.619492,-0.009759,2.876941,7.239836,-0.559131,-16.262068,-3.840983,2.956274,0.062988,-0.021820,0.000000,0.730199,-0.291015,0.000000
0.150000,-1.491068,-2.325113,-1.454426,-0.000346,0.040772,-0.003562,0.242323,0.691633,-0.015192,2.733377,7.182095,-0.526581,-12.661838,-7.590063,3.548704,0.070257,-0.024658,0.000000,0.722933,-0.276028,-0.000000
0.160000,-1.491059,-2.324670,-1.454463,0.002212,0.048046,-0.003740,0.269069,0.763020,-0.020271,2.619776,7.090220,-0.488263,-10.239885,-10.683580,4.109397,0.077435,-0.027365,0.000000,0.712289,-0.264149,0.000000
0.170000,-1.491023,-2.324150,-1.454501,0.005032,0.056029,-0.003966,0.294782,0.833344,-0.024940,2.525242,6.970297,-0.444511,-8.819061,-13.215010,4.634870,0.084493,-0.029964,0.000000,0.698921,-0.254268,-0.000000
0.180000,-1.490957,-2.323547,-1.454542,0.008105,0.064709,-0.004237,0.319607,0.902350,-0.029145,2.440648,6.827482,-0.395694,-8.222218,-15.277825,5.121639,0.091406,-0.032472,0.000000,0.683382,-0.245459,-0.000000
0.190000,-1.490860,-2.322853,-1.454586,0.011422,0.074071,-0.004547,0.343604,0.969831,-0.032838,2.358642,6.665991,-0.342218,-8.272209,-16.965500,5.566220,0.098155,-0.034895,0.000000,0.666129,-0.236980,-0.000000
0.200000,-1.490728,-2.322063,-1.454633,0.014974,0.084100,-0.004892,0.366769,1.035618,-0.035975,2.273639,6.489110,-0.284522,-8.791886,-18.371507,5.965131,0.104724,-0.037233,0.000000,0.647516,-0.228268,0.000000
0.210000,-1.490560,-2.321169,-1.454684,0.018766,0.094769,-0.005265,0.388612,1.099872,-0.038513,2.141131,6.327047,-0.222786,-8.576183,-20.292960,6.307472,0.111132,-0.039439,0.000000,0.630608,-0.214844,0.000000
0.220000,-1.490352,-2.320166,-1.454739,0.022758,0.106081,-0.005660,0.409595,1.162098,-0.040420,2.055422,6.115267,-0.158214,-8.601738,-22.033533,6.598083,0.117331,-0.041558,0.000000,0.608906,-0.206209,-0.000000
0.230000,-1.490104,-2.319046,-1.454797,0.026955,0.118004,-0.006071,0.429716,1.222122,-0.041668,1.968463,5.886955,-0.091005,-8.817271,-23.600541,6.834388,0.123306,-0.043591,0.000000,0.585773,-0.197517,0.000000
0.240000,-1.489812,-2.317803,-1.454860,0.031349,0.130515,-0.006491,0.448955,1.279788,-0.042233,1.878614,5.643810,-0.021716,-9.171502,-25.001298,7.013812,0.129043,-0.045537,0.000000,0.561388,-0.188602,-0.000000
0.250000,-1.489476,-2.316433,-1.454927,0.035931,0.143591,-0.006913,0.467275,1.334955,-0.042097,1.784742,5.387458,0.049073,-9.613151,-26.243118,7.133778,0.134530,-0.047393,0.000000,0.535915,-0.179347,0.000000
0.260000,-1.489093,-2.314930,-1.454998,0.040695,0.157205,-0.007331,0.484499,1.387515,-0.041239,1.673748,5.120976,0.121687,-9.775658,-27.371786,7.168112,0.139760,-0.049142,0.000000,0.509677,-0.168440,0.000000
0.270000,-1.488662,-2.313288,-1.455074,0.045622,0.171332,-0.007736,0.500744,1.437339,-0.039664,1.575076,4.842237,0.193283,-9.961629,-28.351435,7.140727,0.144721,-0.050795,0.000000,0.482405,-0.158817,-0.000000
0.280000,-1.488180,-2.311502,-1.455153,0.050707,0.185942,-0.008122,0.515994,1.484329,-0.037375,1.474479,4.554435,0.264297,-10.158389,-29.184667,7.051938,0.149405,-0.052351,0.000000,0.454424,-0.149047,0.000000
0.290000,-1.487647,-2.309567,-1.455236,0.055939,0.201009,-0.008481,0.530227,1.528402,-0.034382,1.371914,4.259023,0.334118,-10.353263,-29.874087,6.902057,0.153807,-0.053809,0.000000,0.425859,-0.139118,0.000000
0.300000,-1.487061,-2.307480,-1.455322,0.061308,0.216501,-0.008807,0.543426,1.569489,-0.030699,1.267463,3.957424,0.402136,-10.533578,-30.422297,6.691400,0.157921,-0.055166,0.000000,0.396832,-0.129030,0.000000
0.310000,-1.486420,-2.305236,-1.455412,0.066805,0.232388,-0.009093,0.555532,1.607526,-0.026336,1.157706,3.650198,0.468778,-10.595042,-30.810662,6.394179,0.161742,-0.056418,0.000000,0.367392,-0.118439,-0.000000
0.320000,-1.485724,-2.302831,-1.455504,0.072416,0.248641,-0.009332,0.566578,1.642482,-0.021334,1.051567,3.340708,0.530994,-10.627816,-31.065625,6.040006,0.165268,-0.057566,0.000000,0.337796,-0.108214,-0.000000
0.330000,-1.484972,-2.300262,-1.455598,0.078133,0.265228,-0.009518,0.576562,1.674334,-0.015729,0.945250,3.029313,0.589400,-10.630444,-31.192391,5.632390,0.168497,-0.058612,0.000000,0.308072,-0.097972,0.000000
0.340000,-1.484161,-2.297525,-1.455694,0.083944,0.282117,-0.009645,0.585484,1.703067,-0.009560,0.839064,2.717270,0.643476,-10.601469,-31.196163,5.174841,0.171429,-0.059554,0.000000,0.278314,-0.087734,-0.000000
0.350000,-1.483293,-2.294619,-1.455791,0.089839,0.299279,-0.009707,0.593345,1.728681,-0.002875,0.733331,2.405782,0.692742,-10.539435,-31.082147,4.670868,0.174064,-0.060392,0.000000,0.248609,-0.077523,0.000000
0.360000,-1.482364,-2.291539,-1.455888,0.095807,0.316681,-0.009701,0.600143,1.751184,0.004284,0.627451,2.095680,0.737451,-10.419179,-30.847417,4.106273,0.176402,-0.061127,0.000000,0.219022,-0.067275,-0.000000
0.370000,-1.481376,-2.288284,-1.455985,0.101838,0.334292,-0.009621,0.605899,1.770604,0.011854,0.523999,1.788826,0.775534,-10.265854,-30.506302,3.504443,0.178445,-0.061759,0.000000,0.189677,-0.057228,-0.000000
0.380000,-1.480327,-2.284853,-1.456080,0.107922,0.352083,-0.009463,0.610628,1.786974,0.019775,0.422240,1.485888,0.807435,-10.080909,-30.065000,2.871058,0.180196,-0.062291,0.000000,0.160626,-0.047307,-0.000000
0.390000,-1.479218,-2.281242,-1.456174,0.114048,0.370022,-0.009224,0.614350,1.800338,0.027982,0.322482,1.187839,0.832868,-9.865790,-29.529712,2.211795,0.181659,-0.062722,0.000000,0.131940,-0.037536,0.000000
0.400000,-1.478046,-2.277452,-1.456265,0.120206,0.388080,-0.008902,0.617086,1.810750,0.036410,0.225020,0.895587,0.851604,-9.621944,-28.906637,1.532333,0.182837,-0.063054,0.000000,0.103686,-0.027938,-0.000000
0.410000,-1.476813,-2.273480,-1.456352,0.126386,0.406227,-0.008495,0.618857,1.818272,0.044992,0.129955,0.610001,0.863629,-9.346293,-28.202555,0.834256,0.183734,-0.063290,0.000000,0.075934,-0.018520,0.000000
0.420000,-1.475519,-2.269327,-1.456434,0.132580,0.424436,-0.008002,0.619694,1.822975,0.053659,0.037976,0.331813,0.868444,-9.045363,-27.423014,0.127839,0.184357,-0.063432,0.000000,0.048733,-0.009347,-0.000000
0.430000,-1.474162,-2.264992,-1.456511,0.138777,0.442677,-0.007422,0.619627,1.824936,0.062338,-0.050875,0.061772,0.866178,-8.721156,-26.574141,-0.580738,0.184711,-0.063481,0.000000,0.022149,-0.000420,-0.000000
0.440000,-1.472743,-2.260474,-1.456582,0.144969,0.460925,-0.006756,0.618688,1.824240,0.070959,-0.136376,-0.199459,0.856842,-8.375671,-25.662066,-1.285295,0.184802,-0.063441,0.000000,-0.003762,0.008237,0.000000
0.450000,-1.471263,-2.255773,-1.456646,0.151148,0.479154,-0.006003,0.616911,1.820978,0.079451,-0.218324,-0.451279,0.840507,-8.010911,-24.692915,-1.979654,0.184638,-0.063315,0.000000,-0.028943,0.016606,-0.000000
0.460000,-1.469720,-2.250891,-1.456702,0.157305,0.497337,-0.005167,0.614334,1.815249,0.087742,-0.296526,-0.693017,0.816938,-7.629157,-23.676125,-2.648380,0.184226,-0.063105,0.000000,-0.053335,0.024665,-0.000000
0.470000,-1.468117,-2.245827,-1.456749,0.163432,0.515451,-0.004249,0.610994,1.807152,0.095768,-0.370844,-0.924503,0.787197,-7.232095,-22.614112,-3.295681,0.183574,-0.062814,0.000000,-0.076901,0.032394,-0.000000
0.480000,-1.466452,-2.240582,-1.456787,0.169522,0.533472,-0.003253,0.606931,1.796795,0.103465,-0.441123,-1.145167,0.751112,-6.821692,-21.512599,-3.916507,0.182691,-0.062447,0.000000,-0.099586,0.039776,0.000000
0.490000,-1.464726,-2.235158,-1.456814,0.175569,0.551379,-0.002181,0.602185,1.784286,0.110770,-0.507240,-1.354643,0.708972,-6.399914,-20.377309,-4.505813,0.181586,-0.062006,0.000000,-0.121343,0.046793,-0.000000
0.500000,-1.462941,-2.229555,-1.456830,0.181564,0.569151,-0.001039,0.596800,1.769740,0.117625,-0.569090,-1.552620,0.661118,-5.968728,-19.213967,-5.058551,0.180267,-0.061497,0.000000,-0.142126,0.053429,-0.000000
0.510000,-1.461095,-2.223775,-1.456835,0.187503,0.586768,0.000170,0.590819,1.753275,0.123967,-0.626527,-1.738654,0.607209,-5.531675,-18.033190,-5.551224,0.178747,-0.060921,0.000000,-0.161889,0.059668,0.000000
0.520000,-1.459191,-2.217820,-1.456827,0.193378,0.604211,0.001439,0.584284,1.735007,0.129754,-0.679634,-1.913008,0.549418,-5.088954,-16.835207,-5.999493,0.177033,-0.060285,0.000000,-0.180607,0.065500,-0.000000
0.530000,-1.457228,-2.211691,-1.456806,0.199186,0.621462,0.002763,0.577241,1.715055,0.134941,-0.728293,-2.075318,0.487377,-4.642340,-15.625142,-6.400573,0.175138,-0.059592,0.000000,-0.198240,0.070912,0.000000
0.540000,-1.455207,-2.205391,-1.456771,0.204922,0.638507,0.004135,0.569733,1.693541,0.139489,-0.772474,-2.225488,0.421573,-4.193607,-14.408120,-6.751673,0.173072,-0.058846,0.000000,-0.214755,0.075893,-0.000000
0.550000,-1.453130,-2.198922,-1.456723,0.210580,0.655328,0.005550,0.561806,1.670586,0.143362,-0.812164,-2.363474,0.352519,-3.744528,-13.189264,-7.050007,0.170847,-0.058053,0.000000,-0.230126,0.080434,0.000000
0.560000,-1.450996,-2.192286,-1.456660,0.216157,0.671914,0.007001,0.553506,1.646315,0.146521,-0.847273,-2.488997,0.279898,-3.299321,-11.980930,-7.271076,0.168474,-0.057216,0.000000,-0.244316,0.084524,-0.000000
0.570000,-1.448807,-2.185485,-1.456583,0.221649,0.688251,0.008479,0.544876,1.620846,0.148953,-0.878051,-2.602795,0.206314,-2.857017,-10.780125,-7.436461,0.165964,-0.056340,0.000000,-0.257342,0.088169,-0.000000
0.580000,-1.446563,-2.178522,-1.456491,0.227053,0.704327,0.009977,0.535960,1.594299,0.150642,-0.904428,-2.704639,0.131355,-2.419092,-9.591088,-7.546033,0.163331,-0.055429,0.000000,-0.269174,0.091360,-0.000000
0.590000,-1.444266,-2.171399,-1.456383,0.232367,0.720133,0.011489,0.526802,1.566793,0.151578,-0.926453,-2.794670,0.055580,-1.987019,-8.418057,-7.599663,0.160585,-0.054489,0.000000,-0.279805,0.094098,-0.000000
0.600000,-1.441916,-2.164120,-1.456261,0.237589,0.735660,0.013006,0.517445,1.538444,0.151753,-0.944192,-2.873068,-0.020451,-1.562273,-7.265270,-7.597222,0.157739,-0.053524,0.000000,-0.289234,0.096382,-0.000000
0.610000,-1.439515,-2.156687,-1.456123,0.242715,0.750900,0.014522,0.507933,1.509374,0.151161,-0.957595,-2.939668,-0.096938,-1.149680,-6.146799,-7.519354,0.154804,-0.052539,0.000000,-0.297437,0.098206,-0.000000
0.620000,-1.437062,-2.149103,-1.455970,0.247747,0.765845,0.016027,0.498307,1.479688,0.149818,-0.967069,-2.995657,-0.171517,-0.746953,-5.055846,-7.387511,0.151794,-0.051538,0.000000,-0.304488,0.099598,0.000000
0.630000,-1.434560,-2.141371,-1.455803,0.252681,0.780492,0.017516,0.488605,1.449496,0.147736,-0.972570,-3.040886,-0.244516,-0.355158,-3.995445,-7.203917,0.148719,-0.050525,0.000000,-0.310370,0.100554,-0.000000
0.640000,-1.432009,-2.133494,-1.455620,0.257519,0.794834,0.018979,0.478868,1.418905,0.144935,-0.974212,-3.075677,-0.315430,0.024643,-2.968631,-6.970797,0.145590,-0.049506,0.000000,-0.315105,0.101083,0.000000
0.650000,-1.429410,-2.125475,-1.455423,0.262259,0.808869,0.020412,0.469133,1.388016,0.141436,-0.972121,-3.100381,-0.383774,0.391383,-1.978439,-6.690375,0.142420,-0.048483,0.000000,-0.318717,0.101195,0.000000
0.660000,-1.426764,-2.117318,-1.455212,0.266901,0.822594,0.021806,0.459439,1.356935,0.137264,-0.966274,-3.114926,-0.449588,0.740020,-1.039340,-6.352224,0.139220,-0.047463,0.000000,-0.321197,0.100889,0.000000
0.670000,-1.424072,-2.109024,-1.454987,0.271448,0.836007,0.023155,0.449819,1.325749,0.132456,-0.957192,-3.120795,-0.511246,1.073956,-0.141532,-5.972772,0.136000,-0.046447,0.000000,-0.322674,0.100212,0.000000
0.680000,-1.421335,-2.100598,-1.454749,0.275898,0.849108,0.024453,0.440306,1.294548,0.127052,-0.944846,-3.117899,-0.568918,1.392614,0.713353,-5.555790,0.132770,-0.045441,0.000000,-0.323142,0.099163,-0.000000
0.690000,-1.418555,-2.092043,-1.454498,0.280254,0.861898,0.025694,0.430933,1.263418,0.121092,-0.929392,-3.106676,-0.622249,1.695415,1.523678,-5.105054,0.129540,-0.044448,0.000000,-0.322646,0.097759,0.000000
0.700000,-1.415731,-2.083362,-1.454235,0.284517,0.874377,0.026873,0.421728,1.232441,0.114623,-0.910993,-3.087580,-0.670920,1.981784,2.287812,-4.624337,0.126320,-0.043470,0.000000,-0.321231,0.096017,-0.000000
0.710000,-1.412865,-2.074557,-1.453961,0.288689,0.886548,0.027985,0.412724,1.201696,0.107689,-0.889656,-3.060639,-0.714821,2.247163,2.992979,-4.113051,0.123119,-0.042513,0.000000,-0.318905,0.093941,0.000000
0.720000,-1.409957,-2.065632,-1.453676,0.292773,0.898412,0.029026,0.403944,1.171251,0.100344,-0.865929,-3.027383,-0.753302,2.495441,3.650050,-3.579868,0.119945,-0.041578,0.000000,-0.315822,0.091587,0.000000
0.730000,-1.407009,-2.056589,-1.453381,0.296769,0.909974,0.029991,0.395413,1.141170,0.092641,-0.839804,-2.987799,-0.786360,2.726531,4.258754,-3.029093,0.116805,-0.040669,0.000000,-0.311988,0.088957,0.000000
0.740000,-1.404022,-2.047433,-1.453076,0.300682,0.921237,0.030878,0.387155,1.111514,0.084635,-0.811456,-2.942370,-0.813840,2.940341,4.818821,-2.465036,0.113707,-0.039788,0.000000,-0.307459,0.086072,0.000000
0.750000,-1.400996,-2.038166,-1.452763,0.304513,0.932206,0.031683,0.379191,1.082340,0.076383,-0.781055,-2.891585,-0.835631,3.136782,5.329981,-1.892005,0.110658,-0.038937,0.000000,-0.302292,0.082950,-0.000000
0.760000,-1.397932,-2.028790,-1.452443,0.308267,0.942885,0.032405,0.371542,1.053703,0.067943,-0.748646,-2.835579,-0.851531,3.312441,5.782987,-1.317669,0.107664,-0.038119,0.000000,-0.296508,0.079600,-0.000000
0.770000,-1.394831,-2.019309,-1.452116,0.311945,0.953282,0.033041,0.364224,1.025643,0.059371,-0.714715,-2.775686,-0.861832,3.470959,6.187645,-0.742564,0.104729,-0.037336,0.000000,-0.290252,0.076075,-0.000000
0.780000,-1.391693,-2.009725,-1.451782,0.315552,0.963400,0.033592,0.357252,0.998202,0.050726,-0.679283,-2.711985,-0.866393,3.612653,6.544784,-0.170584,0.101860,-0.036590,0.000000,-0.283542,0.072379,0.000000
0.790000,-1.388520,-2.000042,-1.451444,0.319091,0.973248,0.034056,0.350642,0.971414,0.042063,-0.642517,-2.644946,-0.865267,3.737841,6.855234,0.394372,0.099060,-0.035882,0.000000,-0.276432,0.068532,-0.000000
0.800000,-1.385312,-1.990261,-1.451102,0.322566,0.982831,0.034433,0.344406,0.945312,0.033439,-0.604581,-2.575033,-0.858542,3.846840,7.119823,0.948408,0.096333,-0.035213,0.000000,-0.268979,0.064552,0.000000
0.810000,-1.382069,-1.980386,-1.450756,0.325981,0.992156,0.034725,0.338555,0.919924,0.024914,-0.565547,-2.502476,-0.845995,3.937786,7.333725,1.478728,0.093682,-0.034585,0.000000,-0.261211,0.060449,0.000000
0.820000,-1.378792,-1.970419,-1.450407,0.329339,1.001232,0.034932,0.333098,0.895269,0.016536,-0.525778,-2.428251,-0.828629,4.013445,7.504117,1.991426,0.091109,-0.033999,0.000000,-0.253244,0.056265,-0.000000
0.830000,-1.375482,-1.960362,-1.450057,0.332644,1.010064,0.035056,0.328042,0.871364,0.008358,-0.485327,-2.352533,-0.806235,4.074402,7.632521,2.483695,0.088617,-0.033456,0.000000,-0.245098,0.052004,-0.000000
0.840000,-1.372140,-1.950218,-1.449707,0.335901,1.018662,0.035100,0.323393,0.848222,0.000428,-0.444337,-2.275735,-0.779032,4.121242,7.720459,2.952727,0.086208,-0.032955,0.000000,-0.236823,0.047685,-0.000000
0.850000,-1.368764,-1.939990,-1.449356,0.339113,1.027031,0.035066,0.319156,0.825852,-0.007208,-0.402947,-2.198254,-0.747267,4.154548,7.769452,3.395718,0.083881,-0.032498,0.000000,-0.228466,0.043321,-0.000000
0.860000,-1.365357,-1.929679,-1.449005,0.342285,1.035181,0.034957,0.315335,0.804259,-0.014498,-0.361255,-2.120384,-0.710757,4.174038,7.778819,3.798300,0.081639,-0.032086,0.000000,-0.220059,0.038923,-0.000000
0.870000,-1.361919,-1.919287,-1.448657,0.345421,1.043119,0.034777,0.311932,0.783444,-0.021410,-0.319469,-2.042698,-0.670886,4.181270,7.752554,4.170642,0.079480,-0.031717,0.000000,-0.211673,0.034516,0.000000
0.880000,-1.358449,-1.908817,-1.448310,0.348525,1.050853,0.034530,0.308946,0.763403,-0.027904,-0.277668,-1.965445,-0.627449,4.176935,7.692450,4.511352,0.077405,-0.031393,0.000000,-0.203334,0.030107,-0.000000
0.890000,-1.354948,-1.898270,-1.447966,0.351602,1.058390,0.034220,0.306378,0.744132,-0.033948,-0.235966,-1.888956,-0.580769,4.161724,7.600298,4.819040,0.075413,-0.031113,0.000000,-0.195081,0.025709,0.000000
0.900000,-1.351417,-1.887650,-1.447626,0.354654,1.065738,0.033853,0.304226,0.725621,-0.039510,-0.194468,-1.813540,-0.531183,4.136326,7.477891,5.092313,0.073503,-0.030878,0.000000,-0.186946,0.021332,-0.000000
0.910000,-1.347855,-1.876956,-1.447289,0.357688,1.072905,0.033432,0.302488,0.707857,-0.044558,-0.153281,-1.739509,-0.478588,4.101675,7.327441,5.318307,0.071674,-0.030686,0.000000,-0.178962,0.016985,0.000000
0.920000,-1.344263,-1.866192,-1.446957,0.360706,1.079897,0.032963,0.301159,0.690825,-0.049075,-0.112475,-1.667099,-0.424424,4.058190,7.150267,5.508508,0.069923,-0.030537,0.000000,-0.171162,0.012680,0.000000
0.930000,-1.340641,-1.855359,-1.446630,0.363712,1.086723,0.032452,0.300236,0.674508,-0.053041,-0.072144,-1.596587,-0.368537,4.006533,6.948109,5.662932,0.068250,-0.030431,0.000000,-0.163573,0.008425,-0.000000
0.940000,-1.336989,-1.844458,-1.446309,0.366712,1.093390,0.031904,0.299714,0.658886,-0.056441,-0.032369,-1.528215,-0.311285,3.947363,6.722706,5.781593,0.066651,-0.030368,0.000000,-0.156220,0.004226,0.000000
0.950000,-1.333307,-1.833492,-1.445992,0.369708,1.099903,0.031325,0.299587,0.643936,-0.059263,0.006780,-1.462205,-0.253024,3.881344,6.475800,5.864503,0.065124,-0.030346,0.000000,-0.149127,0.000091,0.000000
0.960000,-1.329595,-1.822461,-1.445682,0.372705,1.106271,0.030721,0.299847,0.629633,-0.061495,0.045199,-1.398837,-0.193745,3.810112,6.210954,5.902360,0.063667,-0.030366,0.000000,-0.142320,-0.003971,0.000000
0.970000,-1.325853,-1.811367,-1.445378,0.375706,1.112498,0.030097,0.300488,0.615950,-0.063137,0.082920,-1.338128,-0.134676,3.733233,5.927860,5.905636,0.062277,-0.030426,0.000000,-0.135807,-0.007961,-0.000000
0.980000,-1.322081,-1.800211,-1.445080,0.378716,1.118592,0.029460,0.301503,0.602860,-0.064189,0.119846,-1.280335,-0.075743,3.651248,5.628036,5.875485,0.060950,-0.030525,0.000000,-0.129612,-0.011870,0.000000
0.990000,-1.318279,-1.788995,-1.444789,0.381737,1.124557,0.028815,0.302883,0.590333,-0.064654,0.155930,-1.225618,-0.017274,3.564698,5.312998,5.813063,0.059684,-0.030663,0.000000,-0.123751,-0.015694,0.000000
1.000000,-1.314446,-1.777720,-1.444504,0.384774,1.130400,0.028169,0.304619,0.578337,-0.064537,0.191127,-1.174121,0.040414,3.474124,4.984262,5.719525,0.058474,-0.030839,0.000000,-0.118238,-0.019430,0.000000
1.010000,-1.310583,-1.766388,-1.444225,0.387831,1.136126,0.027526,0.306701,0.566839,-0.063847,0.225349,-1.126055,0.097253,3.381368,4.645409,5.590046,0.057318,-0.031052,0.000000,-0.113093,-0.023069,-0.000000
1.020000,-1.306689,-1.754998,-1.443953,0.390910,1.141739,0.026894,0.309122,0.555805,-0.062597,0.258686,-1.081341,0.152388,3.285513,4.295639,5.432493,0.056211,-0.031301,0.000000,-0.108311,-0.026617,0.000000
1.030000,-1.302765,-1.743553,-1.443688,0.394014,1.147243,0.026276,0.311872,0.545200,-0.060804,0.291050,-1.040175,0.205816,3.186940,3.936218,5.248752,0.055150,-0.031585,0.000000,-0.103911,-0.030069,-0.000000
1.040000,-1.298809,-1.732054,-1.443428,0.397148,1.152644,0.025679,0.314940,0.534989,-0.058487,0.322417,-1.002645,0.257282,3.086031,3.568409,5.040710,0.054131,-0.031903,0.000000,-0.099901,-0.033420,-0.000000
1.050000,-1.294822,-1.720501,-1.443174,0.400314,1.157944,0.025108,0.318317,0.525135,-0.055666,0.352764,-0.968830,0.306555,2.983170,3.193476,4.810254,0.053151,-0.032254,0.000000,-0.096289,-0.036669,-0.000000
1.060000,-1.290803,-1.708895,-1.442926,0.403515,1.163148,0.024567,0.321991,0.515599,-0.052363,0.382024,-0.938857,0.353511,2.880021,2.814242,4.556959,0.052204,-0.032637,0.000000,-0.093086,-0.039809,-0.000000
1.070000,-1.286751,-1.697238,-1.442682,0.406755,1.168257,0.024062,0.325954,0.506345,-0.048605,0.410303,-0.912631,0.397736,2.775527,2.430222,4.285307,0.051288,-0.033051,0.000000,-0.090285,-0.042849,0.000000
1.080000,-1.282667,-1.685530,-1.442444,0.410035,1.173275,0.023597,0.330194,0.497334,-0.044418,0.437531,-0.890265,0.439163,2.669912,2.042490,3.997468,0.050397,-0.033495,0.000000,-0.087897,-0.045783,0.000000
1.090000,-1.278550,-1.673773,-1.442210,0.413360,1.178204,0.023175,0.334701,0.488527,-0.039831,0.463698,-0.871790,0.477639,2.563403,1.652120,3.695611,0.049528,-0.033967,0.000000,-0.085924,-0.048609,0.000000
1.100000,-1.274400,-1.661967,-1.441980,0.416730,1.183046,0.022801,0.339464,0.479885,-0.034875,0.488797,-0.857227,0.513035,2.456224,1.260185,3.381907,0.048677,-0.034468,0.000000,-0.084369,-0.051325,0.000000
1.110000,-1.270216,-1.650112,-1.441754,0.420150,1.187803,0.022479,0.344473,0.471369,-0.029582,0.512780,-0.846621,0.545205,2.349653,0.868601,3.059527,0.047840,-0.034995,0.000000,-0.083237,-0.053926,0.000000
1.120000,-1.265997,-1.638211,-1.441531,0.423621,1.192474,0.022211,0.349716,0.462940,-0.023982,0.535742,-0.839891,0.574156,2.242734,0.477496,2.729517,0.047011,-0.035547,0.000000,-0.082518,-0.056421,0.000000
1.130000,-1.261743,-1.626263,-1.441310,0.427145,1.197062,0.022000,0.355184,0.454558,-0.018110,0.557633,-0.837066,0.599777,2.135564,0.087841,2.393924,0.046188,-0.036124,0.000000,-0.082217,-0.058804,0.000000
1.140000,-1.257454,-1.614270,-1.441091,0.430725,1.201565,0.021849,0.360865,0.446185,-0.011998,0.578453,-0.838126,0.622023,2.028240,-0.299394,2.054796,0.045365,-0.036724,0.000000,-0.082331,-0.061075,-0.000000
1.150000,-1.253128,-1.602232,-1.440873,0.434363,1.205985,0.021761,0.366750,0.437783,-0.005681,0.598198,-0.843043,0.640868,1.920857,-0.683237,1.714180,0.044540,-0.037346,0.000000,-0.082858,-0.063231,-0.000000
1.160000,-1.248766,-1.590150,-1.440655,0.438061,1.210321,0.021736,0.372826,0.429312,0.000807,0.616842,-0.851790,0.656170,1.814206,-1.062391,1.377617,0.043707,-0.037989,0.000000,-0.083796,-0.065270,-0.000000
1.170000,-1.244367,-1.578026,-1.440438,0.441820,1.214571,0.021778,0.379083,0.420734,0.007432,0.634451,-0.864288,0.668271,1.707605,-1.436252,1.043233,0.042862,-0.038653,0.000000,-0.085135,-0.067197,0.000000
1.180000,-1.239930,-1.565859,-1.440219,0.445643,1.218735,0.021885,0.385511,0.412013,0.014161,0.650995,-0.880494,0.677047,1.601066,-1.803891,0.712647,0.042003,-0.039334,0.000000,-0.086871,-0.069008,0.000000
1.190000,-1.235454,-1.553651,-1.440000,0.449531,1.222811,0.022061,0.392099,0.403112,0.020962,0.666473,-0.900342,0.682542,1.494601,-2.164377,0.387478,0.041124,-0.040034,0.000000,-0.088998,-0.070703,0.000000
1.200000,-1.230939,-1.541403,-1.439778,0.453485,1.226796,0.022305,0.398837,0.393995,0.027801,0.680887,-0.923754,0.684820,1.388223,-2.516779,0.069346,0.040222,-0.040749,0.000000,-0.091507,-0.072280,0.000000
1.210000,-1.226384,-1.529116,-1.439553,0.457508,1.230690,0.022617,0.405713,0.384625,0.034646,0.694224,-0.950659,0.683763,1.282284,-2.859876,-0.235196,0.039292,-0.041480,0.000000,-0.094392,-0.073737,0.000000
1.220000,-1.221789,-1.516790,-1.439325,0.461600,1.234488,0.022998,0.412718,0.374970,0.041466,0.706518,-0.980932,0.679928,1.176412,-3.193063,-0.530067,0.038333,-0.042225,0.000000,-0.097637,-0.075077,-0.000000
1.230000,-1.217152,-1.504426,-1.439093,0.465763,1.238188,0.023446,0.419840,0.364996,0.048234,0.717753,-1.014484,0.673197,1.070579,-3.515447,-0.814250,0.037338,-0.042982,0.000000,-0.101233,-0.076298,0.000000
1.240000,-1.212473,-1.492026,-1.438856,0.469997,1.241787,0.023962,0.427069,0.354670,0.054921,0.727929,-1.051202,0.663682,0.964753,-3.826133,-1.086732,0.036307,-0.043751,0.000000,-0.105170,-0.077400,-0.000000
1.250000,-1.207752,-1.479591,-1.438614,0.474304,1.245280,0.024544,0.434395,0.343962,0.061499,0.737048,-1.090965,0.651505,0.858905,-4.124226,-1.346496,0.035234,-0.044531,0.000000,-0.109432,-0.078380,0.000000
1.260000,-1.202987,-1.467121,-1.438365,0.478685,1.248665,0.025192,0.441807,0.332841,0.067940,0.745106,-1.133670,0.636589,0.753027,-4.408111,-1.587244,0.034117,-0.045319,0.000000,-0.114009,-0.079238,-0.000000
1.270000,-1.198178,-1.454618,-1.438110,0.483141,1.251936,0.025903,0.449294,0.321279,0.074223,0.752107,-1.179111,0.619571,0.647064,-4.677701,-1.813890,0.032953,-0.046116,0.000000,-0.118877,-0.079975,-0.000000
1.280000,-1.193324,-1.442083,-1.437847,0.487672,1.255089,0.026676,0.456845,0.309250,0.080325,0.758047,-1.227174,0.600359,0.540984,-4.932191,-2.026067,0.031739,-0.046919,0.000000,-0.124024,-0.080590,-0.000000
1.290000,-1.188424,-1.429517,-1.437576,0.492278,1.258119,0.027508,0.464451,0.296727,0.086224,0.762926,-1.277702,0.579099,0.434752,-5.170773,-2.223408,0.030471,-0.047728,0.000000,-0.129433,-0.081082,0.000000
1.300000,-1.183478,-1.416921,-1.437296,0.496961,1.261021,0.028399,0.472100,0.283688,0.091900,0.766742,-1.330533,0.555942,0.328337,-5.392641,-2.405542,0.029149,-0.048541,0.000000,-0.135084,-0.081450,0.000000
1.310000,-1.178484,-1.404297,-1.437008,0.501720,1.263791,0.029346,0.479783,0.270109,0.097335,0.769504,-1.385554,0.530856,0.221396,-5.595543,-2.567437,0.027769,-0.049358,0.000000,-0.140966,-0.081696,0.000000
1.320000,-1.173443,-1.391646,-1.436709,0.506556,1.266422,0.030345,0.487487,0.255970,0.102512,0.771183,-1.442448,0.504436,0.114242,-5.780294,-2.713962,0.026329,-0.050175,0.000000,-0.147042,-0.081817,0.000000
1.330000,-1.168353,-1.378969,-1.436401,0.511470,1.268908,0.031395,0.495203,0.241254,0.107419,0.771789,-1.501097,0.476627,0.006883,-5.946265,-2.845319,0.024828,-0.050994,0.000000,-0.153299,-0.081813,0.000000
1.340000,-1.163214,-1.366268,-1.436081,0.516460,1.271245,0.032493,0.502919,0.225943,0.112041,0.771320,-1.561309,0.447579,-0.100677,-6.092827,-2.961712,0.023263,-0.051812,0.000000,-0.159716,-0.081686,-0.000000
1.350000,-1.158024,-1.353544,-1.435751,0.521528,1.273425,0.033635,0.510626,0.210023,0.116367,0.769774,-1.622887,0.417442,-0.208432,-6.219350,-3.063343,0.021633,-0.052628,0.000000,-0.166269,-0.081434,0.000000
1.360000,-1.152783,-1.340800,-1.435408,0.526673,1.275443,0.034819,0.518311,0.193481,0.120385,0.767176,-1.685716,0.386229,-0.317027,-6.322964,-3.147082,0.019937,-0.053440,0.000000,-0.172946,-0.081059,-0.000000
1.370000,-1.147490,-1.328036,-1.435054,0.531894,1.277293,0.036042,0.525965,0.176306,0.124089,0.763462,-1.749376,0.354398,-0.425728,-6.405555,-3.216874,0.018174,-0.054249,0.000000,-0.179700,-0.080558,-0.000000
1.380000,-1.142145,-1.315255,-1.434688,0.537192,1.278967,0.037300,0.533577,0.158491,0.127471,0.758661,-1.813756,0.321936,-0.534450,-6.466766,-3.273332,0.016342,-0.055052,0.000000,-0.186517,-0.079932,-0.000000
1.390000,-1.136746,-1.302457,-1.434308,0.542566,1.280460,0.038590,0.541135,0.140029,0.130526,0.752774,-1.878639,0.288974,-0.643108,-6.506244,-3.317065,0.014443,-0.055847,0.000000,-0.193375,-0.079183,-0.000000
1.400000,-1.131293,-1.289646,-1.433916,0.548015,1.281766,0.039909,0.548629,0.120917,0.133249,0.745800,-1.943807,0.255635,-0.751619,-6.523634,-3.348686,0.012475,-0.056635,0.000000,-0.200247,-0.078311,0.000000
1.410000,-1.125785,-1.276823,-1.433510,0.553538,1.282877,0.041254,0.556048,0.101152,0.135637,0.737783,-2.009152,0.221975,-0.860927,-6.515670,-3.367207,0.010438,-0.057413,0.000000,-0.207120,-0.077321,0.000000
1.420000,-1.120222,-1.263989,-1.433090,0.559135,1.283787,0.042621,0.563381,0.080735,0.137688,0.728629,-2.074175,0.188255,-0.969791,-6.485263,-3.375034,0.008333,-0.058181,0.000000,-0.213942,-0.076204,0.000000
1.430000,-1.114602,-1.251148,-1.432657,0.564805,1.284489,0.044006,0.570617,0.059669,0.139402,0.718389,-2.138782,0.154507,-1.078001,-6.432415,-3.372975,0.006159,-0.058937,0.000000,-0.220700,-0.074966,0.000000
1.440000,-1.108926,-1.238300,-1.432210,0.570547,1.284978,0.045408,0.577745,0.037961,0.140778,0.707072,-2.202749,0.120826,-1.185346,-6.357126,-3.361837,0.003919,-0.059680,0.000000,-0.227370,-0.073609,-0.000000
1.450000,-1.103191,-1.225449,-1.431749,0.576360,1.285246,0.046821,0.584755,0.015617,0.141819,0.694686,-2.265850,0.087298,-1.291615,-6.259398,-3.342428,0.001612,-0.060409,0.000000,-0.233926,-0.072135,0.000000
1.460000,-1.097398,-1.212596,-1.431274,0.582242,1.285288,0.048243,0.591636,-0.007354,0.142525,0.681302,-2.327995,0.054011,-1.398081,-6.135876,-3.315789,-0.000759,-0.061122,0.000000,-0.240358,-0.070551,-0.000000
1.470000,-1.091546,-1.199744,-1.430784,0.588192,1.285097,0.049670,0.598377,-0.030938,0.142900,0.666796,-2.388644,0.021015,-1.502867,-5.990328,-3.282465,-0.003194,-0.061819,0.000000,-0.246609,-0.068846,0.000000
1.480000,-1.085634,-1.186895,-1.430280,0.594209,1.284667,0.051100,0.604968,-0.055121,0.142947,0.651252,-2.447729,-0.011618,-1.605582,-5.823167,-3.243234,-0.005691,-0.062499,0.000000,-0.252670,-0.067029,0.000000
1.490000,-1.079662,-1.174051,-1.429762,0.600291,1.283993,0.052528,0.611399,-0.079887,0.142669,0.634693,-2.505037,-0.043833,-1.705832,-5.634803,-3.198875,-0.008247,-0.063160,0.000000,-0.258518,-0.065104,-0.000000
1.500000,-1.073628,-1.161216,-1.429230,0.606436,1.283068,0.053952,0.617659,-0.105215,0.142072,0.617145,-2.560356,-0.075581,-1.803225,-5.425649,-3.150166,-0.010860,-0.063801,0.000000,-0.264131,-0.063074,0.000000
1.510000,-1.067533,-1.148391,-1.428683,0.612643,1.281887,0.055368,0.623739,-0.131088,0.141160,0.598711,-2.613617,-0.106751,-1.899200,-5.192701,-3.099734,-0.013529,-0.064421,0.000000,-0.269501,-0.060950,-0.000000
1.520000,-1.061375,-1.135579,-1.428123,0.618910,1.280444,0.056774,0.629630,-0.157480,0.139938,0.579255,-2.664297,-0.137483,-1.991309,-4.940206,-3.046283,-0.016249,-0.065019,0.000000,-0.274572,-0.058719,0.000000
1.530000,-1.055154,-1.122783,-1.427548,0.625235,1.278736,0.058166,0.635321,-0.184365,0.138412,0.558900,-2.712359,-0.167668,-2.078935,-4.668993,-2.990367,-0.019019,-0.065595,0.000000,-0.279342,-0.056395,0.000000
1.540000,-1.048870,-1.110005,-1.426959,0.631616,1.276756,0.059541,0.640805,-0.211717,0.136587,0.537694,-2.757618,-0.197284,-2.161462,-4.379893,-2.932538,-0.021835,-0.066147,0.000000,-0.283790,-0.053984,-0.000000
1.550000,-1.042522,-1.097249,-1.426357,0.638051,1.274500,0.060897,0.646073,-0.239508,0.134468,0.515690,-2.799900,-0.226315,-2.238272,-4.073737,-2.873348,-0.024694,-0.066675,0.000000,-0.287898,-0.051491,-0.000000
1.560000,-1.036109,-1.084516,-1.425741,0.644537,1.271964,0.062230,0.651117,-0.267706,0.132064,0.492998,-2.839149,-0.254642,-2.309985,-3.748572,-2.816046,-0.027592,-0.067177,0.000000,-0.291662,-0.048930,-0.000000
1.570000,-1.029631,-1.071810,-1.425113,0.651072,1.269144,0.063537,0.655930,-0.296279,0.129377,0.469569,-2.874945,-0.282513,-2.374597,-3.408352,-2.758158,-0.030526,-0.067654,0.000000,-0.295038,-0.046295,-0.000000
1.580000,-1.023087,-1.059134,-1.424471,0.657655,1.266037,0.064816,0.660506,-0.325194,0.126415,0.445533,-2.907269,-0.309804,-2.431339,-3.054248,-2.699907,-0.033492,-0.068103,0.000000,-0.298024,-0.043599,-0.000000
1.590000,-1.016478,-1.046491,-1.423816,0.664282,1.262640,0.066065,0.664839,-0.354413,0.123183,0.420971,-2.935988,-0.336511,-2.479445,-2.687430,-2.641516,-0.036485,-0.068526,0.000000,-0.300609,-0.040854,-0.000000
1.600000,-1.009802,-1.033882,-1.423150,0.670951,1.258948,0.067279,0.668924,-0.383901,0.119687,0.395975,-2.960979,-0.362634,-2.518144,-2.309069,-2.583206,-0.039502,-0.068921,0.000000,-0.302779,-0.038068,0.000000
1.610000,-1.003059,-1.021313,-1.422471,0.677659,1.254961,0.068458,0.672757,-0.413620,0.115934,0.370616,-2.982190,-0.388079,-2.546004,-1.918945,-2.527654,-0.042539,-0.069288,0.000000,-0.304532,-0.035251,-0.000000
1.620000,-0.996248,-1.008784,-1.421781,0.684405,1.250675,0.069597,0.676336,-0.443531,0.111927,0.345061,-2.999390,-0.413079,-2.563004,-1.519791,-2.472327,-0.045592,-0.069626,0.000000,-0.305844,-0.032418,0.000000
1.630000,-0.989370,-0.996300,-1.421079,0.691185,1.246090,0.070695,0.679658,-0.473595,0.107674,0.319394,-3.012560,-0.437526,-2.568457,-1.112949,-2.417149,-0.048655,-0.069937,0.000000,-0.306716,-0.029580,-0.000000
1.640000,-0.982424,-0.983863,-1.420367,0.697997,1.241203,0.071750,0.682724,-0.503769,0.103179,0.293733,-3.021628,-0.461422,-2.561677,-0.699759,-2.362040,-0.051724,-0.070219,0.000000,-0.307140,-0.026749,0.000000
1.650000,-0.975410,-0.971477,-1.419644,0.704839,1.236014,0.072758,0.685533,-0.534013,0.098447,0.268204,-3.026538,-0.484767,-2.541978,-0.281564,-2.306923,-0.054796,-0.070473,0.000000,-0.307115,-0.023938,-0.000000
1.660000,-0.968328,-0.959144,-1.418912,0.711707,1.230522,0.073718,0.688088,-0.564286,0.093486,0.242831,-3.027238,-0.507497,-2.505946,0.140075,-2.253301,-0.057865,-0.070698,0.000000,-0.306636,-0.021151,0.000000
1.670000,-0.961176,-0.946868,-1.418170,0.718600,1.224728,0.074627,0.690391,-0.594544,0.088299,0.218010,-3.023719,-0.529761,-2.455956,0.564064,-2.199321,-0.060927,-0.070896,0.000000,-0.305705,-0.018428,0.000000
1.680000,-0.953956,-0.934650,-1.417419,0.725514,1.218632,0.075483,0.692450,-0.624746,0.082893,0.193760,-3.015954,-0.551482,-2.391654,0.989089,-2.144711,-0.063978,-0.071068,0.000000,-0.304321,-0.015771,-0.000000
1.690000,-0.946666,-0.922496,-1.416661,0.732448,1.212234,0.076284,0.694269,-0.654849,0.077271,0.170226,-3.003938,-0.572652,-2.312687,1.413835,-2.089200,-0.067012,-0.071213,0.000000,-0.302486,-0.013196,0.000000
1.700000,-0.939307,-0.910407,-1.415894,0.739399,1.205535,0.077028,0.695857,-0.684811,0.071441,0.147556,-2.987682,-0.593262,-2.218704,1.836988,-2.032516,-0.070026,-0.071333,0.000000,-0.300205,-0.010718,0.000000
1.710000,-0.931878,-0.898386,-1.415120,0.746364,1.198538,0.077712,0.697222,-0.714588,0.065408,0.125746,-2.967147,-0.613273,-2.105400,2.255681,-1.975012,-0.073015,-0.071428,0.000000,-0.297477,-0.008336,-0.000000
1.720000,-0.924379,-0.886437,-1.414340,0.753342,1.191244,0.078335,0.698376,-0.744140,0.059178,0.105322,-2.942513,-0.632728,-1.976858,2.670343,-1.915716,-0.075974,-0.071500,0.000000,-0.294321,-0.006105,-0.000000
1.730000,-0.916811,-0.874562,-1.413554,0.760331,1.183656,0.078895,0.699333,-0.773424,0.052756,0.086259,-2.913757,-0.651580,-1.833208,3.079848,-1.854279,-0.078900,-0.071551,0.000000,-0.290741,-0.004021,0.000000
1.740000,-0.909173,-0.862765,-1.412762,0.767329,1.175777,0.079390,0.700106,-0.802401,0.046148,0.068708,-2.880937,-0.669805,-1.674581,3.483072,-1.790352,-0.081787,-0.071581,0.000000,-0.286744,-0.002100,-0.000000
1.750000,-0.901464,-0.851048,-1.411966,0.774333,1.167609,0.079818,0.700712,-0.831030,0.039362,0.052817,-2.844120,-0.687378,-1.501109,3.878892,-1.723588,-0.084633,-0.071594,0.000000,-0.282340,-0.000357,-0.000000
1.760000,-0.893686,-0.839414,-1.411166,0.781342,1.159157,0.080177,0.701167,-0.859269,0.032403,0.038567,-2.803293,-0.704276,-1.308674,4.263783,-1.653410,-0.087433,-0.071589,0.000000,-0.277533,0.001210,-0.000000
1.770000,-0.885837,-0.827866,-1.410363,0.788356,1.150425,0.080465,0.701490,-0.887083,0.025279,0.026501,-2.758769,-0.720444,-1.102176,4.639314,-1.579725,-0.090183,-0.071570,0.000000,-0.272356,0.002547,-0.000000
1.780000,-0.877919,-0.816406,-1.409557,0.795372,1.141417,0.080682,0.701704,-0.914433,0.017997,0.016568,-2.710540,-0.735857,-0.882265,5.004654,-1.502214,-0.092879,-0.071539,0.000000,-0.266813,0.003659,-0.000000
1.790000,-0.869930,-0.805038,-1.408749,0.802389,1.132138,0.080825,0.701829,-0.941282,0.010564,0.008898,-2.658713,-0.750475,-0.649593,5.358973,-1.420556,-0.095518,-0.071497,0.000000,-0.260918,0.004533,-0.000000
1.800000,-0.861871,-0.793764,-1.407941,0.809408,1.122594,0.080892,0.701890,-0.967595,0.002990,0.003616,-2.603400,-0.764254,-0.404812,5.701440,-1.334432,-0.098096,-0.071448,0.000000,-0.254687,0.005157,0.000000
1.810000,-0.853742,-0.782587,-1.407132,0.816427,1.112788,0.080884,0.701908,-0.993337,-0.004718,0.000691,-2.544618,-0.777182,-0.144799,6.028486,-1.242639,-0.100610,-0.071394,0.000000,-0.248123,0.005536,0.000000
1.820000,-0.845542,-0.771509,-1.406323,0.823446,1.102729,0.080798,0.701913,-1.018477,-0.012551,0.000587,-2.482752,-0.789129,0.125559,6.342354,-1.145846,-0.103057,-0.071338,0.000000,-0.241270,0.005622,-0.000000
1.830000,-0.837273,-0.760533,-1.405516,0.830465,1.092421,0.080632,0.701929,-1.042982,-0.020498,0.003233,-2.417816,-0.800082,0.405150,6.642548,-1.043840,-0.105435,-0.071282,0.000000,-0.234132,0.005424,-0.000000
1.840000,-0.828933,-0.749662,-1.404711,0.837485,1.081871,0.080387,0.701987,-1.066823,-0.028549,0.008717,-2.349949,-0.809988,0.692860,6.928572,-0.936410,-0.107739,-0.071230,0.000000,-0.226727,0.004934,0.000000
1.850000,-0.820523,-0.738897,-1.403909,0.844505,1.071087,0.080061,0.702113,-1.089972,-0.036694,0.017113,-2.279294,-0.818791,0.987577,7.199932,-0.823343,-0.109968,-0.071184,0.000000,-0.219073,0.004145,-0.000000
1.860000,-0.812043,-0.728241,-1.403110,0.851528,1.060074,0.079653,0.702338,-1.112399,-0.044921,0.028375,-2.205898,-0.826485,1.291044,7.453534,-0.703166,-0.112120,-0.071147,0.000000,-0.211176,0.003063,0.000000
1.870000,-0.803493,-0.717696,-1.402316,0.858553,1.048841,0.079163,0.702691,-1.134082,-0.053219,0.042822,-2.130158,-0.832891,1.598942,7.691799,-0.577082,-0.114191,-0.071123,0.000000,-0.203081,0.001655,-0.000000
1.880000,-0.794872,-0.707265,-1.401527,0.865582,1.037395,0.078589,0.703204,-1.154995,-0.061575,0.060363,-2.052113,-0.838007,1.909808,7.914547,-0.445031,-0.116181,-0.071115,0.000000,-0.194795,-0.000067,-0.000000
1.890000,-0.786181,-0.696949,-1.400744,0.872617,1.025744,0.077931,0.703909,-1.175117,-0.069975,0.081023,-1.971920,-0.841772,2.222179,8.121602,-0.306955,-0.118087,-0.071126,0.000000,-0.186334,-0.002105,0.000000
1.900000,-0.777420,-0.686750,-1.399969,0.879661,1.013896,0.077189,0.704835,-1.194427,-0.078406,0.104807,-1.889734,-0.844125,2.534592,8.312785,-0.162797,-0.119907,-0.071159,0.000000,-0.177719,-0.004459,0.000000
1.910000,-0.768588,-0.676671,-1.399201,0.886715,1.001858,0.076363,0.706015,-1.212904,-0.086853,0.131648,-1.805630,-0.845059,2.847153,8.485720,-0.011177,-0.121640,-0.071217,0.000000,-0.168957,-0.007121,-0.000000
1.920000,-0.759685,-0.666714,-1.398442,0.893782,0.989640,0.075452,0.707479,-1.230534,-0.095302,0.161670,-1.719975,-0.844388,3.156639,8.642698,0.146481,-0.123286,-0.071303,0.000000,-0.160089,-0.010104,-0.000000
1.930000,-0.750712,-0.656879,-1.397692,0.900866,0.977250,0.074457,0.709258,-1.247299,-0.103735,0.194765,-1.632829,-0.842110,3.461394,8.783810,0.310073,-0.124842,-0.071421,0.000000,-0.151123,-0.013395,-0.000000
1.940000,-0.741668,-0.647169,-1.396953,0.907968,0.964697,0.073377,0.711384,-1.263186,-0.112138,0.230877,-1.544351,-0.838167,3.759763,8.909147,0.479496,-0.126308,-0.071574,0.000000,-0.142075,-0.016988,-0.000000
1.950000,-0.732553,-0.637586,-1.396225,0.915095,0.951990,0.072214,0.713886,-1.278182,-0.120493,0.269933,-1.454699,-0.832501,4.050092,9.018801,0.654646,-0.127683,-0.071765,0.000000,-0.132963,-0.020876,-0.000000
1.960000,-0.723366,-0.628130,-1.395509,0.922248,0.939137,0.070968,0.716792,-1.292276,-0.128783,0.311841,-1.363959,-0.825099,4.330866,9.111133,0.836524,-0.128967,-0.071996,0.000000,-0.123796,-0.025048,0.000000
1.970000,-0.714107,-0.618803,-1.394806,0.929432,0.926147,0.069639,0.720132,-1.305458,-0.136989,0.356506,-1.272450,-0.815802,4.600273,9.188177,1.023787,-0.130159,-0.072271,0.000000,-0.114608,-0.029495,-0.000000
1.980000,-0.704777,-0.609607,-1.394116,0.936652,0.913030,0.068228,0.723931,-1.317722,-0.145092,0.403803,-1.180245,-0.804606,4.856641,9.250236,1.216197,-0.131259,-0.072592,0.000000,-0.105406,-0.034206,0.000000
1.990000,-0.695374,-0.600543,-1.393441,0.943912,0.899796,0.066737,0.728216,-1.329061,-0.153074,0.453590,-1.087494,-0.791461,5.098296,9.297613,1.413517,-0.132267,-0.072962,0.000000,-0.096206,-0.039165,0.000000
2.000000,-0.685899,-0.591612,-1.392782,0.951218,0.886452,0.065167,0.733011,-1.339471,-0.160915,0.505714,-0.994341,-0.776320,5.323568,9.330611,1.615506,-0.133183,-0.073383,0.000000,-0.087022,-0.044357,0.000000
2.010000,-0.676350,-0.582815,-1.392138,0.958574,0.873009,0.063520,0.738338,-1.348947,-0.168594,0.560050,-0.900887,-0.759166,5.529547,9.348478,1.822666,-0.134008,-0.073858,0.000000,-0.077863,-0.049771,-0.000000
2.020000,-0.666727,-0.574152,-1.391512,0.965986,0.859476,0.061796,0.744218,-1.357488,-0.176091,0.616295,-0.807370,-0.739886,5.715949,9.352702,2.033929,-0.134741,-0.074388,0.000000,-0.068754,-0.055377,0.000000
2.030000,-0.657030,-0.565625,-1.390903,0.973460,0.845863,0.059998,0.750670,-1.365094,-0.183385,0.674299,-0.713877,-0.718475,5.881254,9.343716,2.248965,-0.135383,-0.074976,0.000000,-0.059702,-0.061161,-0.000000
2.040000,-0.647258,-0.557235,-1.390312,0.981002,0.832178,0.058129,0.757709,-1.371766,-0.190454,0.733844,-0.620538,-0.694895,6.023941,9.321953,2.467447,-0.135935,-0.075623,0.000000,-0.050719,-0.067103,0.000000
2.050000,-0.637410,-0.548982,-1.389740,0.988616,0.818431,0.056190,0.765351,-1.377506,-0.197276,0.794697,-0.527479,-0.669115,6.142489,9.287847,2.689044,-0.136397,-0.076331,0.000000,-0.041816,-0.073180,0.000000
2.060000,-0.627485,-0.540867,-1.389188,0.996311,0.804631,0.054184,0.773608,-1.382317,-0.203829,0.856715,-0.434822,-0.641122,6.232688,9.241863,2.913865,-0.136771,-0.077101,0.000000,-0.033004,-0.079381,-0.000000
2.070000,-0.617483,-0.532889,-1.388657,1.004091,0.790787,0.052115,0.782488,-1.386204,-0.210090,0.919382,-0.342681,-0.610850,6.296036,9.184397,3.141091,-0.137058,-0.077934,0.000000,-0.024294,-0.085655,0.000000
2.080000,-0.607403,-0.525051,-1.388146,1.011963,0.776910,0.049984,0.791997,-1.389173,-0.216038,0.982542,-0.251171,-0.578294,6.331343,9.115876,3.370338,-0.137258,-0.078830,0.000000,-0.015694,-0.091990,0.000000
2.090000,-0.597244,-0.517351,-1.387657,1.019933,0.763007,0.047795,0.802139,-1.391230,-0.221649,1.045911,-0.160399,-0.543437,6.337416,9.036729,3.601226,-0.137372,-0.079791,0.000000,-0.007214,-0.098359,-0.000000
2.100000,-0.587004,-0.509791,-1.387191,1.028007,0.749088,0.045552,0.812915,-1.392384,-0.226899,1.109189,-0.070470,-0.506265,6.313065,8.947384,3.833371,-0.137402,-0.080816,0.000000,0.001139,-0.104736,-0.000000
2.110000,-0.576683,-0.502370,-1.386747,1.036193,0.735162,0.043258,0.824323,-1.392643,-0.231766,1.172221,0.018475,-0.466789,6.253214,8.849306,4.066952,-0.137350,-0.081906,0.000000,0.009353,-0.111106,0.000000
2.120000,-0.566280,-0.495088,-1.386326,1.044496,0.721238,0.040918,0.836357,-1.392018,-0.236227,1.234319,0.106438,-0.424950,6.161031,8.741760,4.300957,-0.137216,-0.083059,0.000000,0.017429,-0.117407,0.000000
2.130000,-0.555793,-0.487945,-1.385928,1.052922,0.707325,0.038535,0.849006,-1.390518,-0.240258,1.295331,0.193280,-0.380770,6.035802,8.625048,4.534935,-0.137002,-0.084276,0.000000,0.025358,-0.123625,-0.000000
2.140000,-0.545221,-0.480941,-1.385555,1.061478,0.693431,0.036114,0.862259,-1.388156,-0.243835,1.354923,0.278909,-0.334253,5.876809,8.499472,4.768435,-0.136709,-0.085555,0.000000,0.033132,-0.129730,0.000000
2.150000,-0.534563,-0.474076,-1.385206,1.070169,0.679564,0.033660,0.876099,-1.384944,-0.246935,1.412752,0.363240,-0.285405,5.683338,8.365334,5.001006,-0.136340,-0.086895,0.000000,0.040745,-0.135693,-0.000000
2.160000,-0.523817,-0.467350,-1.384882,1.079002,0.665735,0.031177,0.890509,-1.380896,-0.249536,1.468650,0.446141,-0.234295,5.450173,8.224126,5.233646,-0.135895,-0.088294,0.000000,0.048190,-0.141498,-0.000000
2.170000,-0.512982,-0.460761,-1.384583,1.087981,0.651949,0.028671,0.905463,-1.376026,-0.251613,1.521839,0.527643,-0.180803,5.181649,8.074813,5.464277,-0.135376,-0.089750,0.000000,0.055468,-0.147075,0.000000
2.180000,-0.502057,-0.454310,-1.384309,1.097113,0.638217,0.026147,0.920936,-1.370349,-0.253144,1.572165,0.607611,-0.125018,4.877602,7.917550,5.692271,-0.134786,-0.091262,0.000000,0.062571,-0.152410,-0.000000
2.190000,-0.491039,-0.447997,-1.384060,1.106402,0.624545,0.023610,0.936896,-1.363879,-0.254106,1.619272,0.685968,-0.066968,4.537865,7.752495,5.916999,-0.134126,-0.092825,0.000000,0.069495,-0.157472,-0.000000
2.200000,-0.479928,-0.441819,-1.383836,1.115852,0.610942,0.021067,0.953309,-1.356635,-0.254476,1.662803,0.762636,-0.006691,4.162276,7.579803,6.137832,-0.133397,-0.094438,0.000000,0.076234,-0.162229,-0.000000
2.210000,-0.468722,-0.435778,-1.383638,1.125469,0.597415,0.018523,0.970141,-1.348633,-0.254234,1.702586,0.837514,0.055659,3.745910,7.400270,6.357018,-0.132602,-0.096098,0.000000,0.082784,-0.166667,0.000000
2.220000,-0.457418,-0.429871,-1.383466,1.135256,0.583972,0.015984,0.987347,-1.339891,-0.253356,1.737815,0.910588,0.120303,3.293944,7.213333,6.570700,-0.131742,-0.097800,0.000000,0.089143,-0.170710,0.000000
2.230000,-0.446016,-0.424098,-1.383319,1.145217,0.570619,0.013458,1.004882,-1.330427,-0.251821,1.768347,0.981756,0.187052,2.806795,7.019070,6.777897,-0.130819,-0.099541,0.000000,0.095304,-0.174348,-0.000000
2.240000,-0.434513,-0.418458,-1.383197,1.155355,0.557365,0.010950,1.022697,-1.320262,-0.249608,1.793835,1.050945,0.255836,2.284881,6.817558,6.977629,-0.129836,-0.101316,0.000000,0.101266,-0.177548,-0.000000
2.250000,-0.422908,-0.412950,-1.383100,1.165672,0.544216,0.008468,1.040740,-1.309415,-0.246697,1.813931,1.118083,0.326576,1.728619,6.608873,7.168914,-0.128795,-0.103120,0.000000,0.107023,-0.180279,-0.000000
2.260000,-0.411199,-0.407573,-1.383027,1.176170,0.531179,0.006019,1.058959,-1.297908,-0.243072,1.828498,1.183106,0.399024,1.133260,6.392902,7.354792,-0.127697,-0.104950,0.000000,0.112575,-0.182525,0.000000
2.270000,-0.399384,-0.402326,-1.382979,1.186851,0.518260,0.003609,1.077290,-1.285761,-0.238711,1.836717,1.245926,0.473456,0.505022,6.169937,7.529769,-0.126544,-0.106799,0.000000,0.117912,-0.184213,-0.000000
2.280000,-0.387462,-0.397208,-1.382955,1.197716,0.505466,0.001247,1.095671,-1.272997,-0.233597,1.838493,1.306482,0.549578,-0.155046,5.940079,7.692372,-0.125339,-0.108662,0.000000,0.123034,-0.185332,-0.000000
2.290000,-0.375429,-0.392217,-1.382954,1.208765,0.492802,-0.001060,1.114037,-1.259639,-0.227714,1.833513,1.364705,0.627257,-0.845892,5.703430,7.841130,-0.124084,-0.110533,0.000000,0.127936,-0.185851,0.000000
2.300000,-0.363286,-0.387351,-1.382976,1.219997,0.480275,-0.003305,1.132318,-1.245711,-0.221047,1.821476,1.420528,0.706349,-1.566467,5.460091,7.974568,-0.122781,-0.112406,0.000000,0.132617,-0.185739,-0.000000
2.310000,-0.351029,-0.382611,-1.383020,1.231411,0.467890,-0.005479,1.150445,-1.231236,-0.213585,1.802325,1.473929,0.786535,-2.321702,5.209062,8.095188,-0.121432,-0.114274,0.000000,0.137080,-0.184987,-0.000000
2.320000,-0.338657,-0.377993,-1.383085,1.243005,0.455652,-0.007574,1.168339,-1.216240,-0.205313,1.775219,1.524738,0.868013,-3.103831,4.951679,8.197056,-0.120040,-0.116130,0.000000,0.141306,-0.183515,-0.000000
2.330000,-0.326168,-0.373497,-1.383171,1.254776,0.443567,-0.009582,1.185923,-1.200750,-0.196221,1.740165,1.572942,0.950408,-3.911073,4.688177,8.278213,-0.118607,-0.117968,0.000000,0.145301,-0.181318,0.000000
2.340000,-0.313561,-0.369121,-1.383277,1.266722,0.431639,-0.011495,1.203115,-1.184790,-0.186302,1.696920,1.618482,1.033502,-4.741643,4.418793,8.336699,-0.117135,-0.119780,0.000000,0.149061,-0.178366,0.000000
2.350000,-0.300833,-0.364864,-1.383401,1.278837,0.419873,-0.013305,1.219833,-1.168389,-0.175550,1.645260,1.661299,1.117059,-5.593759,4.143763,8.370554,-0.115627,-0.121558,0.000000,0.152586,-0.174632,0.000000
2.360000,-0.287984,-0.360723,-1.383542,1.291117,0.408272,-0.015004,1.235995,-1.151573,-0.163961,1.585309,1.701424,1.200753,-6.473979,3.861171,8.379607,-0.114084,-0.123294,0.000000,0.155882,-0.170121,0.000000
2.370000,-0.275010,-0.356698,-1.383700,1.303555,0.396842,-0.016582,1.251510,-1.134370,-0.151535,1.516096,1.738602,1.284476,-7.371157,3.573667,8.359892,-0.112510,-0.124979,0.000000,0.158926,-0.164730,0.000000
2.380000,-0.261912,-0.352786,-1.383873,1.316144,0.385586,-0.018032,1.266287,-1.116810,-0.138273,1.437839,1.772882,1.367848,-8.282489,3.281749,8.309230,-0.110906,-0.126606,0.000000,0.161726,-0.158470,-0.000000
2.390000,-0.248687,-0.348985,-1.384060,1.328878,0.374507,-0.019344,1.280236,-1.098922,-0.124180,1.350409,1.804224,1.450550,-9.205171,2.985917,8.225442,-0.109276,-0.128165,0.000000,0.164283,-0.151317,-0.000000
2.400000,-0.235334,-0.345295,-1.384260,1.341746,0.363609,-0.020512,1.293264,-1.080736,-0.109265,1.253707,1.832589,1.532239,-10.136398,2.686669,8.106351,-0.107621,-0.129648,0.000000,0.166596,-0.143248,0.000000
2.410000,-0.221852,-0.341713,-1.384470,1.354740,0.352893,-0.021527,1.305280,-1.062280,-0.093540,1.147731,1.858012,1.612590,-11.075120,2.382875,7.948827,-0.105945,-0.131044,0.000000,0.168671,-0.134250,-0.000000
2.420000,-0.208239,-0.338236,-1.384690,1.367848,0.342364,-0.022381,1.316187,-1.043586,-0.077019,1.032274,1.880312,1.691127,-12.016564,2.076863,7.751759,-0.104249,-0.132345,0.000000,0.170495,-0.124284,-0.000000
2.430000,-0.194494,-0.334865,-1.384917,1.381059,0.332022,-0.023065,1.325894,-1.024684,-0.059724,0.907401,1.899544,1.767486,-12.957711,1.769330,7.513085,-0.102536,-0.133540,0.000000,0.172074,-0.113341,-0.000000
2.440000,-0.180617,-0.331595,-1.385151,1.394361,0.321871,-0.023573,1.334304,-1.005605,-0.041678,0.773131,1.915696,1.841243,-13.895543,1.460974,7.230743,-0.100808,-0.134620,0.000000,0.173412,-0.101403,-0.000000
2.450000,-0.166607,-0.328427,-1.385388,1.407741,0.311911,-0.023896,1.341325,-0.986380,-0.022910,0.629511,1.928763,1.911949,-14.827039,1.152494,6.902671,-0.099068,-0.135575,0.000000,0.174509,-0.088455,0.000000
2.460000,-0.152462,-0.325356,-1.385628,1.421183,0.302144,-0.024029,1.346870,-0.967038,-0.003447,0.477269,1.938906,1.979548,-15.765560,0.840593,6.516417,-0.097319,-0.136395,0.000000,0.175381,-0.074554,0.000000
2.470000,-0.138183,-0.322383,-1.385868,1.434673,0.292570,-0.023963,1.350839,-0.947613,0.016668,0.314979,1.945759,2.042579,-16.689702,0.530453,6.081582,-0.095561,-0.137070,0.000000,0.176000,-0.059521,-0.000000
2.480000,-0.123769,-0.319504,-1.386106,1.448194,0.283191,-0.023693,1.353140,-0.928134,0.037390,0.143540,1.949525,2.101015,-17.594441,0.223262,5.597377,-0.093799,-0.137588,0.000000,0.176385,-0.043428,0.000000
2.490000,-0.109219,-0.316719,-1.386341,1.461730,0.274008,-0.023213,1.353680,-0.908632,0.058671,-0.036828,1.950238,2.154359,-18.474754,-0.079793,5.063010,-0.092035,-0.137939,0.000000,0.176541,-0.026273,-0.000000
2.500000,-0.094534,-0.314024,-1.386570,1.475261,0.265019,-0.022518,1.352374,-0.889139,0.080458,-0.225857,1.947947,2.202106,-19.325615,-0.377524,4.477694,-0.090269,-0.138112,0.000000,0.176473,-0.008057,-0.000000
2.510000,-0.079714,-0.311418,-1.386791,1.488771,0.256225,-0.021603,1.349135,-0.869683,0.102699,-0.423282,1.942749,2.244288,-20.140588,-0.669752,3.826810,-0.088506,-0.138097,0.000000,0.176186,0.011211,0.000000
2.520000,-0.064759,-0.308898,-1.387001,1.502237,0.247625,-0.020463,1.343882,-0.850293,0.125321,-0.628601,1.934623,2.279090,-20.916233,-0.954158,3.125089,-0.086746,-0.137883,0.000000,0.175689,0.031523,0.000000
2.530000,-0.049669,-0.306464,-1.387199,1.515641,0.239219,-0.019095,1.336538,-0.831000,0.148256,-0.841459,1.923697,2.306624,-21.647700,-1.229432,2.373437,-0.084993,-0.137461,0.000000,0.174991,0.052860,-0.000000
2.540000,-0.034446,-0.304113,-1.387382,1.528961,0.231004,-0.017497,1.327029,-0.811829,0.171428,-1.061391,1.910069,2.326395,-22.330137,-1.494262,1.572756,-0.083247,-0.136819,0.000000,0.174099,0.075197,0.000000
2.550000,-0.019091,-0.301844,-1.387548,1.542174,0.222981,-0.015666,1.315288,-0.792807,0.194757,-1.287882,1.893851,2.337918,-22.958693,-1.747337,0.723951,-0.081511,-0.135948,0.000000,0.173024,0.098504,0.000000
2.560000,-0.003603,-0.299653,-1.387695,1.555259,0.215148,-0.013602,1.301248,-0.773960,0.218166,-1.520679,1.875132,2.341471,-23.520705,-1.986488,-0.191122,-0.079787,-0.134839,0.000000,0.171766,0.122764,-0.000000
2.570000,0.012014,-0.297540,-1.387820,1.568192,0.207502,-0.011303,1.284857,-0.755312,0.241555,-1.758436,1.854130,2.334800,-24.020089,-2.211369,-1.150179,-0.078077,-0.133482,0.000000,0.170360,0.147882,0.000000
2.580000,0.027760,-0.295503,-1.387920,1.580948,0.200041,-0.008771,1.266064,-0.736885,0.264829,-2.000859,1.830956,2.318331,-24.452950,-2.420773,-2.149985,-0.076381,-0.131869,0.000000,0.168809,0.173829,0.000000
2.590000,0.043632,-0.293539,-1.387994,1.593505,0.192763,-0.006007,1.244826,-0.718700,0.287888,-2.247261,1.805770,2.291675,-24.815394,-2.613495,-3.187303,-0.074701,-0.129993,0.000000,0.167124,0.200544,-0.000000
2.600000,0.059629,-0.291647,-1.388040,1.605837,0.185666,-0.003015,1.221108,-0.700775,0.310627,-2.496919,1.778746,2.254471,-25.103524,-2.788329,-4.258897,-0.073039,-0.127845,0.000000,0.165321,0.227957,-0.000000
2.610000,0.075748,-0.289825,-1.388054,1.617919,0.178747,0.000203,1.194879,-0.683131,0.332951,-2.749154,1.750014,2.207316,-25.311335,-2.942719,-5.384830,-0.071395,-0.125420,0.000000,0.163401,0.255986,0.000000
2.620000,0.091987,-0.288071,-1.388035,1.629726,0.172002,0.003642,1.166119,-0.665780,0.354736,-3.002967,1.719898,2.147731,-25.437301,-3.076976,-6.535713,-0.069771,-0.122710,0.000000,0.161410,0.284551,0.000000
2.630000,0.108342,-0.286384,-1.387980,1.641233,0.165430,0.007296,1.134817,-0.648737,0.375867,-3.257615,1.688545,2.076539,-25.477788,-3.190059,-7.705458,-0.068167,-0.119713,0.000000,0.159350,0.313547,-0.000000
2.640000,0.124810,-0.284762,-1.387888,1.652414,0.159027,0.011157,1.100967,-0.632013,0.396227,-3.512226,1.656171,1.993580,-25.429157,-3.280927,-8.887975,-0.066584,-0.116424,0.000000,0.157239,0.342865,0.000000
2.650000,0.141389,-0.283203,-1.387757,1.663243,0.152789,0.015218,1.064575,-0.615616,0.415699,-3.765889,1.623004,1.898757,-25.287774,-3.348541,-10.077176,-0.065022,-0.112840,0.000000,0.155094,0.372384,-0.000000
2.660000,0.158074,-0.281706,-1.387583,1.673697,0.146713,0.019468,1.025644,-0.599557,0.434169,-4.018745,1.589020,1.792594,-25.022581,-3.385252,-11.281110,-0.063482,-0.108959,0.000000,0.152902,0.402080,0.000000
2.670000,0.174862,-0.280268,-1.387367,1.683748,0.140797,0.023897,0.984211,-0.583837,0.451511,-4.267243,1.555086,1.673790,-24.660720,-3.397436,-12.477818,-0.061964,-0.104783,0.000000,0.150759,0.431554,0.000000
2.680000,0.191748,-0.278889,-1.387105,1.693373,0.135035,0.028494,0.940313,-0.568455,0.467605,-4.511637,1.521153,1.543088,-24.201913,-3.384865,-13.659479,-0.060467,-0.100312,0.000000,0.148647,0.460776,0.000000
2.690000,0.208728,-0.277567,-1.386796,1.702546,0.129426,0.033245,0.893995,-0.553413,0.482333,-4.750957,1.487472,1.400677,-23.645882,-3.347305,-14.818272,-0.058991,-0.095552,0.000000,0.146585,0.489590,-0.000000
2.700000,0.225797,-0.276300,-1.386439,1.711245,0.123966,0.038135,0.845314,-0.538704,0.495580,-4.984229,1.454291,1.246825,-22.992347,-3.284527,-15.946378,-0.057535,-0.090505,0.000000,0.144593,0.517830,0.000000
2.710000,0.242951,-0.275087,-1.386033,1.719445,0.118651,0.043151,0.794322,-0.524328,0.507234,-5.211589,1.421555,1.081969,-22.212953,-3.188442,-17.038288,-0.056099,-0.085179,0.000000,0.142655,0.545446,0.000000
2.720000,0.260184,-0.273927,-1.385576,1.727124,0.113478,0.048274,0.741109,-0.510270,0.517184,-5.429426,1.390254,0.906318,-21.338936,-3.067639,-18.083586,-0.054682,-0.079582,0.000000,0.140871,0.571983,0.000000
2.730000,0.277491,-0.272817,-1.385067,1.734260,0.108445,0.053488,0.685764,-0.496518,0.525326,-5.638063,1.360282,0.720480,-20.373457,-2.922848,-19.074168,-0.053281,-0.073726,0.000000,0.139219,0.597400,0.000000
2.740000,0.294867,-0.271757,-1.384506,1.740833,0.103547,0.058775,0.628382,-0.483059,0.531561,-5.836601,1.331875,0.525044,-19.319674,-2.754801,-20.001931,-0.051897,-0.067622,0.000000,0.137717,0.621525,-0.000000
2.750000,0.312306,-0.270746,-1.383892,1.746822,0.098783,0.064113,0.569068,-0.469875,0.535797,-6.024173,1.305261,0.320678,-18.180747,-2.564229,-20.858770,-0.050527,-0.061284,0.000000,0.136378,0.644189,-0.000000
2.760000,0.329802,-0.269781,-1.383224,1.752208,0.094149,0.069484,0.507925,-0.456950,0.537941,-6.201099,1.280325,0.107521,-16.930647,-2.343320,-21.621158,-0.049169,-0.054725,0.000000,0.135184,0.665355,-0.000000
2.770000,0.347348,-0.268862,-1.382502,1.756975,0.089643,0.074865,0.445089,-0.444260,0.537924,-6.363838,1.258080,-0.112150,-15.605297,-2.102395,-22.298304,-0.047822,-0.047966,0.000000,0.134226,0.684562,-0.000000
2.780000,0.364939,-0.267988,-1.381726,1.761105,0.085263,0.080235,0.380694,-0.431781,0.535677,-6.512976,1.238337,-0.338140,-14.211429,-1.843229,-22.883993,-0.046484,-0.041025,0.000000,0.133477,0.701813,-0.000000
2.790000,0.382568,-0.267157,-1.380897,1.764584,0.081007,0.085571,0.314877,-0.419485,0.531143,-6.647861,1.221270,-0.569504,-12.755777,-1.567600,-23.372010,-0.045152,-0.033922,0.000000,0.132944,0.716977,0.000000
2.800000,0.400229,-0.266367,-1.380015,1.767398,0.076873,0.090850,0.247786,-0.407346,0.524272,-6.767908,1.207034,-0.805234,-11.245074,-1.277285,-23.756139,-0.043824,-0.026678,0.000000,0.132635,0.729943,0.000000
2.810000,0.417914,-0.265619,-1.379081,1.769536,0.072860,0.096049,0.179563,-0.395337,0.515014,-6.873286,1.195523,-1.045460,-9.668761,-0.967894,-23.999870,-0.042499,-0.019316,0.000000,0.132531,0.740688,-0.000000
2.820000,0.435617,-0.264910,-1.378095,1.770987,0.068966,0.101142,0.110373,-0.383425,0.503357,-6.961924,1.187436,-1.286209,-8.052982,-0.648126,-24.130992,-0.041173,-0.011859,0.000000,0.132683,0.748958,0.000000
2.830000,0.453331,-0.264239,-1.377058,1.771741,0.065191,0.106108,0.040379,-0.371577,0.489288,-7.034243,1.182587,-1.527696,-6.406589,-0.320514,-24.147001,-0.039844,-0.004332,0.000000,0.133068,0.754786,-0.000000
2.840000,0.471050,-0.263606,-1.375973,1.771792,0.061534,0.110920,-0.030256,-0.359762,0.472804,-7.089983,1.181043,-1.768757,-4.738433,0.012410,-24.045392,-0.038511,0.003240,0.000000,0.133682,0.758142,0.000000
