time,x,y,z,vx,vy,vz,ax,ay,az,jx,jy,jz,sx,sy,sz,roll,pitch,yaw,p,q,r
0.000000,-2.641931,-2.313792,-1.369760,0.003113,0.007482,-0.006436,-0.115772,0.017312,0.007624,0.413889,1.560224,-0.374687,24.690823,30.883174,-9.666878,0.001766,0.011810,0.000000,0.159090,-0.042669,-0.000000
0.050000,-2.641775,-2.313418,-1.370082,-0.002675,0.008347,-0.006055,-0.095077,0.095324,-0.011110,1.648431,3.104383,-0.858031,30.487374,40.024892,-12.651297,0.009705,0.009681,0.000000,0.315216,-0.168668,-0.000000
0.100000,-2.642198,-2.312957,-1.370366,-0.006394,0.017014,-0.007547,0.049071,0.327751,-0.078179,3.462627,5.562713,-1.639817,17.690632,34.381400,-9.794663,0.033133,-0.004963,0.000000,0.556390,-0.349155,0.000000
0.150000,-2.642415,-2.311716,-1.370837,0.002232,0.041122,-0.013873,0.251185,0.651595,-0.175092,3.417494,6.542523,-1.837497,-9.780162,7.565054,1.771855,0.065144,-0.025151,0.000000,0.639741,-0.336701,0.000000
0.200000,-2.641975,-2.308845,-1.371753,0.018724,0.082173,-0.025056,0.390821,0.982003,-0.261929,2.484611,6.319218,-1.462631,-15.073983,-10.034571,10.211748,0.097119,-0.038784,0.000000,0.606126,-0.239555,0.000000
0.250000,-2.640542,-2.303499,-1.373342,0.041314,0.139323,-0.040065,0.499646,1.283517,-0.321355,1.910095,5.539065,-0.816323,-11.166894,-18.951742,14.163379,0.125865,-0.049277,0.000000,0.526291,-0.182655,-0.000000
0.300000,-2.637844,-2.294912,-1.375759,0.068689,0.210525,-0.057192,0.581830,1.535910,-0.343561,1.367921,4.424044,-0.046293,-10.959350,-24.342129,15.264949,0.149888,-0.057240,0.000000,0.423493,-0.132519,-0.000000
0.350000,-2.633673,-2.282446,-1.379061,0.099497,0.292914,-0.074422,0.636439,1.725921,-0.325984,0.814160,3.104853,0.710172,-10.949225,-27.280943,13.843910,0.168334,-0.062708,0.000000,0.307834,-0.083198,-0.000000
0.400000,-2.627894,-2.265621,-1.383201,0.132333,0.383117,-0.089790,0.663246,1.846395,-0.272544,0.272999,1.695950,1.338098,-10.375204,-28.098036,10.473654,0.180739,-0.065687,0.000000,0.185473,-0.035072,-0.000000
0.450000,-2.620440,-2.244135,-1.388040,0.165822,0.477553,-0.101676,0.663738,1.895516,-0.192175,-0.223360,0.295049,1.757538,-9.217458,-27.138612,5.938161,0.186888,-0.066262,0.000000,0.060626,0.010439,0.000000
0.500000,-2.611312,-2.217866,-1.393369,0.198706,0.572669,-0.109007,0.640910,1.875900,-0.096790,-0.648747,-1.017911,1.931914,-7.615694,-24.748159,1.117606,0.186758,-0.064604,0.000000,-0.062800,0.051733,-0.000000
0.550000,-2.600569,-2.186868,-1.398941,0.229913,0.665143,-0.111355,0.598864,1.793725,0.001017,-0.984929,-2.179767,1.869298,-5.725080,-21.260043,-3.154844,0.180538,-0.060977,0.000000,-0.180041,0.087009,0.000000
0.600000,-2.588321,-2.151352,-1.404505,0.258593,0.752041,-0.108906,0.542417,1.657923,0.090140,-1.221255,-3.143916,1.616429,-3.692783,-17.012243,-6.223090,0.168687,-0.055747,0.000000,-0.285252,0.114357,-0.000000
0.650000,-2.574710,-2.111664,-1.409832,0.284154,0.830935,-0.102341,0.476738,1.479334,0.162660,-1.354208,-3.880991,1.246989,-1.655420,-12.351164,-7.697304,0.151973,-0.049376,0.000000,-0.372256,0.132117,0.000000
0.700000,-2.559905,-2.068258,-1.414739,0.306267,0.899975,-0.092640,0.406996,1.269824,0.214839,-1.386797,-4.379032,0.846699,0.268273,-7.608756,-7.489542,0.131459,-0.042391,0.000000,-0.435893,0.139322,-0.000000
0.750000,-2.544083,-2.021666,-1.419096,0.324854,0.957918,-0.080857,0.338059,1.041430,0.247329,-1.327381,-4.641867,0.498035,1.989681,-3.063648,-5.796626,0.108411,-0.035337,0.000000,-0.473311,0.135993,0.000000
0.800000,-2.527420,-1.972466,-1.422824,0.340073,1.004118,-0.067907,0.274258,0.805637,0.264642,-1.187829,-4.685397,0.267036,3.460568,1.093880,-3.041782,0.084167,-0.028724,0.000000,-0.484545,0.123097,0.000000
0.850000,-2.510076,-1.921254,-1.425886,0.352280,1.038481,-0.054393,0.219276,0.572891,0.274033,-0.981324,-4.532479,0.193857,4.675072,4.776091,0.207666,0.059989,-0.022991,0.000000,-0.472112,0.102202,0.000000
0.900000,-2.492192,-1.868618,-1.428264,0.362000,1.061407,-0.040504,0.176126,0.352389,0.284028,-0.720322,-4.207788,0.287803,5.660844,7.983342,3.328969,0.036969,-0.018487,0.000000,-0.439871,0.074981,-0.000000
0.950000,-2.473876,-1.815114,-1.429937,0.369892,1.073720,-0.025990,0.147243,0.152112,0.302813,-0.415239,-3.734145,0.526754,6.460810,10.763945,5.725918,0.015996,-0.015486,0.000000,-0.391726,0.042803,-0.000000
1.000000,-2.455203,-1.761246,-1.430863,0.376724,1.076618,-0.010222,0.134602,-0.021025,0.336703,-0.074241,-3.131393,0.860395,7.110204,13.159825,6.897849,-0.002219,-0.014208,0.000000,-0.330716,0.006545,0.000000
1.050000,-2.436204,-1.707452,-1.430959,0.383353,1.071618,0.007680,0.139819,-0.161027,0.388853,0.295781,-2.418162,1.216539,7.614869,15.153924,6.495463,-0.017089,-0.014840,0.000000,-0.258768,-0.033300,-0.000000
1.100000,-2.416867,-1.654084,-1.430095,0.390706,1.060515,0.028663,0.164180,-0.262841,0.458357,0.687246,-1.616001,1.509941,7.936842,16.635532,4.366042,-0.028095,-0.017554,0.000000,-0.177137,-0.076270,-0.000000
1.150000,-2.397133,-1.601400,-1.428093,0.399771,1.045334,0.053516,0.208544,-0.322628,0.539847,1.089465,-0.754609,1.653143,7.992145,17.396539,0.589087,-0.034780,-0.022492,0.000000,-0.087385,-0.121401,0.000000
1.200000,-2.376890,-1.549551,-1.424743,0.411561,1.028253,0.082648,0.273127,-0.338302,0.623671,1.486461,0.123653,1.568850,7.663710,17.165294,-4.501576,-0.036794,-0.029723,0.000000,0.007341,-0.166630,-0.000000
1.250000,-2.355977,-1.498575,-1.419828,0.427083,1.011503,0.115883,0.357190,-0.310262,0.696732,1.855836,0.961920,1.202985,6.828990,15.675778,-10.319172,-0.034006,-0.039174,0.000000,0.101141,-0.208374,0.000000
1.300000,-2.334182,-1.448401,-1.413155,0.447280,0.997226,0.152321,0.458710,-0.242110,0.743970,2.169360,1.691231,0.536932,5.397582,12.759190,-16.062174,-0.026665,-0.050553,0.000000,0.184923,-0.241576,-0.000000
1.350000,-2.311249,-1.398852,-1.404596,0.472954,0.987292,0.190280,0.574126,-0.141139,0.750425,2.395594,2.237840,-0.403232,3.349908,8.435095,-20.800238,-0.015547,-0.063288,0.000000,0.247408,-0.260528,0.000000
1.400000,-2.286887,-1.349671,-1.394127,0.504692,0.983112,0.227363,0.698270,-0.018326,0.703647,2.504351,2.534740,-1.543091,0.765053,2.973510,-23.609000,-0.002007,-0.076530,0.000000,0.277913,-0.260486,-0.000000
1.450000,-2.260780,-1.300541,-1.381859,0.542781,0.985460,0.260645,0.824561,0.112335,0.596116,2.472100,2.535190,-2.764132,-2.173877,-3.098457,-23.739379,0.012143,-0.089253,0.000000,0.270111,-0.239519,-0.000000
1.500000,-2.232608,-1.251125,-1.368062,0.587149,0.994346,0.286975,0.945480,0.235193,0.427233,2.286963,2.224895,-3.917029,-5.203588,-9.059184,-20.790743,0.024935,-0.100429,0.000000,0.224877,-0.199584,-0.000000
1.550000,-2.202065,-1.201107,-1.353162,0.637329,1.008979,0.303368,1.053257,0.334824,0.204413,1.951741,1.629272,-4.843207,-8.031736,-14.118780,-14.844953,0.034636,-0.109214,0.000000,0.150400,-0.146057,-0.000000
1.600000,-2.168875,-1.150227,-1.337725,0.692474,1.027828,0.307416,1.140654,0.398120,-0.057087,1.483789,0.813017,-5.401525,-10.404732,-17.585604,-6.513374,0.040060,-0.115091,0.000000,0.059416,-0.085876,-0.000000
1.650000,-2.132818,-1.098324,-1.322420,0.751395,1.048791,0.297659,1.201636,0.416126,-0.335739,0.911268,-0.129288,-5.494544,-12.173237,-19.033113,3.139545,0.040708,-0.117888,0.000000,-0.034777,-0.025300,-0.000000
1.700000,-2.093736,-1.045348,-1.307959,0.812638,1.069441,0.273842,1.231781,0.385191,-0.606542,0.266466,-1.090295,-5.087570,-13.329484,-18.409700,12.793412,0.036706,-0.117706,0.000000,-0.121579,0.031710,0.000000
1.750000,-2.051554,-0.991380,-1.295036,0.874573,1.087310,0.237005,1.228283,0.307097,-0.844496,-0.421681,-1.970258,-4.215203,-13.994121,-16.037886,21.135034,0.028626,-0.114776,0.000000,-0.194597,0.084035,-0.000000
1.800000,-2.006279,-0.936617,-1.284259,0.935466,1.100151,0.189393,1.189613,0.188165,-1.028062,-1.132947,-2.694083,-2.974067,-14.350829,-12.495103,27.107559,0.017256,-0.109325,0.000000,-0.251501,0.133031,-0.000000
1.850000,-1.958007,-0.881365,-1.276097,0.993534,1.106127,0.134199,1.114988,0.037688,-1.141903,-1.856764,-3.219768,-1.504447,-14.553071,-8.428226,30.083317,0.003424,-0.101458,0.000000,-0.292883,0.181639,0.000000
1.900000,-1.906925,-0.826005,-1.270839,1.046965,1.103919,0.075202,1.003936,-0.133811,-1.178506,-2.588254,-3.536906,0.034265,-14.640846,-4.380657,29.936069,-0.012126,-0.091109,0.000000,-0.320787,0.233292,-0.000000
1.950000,-1.853311,-0.770973,-1.268577,1.093928,1.092746,0.016348,0.856163,-0.316002,-1.138477,-3.320848,-3.657834,1.489160,-14.500044,-0.693322,27.019262,-0.028767,-0.078040,0.000000,-0.337367,0.290780,-0.000000
2.000000,-1.797533,-0.716730,-1.269204,1.132581,1.072319,-0.038645,0.671851,-0.499595,-1.029590,-4.038258,-3.606238,2.736191,-13.878745,2.499826,22.070762,-0.045969,-0.061902,0.000000,-0.343952,0.355160,-0.000000
2.050000,-1.740053,-0.663741,-1.272441,1.161113,1.042786,-0.086611,0.452337,-0.676626,-0.864858,-4.708723,-3.407852,3.696236,-12.452624,5.202228,16.064818,-0.063244,-0.042349,0.000000,-0.340659,0.424816,-0.000000
2.100000,-1.681421,-0.612451,-1.277865,1.177815,1.004657,-0.125131,0.200979,-0.840380,-0.659967,-5.283521,-3.086015,4.342673,-9.914039,7.457083,10.029380,-0.080079,-0.019193,0.000000,-0.326642,0.494900,0.000000
2.150000,-1.622271,-0.563275,-1.284954,1.181211,0.958748,-0.152607,-0.076015,-0.985228,-0.430590,-5.700127,-2.662143,4.699174,-6.054159,9.269783,4.851318,-0.095910,0.007423,0.000000,-0.300914,0.557423,-0.000000
2.200000,-1.563300,-0.516577,-1.293126,1.170214,0.906134,-0.168190,-0.369033,-1.106594,-0.190049,-5.888936,-2.159037,4.827805,-0.817495,10.578094,1.103262,-0.110136,0.036886,0.000000,-0.263449,0.602211,0.000000
2.250000,-1.505250,-0.472662,-1.301773,1.144307,0.848089,-0.171612,-0.664909,-1.201131,0.052190,-5.781876,-1.604334,4.809500,5.674456,11.269289,-1.070136,-0.122198,0.068036,0.000000,-0.216092,0.618583,0.000000
2.300000,-1.448869,-0.431768,-1.310287,1.103723,0.786021,-0.162971,-0.947221,-1.267028,0.290901,-5.321491,-1.032108,4.720791,13.120624,11.226631,-1.981115,-0.131683,0.099181,0.000000,-0.162782,0.597201,0.000000
2.350000,-1.394877,-0.394060,-1.318070,1.049585,0.721386,-0.142522,-1.197058,-1.304342,0.524269,-4.469814,-0.481671,4.611389,21.046354,10.386484,-2.336152,-0.138424,0.128207,0.000000,-0.108883,0.531337,0.000000
2.400000,-1.343911,-0.359629,-1.324539,0.984017,0.655587,-0.110544,-1.394202,-1.315195,0.752039,-3.216855,0.006540,4.487176,28.804822,8.789518,-3.087995,-0.142535,0.152722,0.000000,-0.059837,0.417134,0.000000
2.450000,-1.296476,-0.328501,-1.329125,0.910165,0.589866,-0.067318,-1.518743,-1.303688,0.972987,-1.589332,0.397281,4.302589,35.577740,6.612202,-5.214977,-0.144383,0.170199,0.000000,-0.019671,0.253302,0.000000
2.500000,-1.252894,-0.300643,-1.331271,0.832143,0.525218,-0.013245,-1.553136,-1.275467,1.182298,0.340918,0.667761,3.965678,40.414021,4.170784,-9.449971,-0.144481,0.178110,0.000000,0.010178,0.041436,-0.000000
2.550000,-1.213261,-0.275979,-1.330449,0.754851,0.462320,0.050912,-1.484651,-1.236912,1.369555,2.452070,0.814360,3.357592,42.323000,1.889403,-16.010378,-0.143340,0.174116,0.000000,0.031522,-0.211730,-0.000000
2.600000,-1.177409,-0.254411,-1.326180,0.683677,0.401527,0.123710,-1.307929,-1.194031,1.518058,4.573219,0.856701,2.364640,40.427631,0.227950,-24.403691,-0.141293,0.156446,0.000000,0.049404,-0.489322,-0.000000
2.650000,-1.144894,-0.235827,-1.318078,0.624059,0.342917,0.202717,-1.027330,-1.151242,1.606019,6.494834,0.837154,0.917223,34.215937,-0.417653,-33.380833,-0.138350,0.124575,0.000000,0.070959,-0.758346,0.000000
2.700000,-1.115003,-0.220119,-1.305908,0.580944,0.286402,0.284312,-0.658445,-1.110315,1.609780,7.994812,0.814936,-0.973443,23.836035,0.175276,-41.105848,-0.134156,0.080124,0.000000,0.102613,-0.969387,0.000000
2.750000,-1.086799,-0.207186,-1.289647,0.558214,0.231885,0.363695,-0.227848,-1.069748,1.508675,8.878437,0.854682,-3.193362,10.284303,1.962062,-45.565401,-0.128111,0.027440,0.000000,0.146229,-1.070421,-0.000000
2.800000,-1.059182,-0.196930,-1.269539,0.558160,0.179428,0.435179,0.229398,-1.024847,1.290444,9.023243,1.011142,-5.529983,-4.623931,4.593311,-45.128032,-0.119675,-0.026920,0.000000,0.197214,-1.033444,0.000000
2.850000,-1.030983,-0.189244,-1.246129,0.581154,0.129400,0.492740,0.674476,-0.968634,0.955676,8.416044,1.314013,-7.706165,-18.568375,7.466594,-39.060654,-0.108651,-0.076028,0.000000,0.247273,-0.873919,-0.000000
2.900000,-1.001067,-0.183990,-1.220265,0.625607,0.082564,0.530747,1.071003,-0.893446,0.519827,7.166405,1.757801,-9.436048,-29.288584,9.863428,-27.793023,-0.095249,-0.114777,0.000000,0.289474,-0.642794,0.000000
2.950000,-0.968423,-0.180987,-1.193054,0.688254,0.040056,0.544723,1.391116,-0.792854,0.012071,5.487186,2.300356,-10.485467,-35.199252,11.130399,-12.816946,-0.079946,-0.141038,0.000000,0.320680,-0.398750,0.000000
3.000000,-0.932241,-0.179985,-1.165793,0.764719,0.003279,0.531954,1.619721,-0.663410,-0.528719,3.646480,2.870841,-10.717743,-35.808580,10.843209,3.729450,-0.063310,-0.155402,0.000000,0.340527,-0.185362,-0.000000
3.050000,-0.891951,-0.180659,-1.139859,0.850226,-0.026285,0.491851,1.755764,-0.505770,-1.059703,1.906328,3.384677,-10.112522,-31.794177,8.903197,19.617057,-0.045903,-0.160145,0.000000,0.349581,-0.024440,0.000000
3.100000,-0.847219,-0.182613,-1.116607,0.940295,-0.047298,0.425984,1.810354,-0.324943,-1.539972,0.467062,3.761161,-8.756037,-24.742692,5.546634,33.017486,-0.028264,-0.158171,0.000000,0.348416,0.079835,-0.000000
3.150000,-0.797921,-0.185389,-1.097261,1.031262,-0.058779,0.337853,1.802471,-0.129654,-1.935307,-0.567942,3.939340,-6.810773,-16.676491,1.277505,42.786611,-0.010911,-0.152275,0.000000,0.337578,0.134176,0.000000
3.200000,-0.744092,-0.188491,-1.082822,1.120542,-0.060264,0.232453,1.753560,0.068992,-2.221049,-1.200587,3.888911,-4.477376,-9.535273,-3.246394,48.499583,0.005674,-0.144734,0.000000,0.317863,0.150826,-0.000000
3.250000,-0.685867,-0.191415,-1.074015,1.206618,-0.051880,0.115749,1.682412,0.259237,-2.383044,-1.521469,3.614701,-1.960815,-4.757836,-7.339759,50.294986,0.021058,-0.137115,0.000000,0.290577,0.144193,0.000000
3.300000,-0.623431,-0.193679,-1.071247,1.288784,-0.034340,-0.005851,1.601413,0.430462,-2.417130,-1.676371,3.154935,0.552122,-3.045556,-10.401735,48.638133,0.034893,-0.130231,0.000000,0.257694,0.128897,0.000000
3.350000,-0.556989,-0.194849,-1.074600,1.366759,-0.008834,-0.125965,1.514775,0.574731,-2.327832,-1.826025,2.574527,2.902998,-4.320527,-11.999739,44.109688,0.046951,-0.124156,0.000000,0.221919,0.118613,-0.000000
3.400000,-0.486755,-0.194563,-1.083844,1.440261,0.023133,-0.238634,1.418811,0.687914,-2.126831,-2.108423,1.954962,4.963091,-7.843217,-11.922603,37.282721,0.057164,-0.118305,0.000000,0.186666,0.125235,-0.000000
3.450000,-0.412962,-0.192536,-1.098464,1.508640,0.059957,-0.338648,1.303933,0.770227,-1.831523,-2.610346,1.382267,6.631270,-12.433744,-10.205831,28.697095,0.065656,-0.111542,0.000000,0.155944,0.158096,-0.000000
3.500000,-0.335891,-0.188567,-1.117708,1.570654,0.100156,-0.421787,1.157776,0.826141,-1.463704,-3.351798,0.934378,7.832801,-16.740654,-7.131683,18.898551,0.072768,-0.102338,0.000000,0.134057,0.223009,0.000000
3.550000,-0.255897,-0.182521,-1.140642,1.624418,0.142571,-0.485018,0.968753,0.863665,-1.048243,-4.284412,0.669099,8.521125,-19.508925,-3.208284,8.492861,0.079060,-0.088983,0.000000,0.125042,0.320993,0.000000
3.600000,-0.173449,-0.174310,-1.166210,1.667530,0.186522,-0.526611,0.729335,0.893051,-0.611591,-5.302690,0.613550,8.682087,-19.811339,0.883168,-1.829163,0.085276,-0.069869,0.000000,0.131664,0.446691,-0.000000
3.650000,-0.089144,-0.163868,-1.193304,1.697351,0.231876,-0.546177,0.438484,0.925020,-0.180034,-6.265546,0.757416,8.338209,-17.210267,4.386129,-11.318600,0.092243,-0.043864,0.000000,0.154029,0.586904,0.000000
3.700000,-0.003714,-0.151122,-1.220828,1.711378,0.279024,-0.544614,0.102780,0.968793,0.222230,-7.023717,1.052163,7.550227,-11.810789,6.593942,-19.244242,0.100697,-0.010720,0.000000,0.188164,0.720378,-0.000000
3.750000,0.081994,-0.135966,-1.247765,1.707629,0.328756,-0.523954,-0.263888,1.030236,0.574989,-7.446625,1.416810,6.413785,-4.207416,7.023116,-25.001744,0.111053,0.028567,0.000000,0.225368,0.820433,-0.000000
3.800000,0.167049,-0.118247,-1.273223,1.684989,0.382048,-0.487116,-0.641882,1.110473,0.863608,-7.444459,1.754474,5.050052,4.636112,5.591498,-28.228581,0.123180,0.071625,0.000000,0.253890,0.861572,0.000000
3.850000,0.250493,-0.097761,-1.296477,1.643441,0.439803,-0.437593,-1.008334,1.205684,1.079994,-6.983013,1.975960,3.590927,13.561272,2.619267,-28.882672,0.136345,0.114993,0.000000,0.263076,0.828479,-0.000000
3.900000,0.331393,-0.074266,-1.316983,1.584156,0.502616,-0.379116,-1.340183,1.308069,1.222701,-6.088331,2.016401,2.161785,21.419568,-1.329665,-27.257953,0.149383,0.154817,0.000000,0.247136,0.722353,-0.000000
3.950000,0.408908,-0.047499,-1.334388,1.509423,0.570610,-0.315323,-1.617167,1.407324,1.296172,-4.841056,1.842993,0.865131,27.263831,-5.592601,-23.931918,0.160990,0.187710,0.000000,0.206228,0.560102,0.000000
4.000000,0.482336,-0.017205,-1.348515,1.422439,0.643349,-0.249499,-1.824289,1.492369,1.309214,-3.361948,1.457141,-0.231407,30.502413,-9.534873,-19.645742,0.169992,0.211396,0.000000,0.144933,0.367121,0.000000
4.050000,0.551152,0.016835,-1.359338,1.326994,0.719847,-0.184402,-1.953362,1.553038,1.273032,-1.790815,0.889506,-1.099443,30.976187,-12.668824,-15.140608,0.175511,0.224940,0.000000,0.069591,0.168702,0.000000
4.100000,0.615035,0.054779,-1.366955,1.227103,0.798652,-0.122196,-2.003371,1.581319,1.199270,-0.264329,0.190259,-1.745468,28.925237,-14.709458,-11.002898,0.176996,0.228593,0.000000,-0.013651,-0.015375,-0.000000
4.150000,0.673862,0.096701,-1.371558,1.126657,0.877979,-0.064475,-1.979795,1.572064,1.098485,1.101709,-0.581440,-2.199733,24.874391,-15.568997,-7.570949,0.174188,0.223466,0.000000,-0.099448,-0.172177,-0.000000
4.200000,0.727701,0.142577,-1.373403,1.029123,0.955859,-0.012347,-1.893200,1.523175,0.979297,2.223110,-1.366641,-2.502562,19.494479,-15.318182,-4.927014,0.167082,0.211191,0.000000,-0.183106,-0.294611,0.000000
4.250000,0.776775,0.192287,-1.372792,0.937337,1.030296,0.033455,-1.757484,1.435400,0.848229,3.051157,-2.113258,-2.692434,13.480066,-14.133355,-2.959599,0.155900,0.193651,0.000000,-0.260336,-0.379927,0.000000
4.300000,0.821434,0.245607,-1.370057,0.853375,1.099399,0.072476,-1.588084,1.311849,0.710053,3.571116,-2.779977,-2.798522,7.460373,-12.245153,-1.458952,0.141070,0.172776,0.000000,-0.327289,-0.428616,-0.000000
4.350000,0.862112,0.302226,-1.365545,0.778528,1.161481,0.104460,-1.400372,1.157402,0.568376,3.797194,-3.337774,-2.838329,1.943765,-9.896852,-0.208752,0.123197,0.150385,0.000000,-0.380891,-0.443762,0.000000
4.400000,0.899287,0.361755,-1.359611,0.713338,1.215139,0.129313,-1.208365,0.978072,0.426220,3.765493,-3.769662,-2.819398,-2.709406,-7.314869,0.950208,0.103011,0.128067,0.000000,-0.419249,-0.430496,0.000000
4.450000,0.933446,0.423740,-1.352613,0.657692,1.259289,0.147082,-1.023823,0.780436,0.286437,3.526253,-4.069261,-2.743308,-6.291548,-4.690879,2.093047,0.081299,0.107093,0.000000,-0.441898,-0.395339,0.000000
4.500000,0.965056,0.487684,-1.344903,0.610956,1.293183,0.157957,-0.855739,0.571146,0.151889,3.136338,-4.238750,-2.610093,-8.735887,-2.173667,3.216330,0.058838,0.088372,0.000000,-0.449720,-0.345366,-0.000000
4.550000,0.994542,0.553059,-1.336818,0.572118,1.316403,0.162271,-0.710189,0.356561,0.025427,2.652664,-4.286627,-2.421675,-10.092602,0.131717,4.264390,0.036330,0.072455,0.000000,-0.444601,-0.287366,-0.000000
4.600000,1.022268,0.619324,-1.328676,0.539937,1.328839,0.160500,-0.590473,0.142483,-0.090278,2.127078,-4.225578,-2.183654,-10.497417,2.159928,5.162729,0.014365,0.059571,0.000000,-0.428942,-0.227174,-0.000000
4.650000,1.048535,0.685942,-1.320768,0.513071,1.330651,0.153243,-0.497481,-0.065997,-0.192938,1.602923,-4.070635,-1.905402,-10.137465,3.878398,5.847244,-0.006590,0.049693,0.000000,-0.405224,-0.169296,-0.000000
4.700000,1.073575,0.752389,-1.313351,0.490189,1.322239,0.141206,-0.430181,-0.264580,-0.280818,1.113331,-3.837738,-1.598929,-9.219213,5.279274,6.282577,-0.026190,0.042605,0.000000,-0.375697,-0.116834,-0.000000
4.750000,1.097554,0.818166,-1.306647,0.470053,1.304193,0.125162,-0.386148,-0.449771,-0.352831,0.681001,-3.542707,-1.277145,-7.942251,6.371627,6.467814,-0.044196,0.037978,0.000000,-0.342237,-0.071610,0.000000
4.800000,1.120580,0.882809,-1.300835,0.451574,1.277262,0.105923,-0.362081,-0.618851,-0.408533,0.319106,-3.200575,-0.952148,-6.481015,7.174966,6.431522,-0.060450,0.035419,0.000000,-0.306329,-0.034424,-0.000000
4.850000,1.142712,0.945893,-1.296055,0.433845,1.242308,0.084308,-0.354238,-0.769828,-0.448046,0.032900,-2.825211,-0.633992,-4.974823,7.714547,6.220204,-0.074861,0.034519,0.000000,-0.269115,-0.005320,0.000000
4.900000,1.163965,1.007040,-1.292404,0.416150,1.200279,0.061118,-0.358791,-0.901372,-0.471932,-0.178376,-2.429121,-0.330128,-3.525231,8.018528,5.884680,-0.087389,0.034881,0.000000,-0.231468,0.016147,-0.000000
4.950000,1.184327,1.065920,-1.289943,0.397965,1.152171,0.037115,-0.372075,-1.012740,-0.481059,-0.319623,-2.023358,-0.045524,-2.198694,8.116699,5.468222,-0.098030,0.036139,0.000000,-0.194063,0.030710,0.000000
5.000000,1.203761,1.122257,-1.288693,0.378943,1.099005,0.013012,-0.390753,-1.103708,-0.476484,-0.398246,-1.617451,0.216694,-1.032215,8.040342,4.998902,-0.106811,0.037969,0.000000,-0.157415,0.039234,-0.000000
5.050000,1.222221,1.175821,-1.288642,0.358890,1.041800,-0.010533,-0.411900,-1.174485,-0.459389,-0.422845,-1.219323,0.454366,-0.040247,7.822623,4.487174,-0.113782,0.040088,0.000000,-0.121906,0.042604,0.000000
5.100000,1.239650,1.226437,-1.289746,0.337753,0.981556,-0.032927,-0.433037,-1.225640,-0.431048,-0.402270,-0.835188,0.665412,0.778376,7.498900,3.928379,-0.119007,0.042259,0.000000,-0.087782,0.041656,0.000000
5.150000,1.255996,1.273977,-1.291935,0.315586,0.919236,-0.053638,-0.452127,-1.258004,-0.392848,-0.345007,-0.469433,0.847204,1.434256,7.106358,3.308992,-0.122561,0.044285,0.000000,-0.055152,0.037140,-0.000000
5.200000,1.271209,1.318360,-1.295110,0.292540,0.855756,-0.072211,-0.467538,-1.272583,-0.346327,-0.258845,-0.124553,0.996311,1.942329,6.682463,2.614830,-0.124519,0.046002,0.000000,-0.023981,0.029707,-0.000000
5.250000,1.285250,1.359552,-1.299156,0.268833,0.791978,-0.088271,-0.478011,-1.270460,-0.293217,-0.150774,0.198813,1.108687,2.317911,6.261965,1.839301,-0.124953,0.047278,0.000000,0.005899,0.019914,-0.000000
5.300000,1.298092,1.397558,-1.303937,0.244739,0.728710,-0.101533,-0.482616,-1.252702,-0.235459,-0.027054,0.501644,1.180241,2.573860,5.872456,0.989877,-0.123921,0.048006,0.000000,0.034756,0.008255,-0.000000
5.350000,1.309724,1.432423,-1.309309,0.220571,0.666708,-0.111817,-0.480717,-1.220295,-0.175193,0.106612,0.786058,1.207674,2.718766,5.528878,0.091460,-0.121468,0.048106,0.000000,0.062902,-0.004807,-0.000000
5.400000,1.320149,1.464229,-1.315119,0.196667,0.606681,-0.119052,-0.471954,-1.174096,-0.114691,0.244823,1.054532,1.189387,2.756083,5.227796,-0.814077,-0.117622,0.047518,0.000000,0.090601,-0.018796,0.000000
5.450000,1.329391,1.493091,-1.321214,0.173376,0.549298,-0.123286,-0.456234,-1.114842,-0.056254,0.382220,1.308838,1.126267,2.684111,4.942502,-1.672079,-0.112399,0.046209,0.000000,0.117954,-0.033179,-0.000000
5.500000,1.337487,1.519159,-1.327447,0.151044,0.495196,-0.124678,-0.433732,-1.043212,-0.002065,0.513234,1.548782,1.022179,2.496673,4.620150,-2.422204,-0.105819,0.044175,0.000000,0.144769,-0.047342,0.000000
5.550000,1.344495,1.542611,-1.333682,0.130002,0.444977,-0.123492,-0.404911,-0.959964,0.045964,0.631887,1.770853,0.884046,2.184262,4.181823,-3.006956,-0.097918,0.041446,0.000000,0.170423,-0.060565,0.000000
5.600000,1.350487,1.563656,-1.339797,0.110553,0.399200,-0.120081,-0.370544,-0.866127,0.086340,0.731660,1.966964,0.721484,1.735393,3.525867,-3.379915,-0.088776,0.038089,0.000000,0.193755,-0.072028,-0.000000
5.650000,1.355550,1.582531,-1.345690,0.092948,0.358364,-0.114858,-0.331745,-0.763267,0.118112,0.805427,2.123440,0.546055,1.138121,2.534242,-3.512020,-0.078545,0.034216,0.000000,0.212994,-0.080830,-0.000000
5.700000,1.359782,1.599493,-1.351283,0.077378,0.322873,-0.108270,-0.290001,-0.653783,0.140945,0.845472,2.220388,0.370282,0.383550,1.081940,-3.394720,-0.067483,0.029984,0.000000,0.225741,-0.086019,-0.000000
5.750000,1.363288,1.614818,-1.356517,0.063948,0.292986,-0.100764,-0.247198,-0.541229,0.155140,0.843782,2.231634,0.206583,-0.517701,-0.944300,-3.039609,-0.055981,0.025598,0.000000,0.229022,-0.086654,-0.000000
5.800000,1.366177,1.628791,-1.361359,0.052658,0.268750,-0.092756,-0.205623,-0.430620,0.161604,0.793702,2.125958,0.066321,-1.453787,-3.576102,-2.474913,-0.044592,0.021308,0.000000,0.219471,-0.081997,-0.000000
5.850000,1.368554,1.641693,-1.365793,0.043386,0.249924,-0.084603,-0.167827,-0.328633,0.161773,0.698403,1.874024,-0.040908,0.063637,-3.041682,-5.339396,-0.034043,0.017393,0.000000,0.194082,-0.072397,-0.000000
5.900000,1.370515,1.653784,-1.369819,0.035876,0.235887,-0.076579,-0.135782,-0.243217,0.157513,0.800066,1.821790,-0.467619,1.166378,-3.139302,-7.793321,-0.025190,0.014066,0.000000,0.189790,-0.083525,0.000000
5.950000,1.372142,1.665282,-1.373451,0.029807,0.225602,-0.068852,-0.087821,-0.146454,0.115011,0.815041,1.560093,-0.820241,-1.292185,-6.368800,-3.228176,-0.015104,0.009058,0.000000,0.162140,-0.084818,-0.000000
6.000000,1.373496,1.676344,-1.376705,0.027094,0.221242,-0.065078,-0.054278,-0.087208,0.075489,0.670848,1.184910,-0.790436,-2.883863,-7.503663,0.596082,-0.008958,0.005576,0.000000,0.122435,-0.069362,0.000000
