time,x,y,z,vx,vy,vz,ax,ay,az,jx,jy,jz,sx,sy,sz,roll,pitch,yaw,p,q,r
0.000000,-2.056827,-1.334158,-1.409904,0.017727,0.009286,-0.007834,-0.838542,-0.082235,0.066742,18.360373,-1.167040,-0.411372,-294.178326,171.704723,39.205780,-0.008409,0.085852,0.000000,-0.120331,-1.874104,-0.000000
0.010000,-2.056689,-1.334070,-1.409979,0.010212,0.008433,-0.007181,-0.668982,-0.085711,0.064512,15.616706,0.433392,-0.042251,-255.181965,148.715277,34.668115,-0.008774,0.068538,0.000000,0.043440,-1.595174,-0.000000
0.020000,-2.056618,-1.333989,-1.410047,0.004262,0.007621,-0.006533,-0.524970,-0.074300,0.065751,13.244495,1.813787,0.282971,-219.857309,127.682212,30.424486,-0.007614,0.053823,0.000000,0.185083,-1.353679,0.000000
0.030000,-2.056599,-1.333917,-1.410109,-0.000361,0.006989,-0.005856,-0.402974,-0.050105,0.070035,11.207913,2.993252,0.567183,-188.026480,108.513761,26.464357,-0.005140,0.041350,0.000000,0.306503,-1.146327,0.000000
0.040000,-2.056621,-1.333849,-1.410164,-0.003860,0.006655,-0.005123,-0.299807,-0.015044,0.076967,9.472912,3.989972,0.813168,-159.511602,91.118158,22.777197,-0.001545,0.030793,0.000000,0.409571,-0.969780,0.000000
0.050000,-2.056673,-1.333782,-1.410211,-0.006410,0.006719,-0.004309,-0.212618,0.029143,0.086180,8.007221,4.821218,1.023602,-134.134799,75.403637,19.352471,0.002996,0.021862,0.000000,0.496061,-0.820767,0.000000
0.060000,-2.056747,-1.333713,-1.410250,-0.008157,0.007263,-0.003393,-0.138867,0.080883,0.097329,6.780349,5.503342,1.201057,-111.718192,61.278433,16.179648,0.008327,0.014297,0.000000,0.567630,-0.696159,0.000000
0.070000,-2.056834,-1.333635,-1.410279,-0.009225,0.008357,-0.002357,-0.076311,0.138764,0.110099,5.763583,6.051779,1.347999,-92.083906,48.650780,13.248192,0.014304,0.007867,0.000000,0.625808,-0.592999,-0.000000
0.080000,-2.056929,-1.333543,-1.410297,-0.009714,0.010055,-0.001187,-0.022985,0.201522,0.124196,4.929989,6.481044,1.466790,-75.054063,37.428911,10.547572,0.020803,0.002373,0.000000,0.672011,-0.508519,0.000000
0.090000,-2.057027,-1.333432,-1.410302,-0.009709,0.012400,0.000130,0.022816,0.268033,0.139349,4.254413,6.804737,1.559685,-60.450786,27.521060,8.067254,0.027709,-0.002359,0.000000,0.707544,-0.440139,0.000000
0.100000,-2.057122,-1.333293,-1.410294,-0.009278,0.015425,0.001603,0.062552,0.337307,0.155310,3.713478,7.035539,1.628835,-48.096199,18.835462,5.796704,0.034922,-0.006479,0.000000,0.733613,-0.385471,0.000000
0.110000,-2.057211,-1.333121,-1.410269,-0.008474,0.019152,0.003238,0.097462,0.408474,0.171853,3.285586,7.185215,1.676283,-37.812425,11.280351,3.725390,0.042353,-0.010112,0.000000,0.751334,-0.342310,-0.000000
0.120000,-2.057290,-1.332908,-1.410228,-0.007341,0.023598,0.005041,0.128574,0.480777,0.188770,2.950920,7.264609,1.703971,-29.421586,4.763961,1.842778,0.049924,-0.013363,0.000000,0.761734,-0.308636,0.000000
0.130000,-2.057357,-1.332647,-1.410168,-0.005913,0.028770,0.007014,0.156731,0.553565,0.205873,2.691438,7.283650,1.713733,-22.745807,-0.805475,0.138335,0.057567,-0.016318,0.000000,0.765760,-0.282605,-0.000000
0.140000,-2.057408,-1.332330,-1.410087,-0.004214,0.034669,0.009159,0.182599,0.626279,0.222991,2.490880,7.251350,1.707297,-17.607210,-5.519721,-1.398473,0.065221,-0.019044,0.000000,0.764279,-0.262555,0.000000
0.150000,-2.057440,-1.331951,-1.409984,-0.002267,0.041293,0.011474,0.206696,0.698448,0.239970,2.334763,7.175801,1.686287,-13.827917,-9.470545,-2.778178,0.072837,-0.021595,0.000000,0.758076,-0.247000,-0.000000
0.160000,-2.057452,-1.331502,-1.409857,-0.000085,0.048635,0.013957,0.229400,0.769675,0.256673,2.210383,7.064178,1.652222,-11.230054,-12.749712,-4.011314,0.080369,-0.024008,0.000000,0.747857,-0.234631,-0.000000
0.170000,-2.057441,-1.330976,-1.409705,0.002318,0.056683,0.016606,0.250973,0.839632,0.272976,2.106816,6.922739,1.606514,-9.635741,-15.448987,-5.108414,0.087783,-0.026310,0.000000,0.734246,-0.224319,0.000000
0.180000,-2.057405,-1.330366,-1.409525,0.004931,0.065422,0.019415,0.271575,0.908048,0.288769,2.014916,6.756825,1.550472,-8.867103,-17.660138,-6.080012,0.095045,-0.028515,0.000000,0.717784,-0.215117,-0.000000
0.190000,-2.057342,-1.329665,-1.409316,0.007746,0.074838,0.022379,0.291285,0.974702,0.303955,1.927315,6.570858,1.485297,-8.746263,-19.474930,-6.936641,0.102130,-0.030633,0.000000,0.698926,-0.206259,-0.000000
0.200000,-2.057250,-1.328867,-1.409077,0.010754,0.084910,0.025492,0.310117,1.039410,0.318448,1.838424,6.368342,1.412087,-9.095344,-20.985128,-7.688833,0.109017,-0.032661,0.000000,0.678042,-0.197162,-0.000000
0.210000,-2.057126,-1.327965,-1.408806,0.013957,0.095611,0.028745,0.327594,1.102322,0.332179,1.703663,6.179533,1.332410,-8.706668,-22.981339,-8.361669,0.115717,-0.034551,0.000000,0.658316,-0.183158,0.000000
0.220000,-2.056970,-1.326953,-1.408501,0.017317,0.106939,0.032132,0.344199,1.162938,0.345075,1.617517,5.940602,1.245787,-8.558256,-24.770917,-8.949354,0.122175,-0.036350,0.000000,0.633063,-0.174143,0.000000
0.230000,-2.056779,-1.325824,-1.408162,0.020838,0.118861,0.035644,0.359946,1.221078,0.357077,1.531870,5.684783,1.153677,-8.598332,-26.360055,-9.460641,0.128371,-0.038059,0.000000,0.605785,-0.165089,-0.000000
0.240000,-2.056553,-1.324573,-1.407788,0.024513,0.131352,0.039271,0.374833,1.276584,0.368133,1.445095,5.414049,1.056800,-8.775114,-27.754947,-9.904281,0.134285,-0.039678,0.000000,0.576709,-0.155832,0.000000
0.250000,-2.056289,-1.323195,-1.407377,0.028332,0.144384,0.043003,0.388841,1.329316,0.378199,1.356084,5.130311,0.955788,-9.036825,-28.961786,-10.289026,0.139900,-0.041203,0.000000,0.546060,-0.146261,-0.000000
0.260000,-2.055986,-1.321684,-1.406928,0.032291,0.157928,0.046831,0.401807,1.379164,0.387250,1.251581,4.836436,0.852454,-9.011759,-30.012448,-10.655640,0.145203,-0.042616,0.000000,0.514189,-0.134999,0.000000
0.270000,-2.055642,-1.320035,-1.406440,0.036370,0.171957,0.050744,0.413873,1.426012,0.395236,1.161498,4.531804,0.744255,-9.007238,-30.884301,-10.976945,0.150180,-0.043932,0.000000,0.480993,-0.125175,0.000000
0.280000,-2.055258,-1.318243,-1.405912,0.040565,0.186438,0.054732,0.425037,1.469774,0.402125,1.071410,4.219336,0.633050,-9.010659,-31.580391,-11.257771,0.154820,-0.045148,0.000000,0.446828,-0.115291,0.000000
0.290000,-2.054831,-1.316305,-1.405345,0.044867,0.201342,0.058783,0.435301,1.510379,0.407889,0.981300,3.900772,0.519219,-9.009418,-32.103769,-11.502952,0.159114,-0.046265,0.000000,0.411901,-0.105350,0.000000
0.300000,-2.054360,-1.314215,-1.404737,0.049268,0.216635,0.062886,0.444664,1.547775,0.412502,0.891279,3.577826,0.403094,-8.990910,-32.457483,-11.717320,0.163056,-0.047282,0.000000,0.376412,-0.095373,0.000000
0.310000,-2.053845,-1.311971,-1.404087,0.053759,0.232287,0.067029,0.453086,1.581911,0.415958,0.797761,3.250798,0.286268,-8.846032,-32.609738,-11.938764,0.166640,-0.048194,0.000000,0.340442,-0.084997,0.000000
0.320000,-2.053285,-1.309568,-1.403396,0.058328,0.248263,0.071201,0.460624,1.612788,0.418220,0.710153,2.924607,0.165878,-8.670496,-32.602692,-12.135011,0.169864,-0.049006,0.000000,0.304458,-0.075199,-0.000000
0.330000,-2.052678,-1.307005,-1.402663,0.062968,0.264532,0.075389,0.467296,1.640406,0.419270,0.624456,2.599251,0.043649,-8.463514,-32.443663,-12.306847,0.172729,-0.049720,0.000000,0.268507,-0.065573,0.000000
0.340000,-2.052025,-1.304277,-1.401888,0.067671,0.281060,0.079582,0.473121,1.664781,0.419088,0.540990,2.276216,-0.080180,-8.224299,-32.139965,-12.455055,0.175235,-0.050338,0.000000,0.232761,-0.056159,0.000000
0.350000,-2.051325,-1.301383,-1.401071,0.072428,0.297817,0.083767,0.478124,1.685943,0.417661,0.460080,1.956910,-0.205376,-7.952062,-31.698915,-12.580421,0.177386,-0.050862,0.000000,0.197383,-0.046999,0.000000
0.360000,-2.050576,-1.298320,-1.400213,0.077231,0.314769,0.087931,0.482321,1.703929,0.414986,0.381001,1.642003,-0.330864,-7.619234,-31.110950,-12.705220,0.179184,-0.051293,0.000000,0.162476,-0.038025,-0.000000
0.370000,-2.049780,-1.295087,-1.399313,0.082072,0.331885,0.092062,0.485756,1.718805,0.411040,0.306604,1.334339,-0.458442,-7.255090,-30.402330,-12.806115,0.180637,-0.051636,0.000000,0.128307,-0.029532,0.000000
0.380000,-2.048935,-1.291682,-1.398372,0.086944,0.349135,0.096147,0.488465,1.730641,0.405814,0.235995,1.034327,-0.586901,-6.862119,-29.582437,-12.881257,0.181753,-0.051895,0.000000,0.094953,-0.021435,-0.000000
0.390000,-2.048041,-1.288104,-1.397390,0.091839,0.366488,0.100174,0.490489,1.739520,0.399300,0.169450,0.743030,-0.715975,-6.442813,-28.660653,-12.928799,0.182540,-0.052073,0.000000,0.062539,-0.013770,-0.000000
0.400000,-2.047098,-1.284352,-1.396369,0.096752,0.383916,0.104129,0.491869,1.745534,0.391494,0.107218,0.461422,-0.845378,-5.999665,-27.646360,-12.946894,0.183007,-0.052176,0.000000,0.031180,-0.006567,0.000000
0.410000,-2.046106,-1.280425,-1.395308,0.101675,0.401389,0.107999,0.492646,1.748784,0.382395,0.049338,0.190358,-0.974617,-5.530378,-26.548388,-12.938533,0.183167,-0.052208,0.000000,0.000982,0.000166,-0.000000
0.420000,-2.045065,-1.276324,-1.394209,0.106603,0.418882,0.111773,0.492871,1.749379,0.372002,-0.003542,-0.069325,-1.103821,-5.042818,-25.376740,-12.896439,0.183031,-0.052175,0.000000,-0.027963,0.006357,-0.000000
0.430000,-2.043974,-1.272048,-1.393073,0.111531,0.436369,0.115435,0.492592,1.747437,0.360320,-0.051468,-0.316962,-1.232425,-4.540062,-24.140863,-12.818171,0.182612,-0.052081,0.000000,-0.055569,0.012009,0.000000
0.440000,-2.042834,-1.267597,-1.391901,0.116453,0.453823,0.118975,0.491859,1.743082,0.347357,-0.094303,-0.551959,-1.360055,-4.025188,-22.850208,-12.701291,0.181924,-0.051932,0.000000,-0.081759,0.017103,-0.000000
0.450000,-2.041645,-1.262971,-1.390694,0.121366,0.471223,0.122378,0.490723,1.736442,0.333124,-0.131941,-0.773815,-1.486314,-3.501274,-21.514225,-12.543357,0.180982,-0.051735,0.000000,-0.106469,0.021626,0.000000
0.460000,-2.040407,-1.258172,-1.389454,0.126266,0.488545,0.125633,0.489239,1.727655,0.317632,-0.164201,-0.981743,-1.611164,-2.974103,-20.151983,-12.332176,0.179800,-0.051495,0.000000,-0.129613,0.025559,0.000000
0.470000,-2.039120,-1.253201,-1.388182,0.131150,0.505769,0.128727,0.487457,1.716853,0.300908,-0.191292,-1.176333,-1.733244,-2.443717,-18.762134,-12.076257,0.178395,-0.051217,0.000000,-0.151222,0.028917,-0.000000
0.480000,-2.037784,-1.248057,-1.386880,0.136015,0.522876,0.131647,0.485431,1.704175,0.282977,-0.213074,-1.356922,-1.852536,-1.912861,-17.352949,-11.774355,0.176781,-0.050909,0.000000,-0.171225,0.031688,-0.000000
0.490000,-2.036399,-1.242744,-1.385549,0.140858,0.539847,0.134382,0.483213,1.689762,0.263868,-0.229557,-1.523356,-1.968573,-1.384283,-15.932700,-11.425225,0.174976,-0.050576,0.000000,-0.189597,0.033872,0.000000
0.500000,-2.034967,-1.237261,-1.384193,0.145679,0.556665,0.136921,0.480857,1.673755,0.243618,-0.240776,-1.675566,-2.080878,-0.860729,-14.509658,-11.027621,0.172995,-0.050223,0.000000,-0.206324,0.035474,0.000000
0.510000,-2.033486,-1.231611,-1.382812,0.150475,0.573317,0.139251,0.478417,1.656305,0.222257,-0.246573,-1.812924,-2.189664,-0.350620,-13.108330,-10.562519,0.170856,-0.049858,0.000000,-0.221349,0.036482,0.000000
0.520000,-2.031957,-1.225795,-1.381408,0.155247,0.589787,0.141363,0.475943,1.637543,0.199841,-0.247568,-1.937047,-2.292760,0.149667,-11.718765,-10.048631,0.168573,-0.049485,0.000000,-0.234802,0.036953,-0.000000
0.530000,-2.030381,-1.219816,-1.379985,0.159994,0.606064,0.143245,0.473483,1.617610,0.176420,-0.243619,-2.047360,-2.390477,0.638081,-10.347246,-9.486886,0.166165,-0.049110,0.000000,-0.246637,0.036879,-0.000000
0.540000,-2.028757,-1.213675,-1.378544,0.164717,0.622136,0.144888,0.471086,1.596642,0.152051,-0.234853,-2.144073,-2.482341,1.112569,-9.000057,-8.878218,0.163646,-0.048738,0.000000,-0.256878,0.036275,-0.000000
0.550000,-2.027087,-1.207374,-1.377088,0.169416,0.637993,0.146283,0.468801,1.574773,0.126794,-0.221421,-2.227463,-2.567888,1.571079,-7.683481,-8.223558,0.161033,-0.048376,0.000000,-0.265555,0.035161,0.000000
0.560000,-2.025369,-1.200916,-1.375619,0.174093,0.653628,0.147421,0.466676,1.552144,0.100708,-0.203224,-2.297075,-2.647377,2.004799,-6.423792,-7.505789,0.158341,-0.048028,0.000000,-0.272639,0.033533,0.000000
0.570000,-2.023605,-1.194302,-1.374141,0.178750,0.669034,0.148295,0.464751,1.528873,0.073871,-0.181087,-2.355182,-2.718670,2.419266,-5.204836,-6.746102,0.155585,-0.047698,0.000000,-0.278338,0.031471,-0.000000
0.580000,-2.021794,-1.187536,-1.372654,0.183389,0.684204,0.148896,0.463067,1.505080,0.046360,-0.154907,-2.401320,-2.782170,2.813257,-4.030448,-5.947638,0.152779,-0.047392,0.000000,-0.282630,0.028973,0.000000
0.590000,-2.019937,-1.180619,-1.371164,0.188012,0.699134,0.149220,0.461665,1.480885,0.018255,-0.124894,-2.435952,-2.837504,3.185549,-2.904466,-5.113540,0.149936,-0.047114,0.000000,-0.285573,0.026064,-0.000000
0.600000,-2.018034,-1.173554,-1.369671,0.192623,0.713821,0.149260,0.460582,1.456398,-0.010361,-0.091272,-2.459583,-2.884332,3.534917,-1.830725,-4.246949,0.147071,-0.046866,0.000000,-0.287230,0.022770,0.000000
0.610000,-2.016085,-1.166343,-1.368179,0.197225,0.728261,0.149011,0.459854,1.431737,-0.039407,-0.054019,-2.471946,-2.922826,3.853628,-0.833475,-3.338847,0.144197,-0.046655,0.000000,-0.287596,0.019097,0.000000
0.620000,-2.014090,-1.158989,-1.366692,0.201821,0.742455,0.148471,0.459511,1.406991,-0.068787,-0.013991,-2.475533,-2.951570,4.147766,0.106363,-2.406024,0.141323,-0.046481,0.000000,-0.286919,0.015129,0.000000
0.630000,-2.012048,-1.151495,-1.365211,0.206417,0.756401,0.147635,0.459584,1.382256,-0.098407,0.028853,-2.470014,-2.970880,4.416904,0.987450,-1.453113,0.138462,-0.046350,0.000000,-0.285191,0.010867,-0.000000
0.640000,-2.009961,-1.143862,-1.363740,0.211015,0.770100,0.146502,0.460097,1.357620,-0.128173,0.074262,-2.455984,-2.980580,4.660615,1.808452,-0.484743,0.135623,-0.046263,0.000000,-0.282487,0.006340,-0.000000
0.650000,-2.007828,-1.136094,-1.362282,0.215620,0.783554,0.145071,0.461076,1.333163,-0.157986,0.121980,-2.434050,-2.980539,4.878473,2.568032,0.494454,0.132815,-0.046223,0.000000,-0.278886,0.001576,-0.000000
0.660000,-2.005649,-1.128192,-1.360840,0.220238,0.796764,0.143343,0.462546,1.308970,-0.187752,0.171948,-2.404147,-2.970798,5.064915,3.247537,1.483074,0.130048,-0.046232,0.000000,-0.274402,-0.003415,0.000000
0.670000,-2.003423,-1.120159,-1.359416,0.224873,0.809734,0.141317,0.464521,1.285102,-0.217369,0.223420,-2.368533,-2.951017,5.225280,3.865068,2.472864,0.127329,-0.046292,0.000000,-0.269268,-0.008559,0.000000
0.680000,-2.001151,-1.111998,-1.358014,0.229530,0.822468,0.138996,0.467019,1.261619,-0.246739,0.276367,-2.327050,-2.921354,5.359769,4.421409,3.458800,0.124665,-0.046405,0.000000,-0.263489,-0.013853,-0.000000
0.690000,-1.998833,-1.103711,-1.356637,0.234215,0.834968,0.136383,0.470053,1.238578,-0.275764,0.330530,-2.280306,-2.881871,5.468585,4.917344,4.435855,0.122062,-0.046572,0.000000,-0.257140,-0.019268,-0.000000
0.700000,-1.996467,-1.095299,-1.355287,0.238933,0.847241,0.133482,0.473633,1.216029,-0.304345,0.385654,-2.228901,-2.832683,5.551930,5.353658,5.399002,0.119524,-0.046794,0.000000,-0.250294,-0.024782,-0.000000
0.710000,-1.994054,-1.086767,-1.353968,0.243689,0.859291,0.130298,0.477769,1.194019,-0.332383,0.441606,-2.172975,-2.773735,5.606945,5.719675,6.337694,0.117058,-0.047071,0.000000,-0.242979,-0.030381,-0.000000
0.720000,-1.991593,-1.078114,-1.352682,0.248490,0.871123,0.126837,0.482466,1.172580,-0.359788,0.497847,-2.114185,-2.705760,5.637268,6.029043,7.253103,0.114666,-0.047406,0.000000,-0.235373,-0.036012,-0.000000
0.730000,-1.989084,-1.069345,-1.351433,0.253340,0.882744,0.123105,0.487727,1.151744,-0.386468,0.554271,-2.052576,-2.628765,5.643477,6.283948,8.140881,0.112351,-0.047796,0.000000,-0.227491,-0.041667,-0.000000
0.740000,-1.986526,-1.060460,-1.350221,0.258246,0.894160,0.119110,0.493552,1.131536,-0.412335,0.610638,-1.988680,-2.543049,5.626148,6.486579,8.996677,0.110117,-0.048244,0.000000,-0.219394,-0.047325,0.000000
0.750000,-1.983919,-1.051462,-1.349051,0.263213,0.905377,0.114861,0.499939,1.111977,-0.437301,0.666717,-1.923011,-2.448953,5.585859,6.639122,9.816143,0.107964,-0.048749,0.000000,-0.211141,-0.052966,-0.000000
0.760000,-1.981261,-1.042353,-1.347925,0.268247,0.916402,0.110367,0.506885,1.093082,-0.461282,0.722319,-1.855878,-2.346395,5.522209,6.739215,10.583142,0.105894,-0.049310,0.000000,-0.202766,-0.058577,0.000000
0.770000,-1.978553,-1.033135,-1.346845,0.273353,0.927241,0.105639,0.514383,1.074862,-0.484204,0.777132,-1.788174,-2.236909,5.436872,6.794153,11.306554,0.103909,-0.049927,0.000000,-0.194373,-0.064126,-0.000000
0.780000,-1.975794,-1.023809,-1.345813,0.278536,0.937901,0.100687,0.522424,1.057320,-0.505997,0.830987,-1.720136,-2.120419,5.330546,6.806681,11.983475,0.102007,-0.050599,0.000000,-0.185985,-0.069601,0.000000
0.790000,-1.972982,-1.014377,-1.344832,0.283803,0.948390,0.095523,0.530998,1.040459,-0.526591,0.883676,-1.652173,-1.997404,5.203926,6.779543,12.610997,0.100189,-0.051326,0.000000,-0.177646,-0.074987,0.000000
0.800000,-1.970118,-1.004842,-1.343903,0.289158,0.958713,0.090159,0.540093,1.024275,-0.545925,0.935000,-1.584668,-1.868374,5.057710,6.715484,13.186215,0.098454,-0.052106,0.000000,-0.169396,-0.080267,-0.000000
0.810000,-1.967199,-0.995204,-1.343029,0.294607,0.968877,0.084608,0.549693,1.008762,-0.563934,0.984747,-1.518038,-1.733287,4.893101,6.618800,13.691635,0.096800,-0.052938,0.000000,-0.161272,-0.085429,0.000000
0.820000,-1.964225,-0.985465,-1.342211,0.300154,0.978890,0.078885,0.559782,0.993911,-0.580575,1.032779,-1.452467,-1.594077,4.710226,6.490493,14.140726,0.095228,-0.053822,0.000000,-0.153307,-0.090455,-0.000000
0.830000,-1.961196,-0.975626,-1.341452,0.305804,0.988758,0.073002,0.570342,0.979708,-0.595802,1.078893,-1.388326,-1.450664,4.509722,6.333120,14.532366,0.093734,-0.054755,0.000000,-0.145531,-0.095333,-0.000000
0.840000,-1.958109,-0.965690,-1.340752,0.311562,0.998486,0.066974,0.581353,0.966138,-0.609576,1.122916,-1.325893,-1.303625,4.292223,6.149234,14.865436,0.092316,-0.055737,0.000000,-0.137972,-0.100049,-0.000000
0.850000,-1.954964,-0.955657,-1.340113,0.317432,1.008082,0.060815,0.592793,0.953184,-0.621864,1.164683,-1.265421,-1.153554,4.058363,5.941391,15.138817,0.090973,-0.056764,0.000000,-0.130653,-0.104589,0.000000
0.860000,-1.951760,-0.945529,-1.339536,0.323419,1.017552,0.054541,0.604638,0.940820,-0.632633,1.203991,-1.207351,-1.000493,3.809803,5.717576,15.337272,0.089702,-0.057836,0.000000,-0.123611,-0.108942,0.000000
0.870000,-1.948495,-0.935306,-1.339022,0.329526,1.026901,0.048167,0.616864,0.929029,-0.641868,1.240782,-1.151377,-0.846379,3.546027,5.474248,15.475526,0.088500,-0.058951,0.000000,-0.116829,-0.113095,-0.000000
0.880000,-1.945169,-0.924991,-1.338573,0.335758,1.036134,0.041709,0.629445,0.917784,-0.649557,1.274862,-1.097925,-0.691181,3.267544,5.213296,15.554187,0.087365,-0.060106,0.000000,-0.110340,-0.117035,-0.000000
0.890000,-1.941780,-0.914584,-1.338188,0.342116,1.045258,0.035181,0.642352,0.907061,-0.655690,1.306086,-1.047163,-0.535492,2.974863,4.936609,15.573865,0.086292,-0.061300,0.000000,-0.104159,-0.120749,0.000000
0.900000,-1.938326,-0.904086,-1.337869,0.348606,1.054277,0.028600,0.655557,0.896832,-0.660267,1.334314,-0.999239,-0.379898,2.668495,4.646077,15.535167,0.085280,-0.062530,0.000000,-0.098300,-0.124225,0.000000
0.910000,-1.934807,-0.893499,-1.337617,0.355228,1.063197,0.021981,0.669028,0.887064,-0.663286,1.359391,-0.954538,-0.224535,2.349459,4.350063,15.427438,0.084325,-0.063793,0.000000,-0.092795,-0.127450,0.000000
0.920000,-1.931221,-0.882823,-1.337430,0.361987,1.072020,0.015340,0.682734,0.877731,-0.664762,1.381238,-0.912563,-0.071032,2.017691,4.043190,15.263930,0.083423,-0.065087,0.000000,-0.087603,-0.130410,-0.000000
0.930000,-1.927567,-0.872059,-1.337310,0.368884,1.080753,0.008691,0.696641,0.868802,-0.664713,1.399704,-0.873707,0.080564,1.673638,3.726555,15.046631,0.082572,-0.066409,0.000000,-0.082759,-0.133093,0.000000
0.940000,-1.923843,-0.861208,-1.337256,0.375920,1.089397,0.002050,0.710716,0.860246,-0.663159,1.414671,-0.838061,0.229728,1.317746,3.401255,14.777530,0.081767,-0.067757,0.000000,-0.078269,-0.135484,-0.000000
0.950000,-1.920048,-0.850271,-1.337269,0.383099,1.097959,-0.004567,0.724922,0.852030,-0.660128,1.426021,-0.805707,0.375949,0.950461,3.068386,14.458615,0.081005,-0.069127,0.000000,-0.074141,-0.137571,-0.000000
0.960000,-1.916180,-0.839249,-1.337347,0.390419,1.106439,-0.011147,0.739224,0.844118,-0.655648,1.433670,-0.776916,0.519023,0.571561,2.734124,14.084737,0.080283,-0.070516,0.000000,-0.070399,-0.139343,0.000000
0.970000,-1.912239,-0.828143,-1.337491,0.397883,1.114842,-0.017676,0.753583,0.836480,-0.649761,1.437448,-0.751271,0.657812,0.182243,2.393866,13.665895,0.079596,-0.071922,0.000000,-0.067008,-0.140777,0.000000
0.980000,-1.908222,-0.816953,-1.337701,0.405491,1.123170,-0.024138,0.767960,0.829082,-0.642507,1.437282,-0.729057,0.792200,-0.216962,2.048085,13.204950,0.078941,-0.073340,0.000000,-0.063993,-0.141863,-0.000000
0.990000,-1.904129,-0.805680,-1.337974,0.413242,1.131424,-0.030521,0.782315,0.821888,-0.633933,1.433077,-0.710326,0.921781,-0.625526,1.697257,12.704764,0.078315,-0.074767,0.000000,-0.061360,-0.142587,0.000000
1.000000,-1.899957,-0.794324,-1.338311,0.421137,1.139608,-0.036812,0.796608,0.814863,-0.624088,1.424742,-0.695127,1.046174,-1.042921,1.341857,12.168199,0.077713,-0.076199,0.000000,-0.059114,-0.142933,-0.000000
1.010000,-1.895706,-0.782888,-1.338710,0.429174,1.147722,-0.042999,0.810797,0.807972,-0.613026,1.412270,-0.683592,1.165142,-1.470607,0.984609,11.595370,0.077131,-0.077633,0.000000,-0.057268,-0.142897,0.000000
1.020000,-1.891373,-0.771370,-1.339170,0.437352,1.155768,-0.049069,0.824839,0.801180,-0.600805,1.395394,-0.675548,1.278103,-1.905823,0.623463,10.992221,0.076566,-0.079064,0.000000,-0.055808,-0.142445,-0.000000
1.030000,-1.886958,-0.759772,-1.339691,0.445670,1.163746,-0.055012,0.838690,0.794449,-0.587485,1.374131,-0.671135,1.384896,-2.347794,0.258618,10.361952,0.076014,-0.080489,0.000000,-0.054749,-0.141570,0.000000
1.040000,-1.882459,-0.748095,-1.340270,0.454126,1.171657,-0.060815,0.852307,0.787745,-0.573129,1.348418,-0.670387,1.485263,-2.795749,-0.109726,9.707760,0.075470,-0.081902,0.000000,-0.054096,-0.140260,-0.000000
1.050000,-1.877875,-0.736340,-1.340907,0.462716,1.179501,-0.066471,0.865643,0.781029,-0.557802,1.318199,-0.673340,1.578982,-3.248914,-0.481369,9.032844,0.074930,-0.083300,0.000000,-0.053854,-0.138501,-0.000000
1.060000,-1.873204,-0.724506,-1.341599,0.471437,1.187277,-0.071968,0.878657,0.774266,-0.541572,1.283540,-0.679994,1.665818,-3.709425,-0.856906,8.341498,0.074391,-0.084678,0.000000,-0.054026,-0.136291,0.000000
1.070000,-1.868446,-0.712594,-1.342345,0.480287,1.194986,-0.077299,0.891299,0.767417,-0.524509,1.244129,-0.690452,1.745715,-4.173246,-1.235246,7.635689,0.073848,-0.086032,0.000000,-0.054622,-0.133593,0.000000
1.080000,-1.863598,-0.700606,-1.343144,0.489262,1.202625,-0.082456,0.903524,0.760444,-0.506682,1.200068,-0.704707,1.818494,-4.639248,-1.616095,6.918483,0.073298,-0.087356,0.000000,-0.055645,-0.130406,-0.000000
1.090000,-1.858660,-0.688542,-1.343994,0.498356,1.210194,-0.087431,0.915285,0.753310,-0.488163,1.151341,-0.722782,1.884056,-5.106302,-1.999154,6.192943,0.072734,-0.088646,0.000000,-0.057099,-0.126721,-0.000000
1.100000,-1.853631,-0.676402,-1.344892,0.507566,1.217691,-0.092217,0.926535,0.745976,-0.469025,1.097942,-0.744697,1.942335,-5.573279,-2.384128,5.462134,0.072154,-0.089895,0.000000,-0.058990,-0.122529,0.000000
1.110000,-1.848509,-0.664188,-1.345838,0.516885,1.225113,-0.096809,0.937229,0.738404,-0.449342,1.039999,-0.770350,1.993140,-6.042089,-2.773737,4.732954,0.071553,-0.091101,0.000000,-0.061310,-0.117831,-0.000000
1.120000,-1.843293,-0.651900,-1.346828,0.526308,1.232458,-0.101202,0.947319,0.730556,-0.429186,0.977245,-0.800040,2.036824,-6.508193,-3.164299,4.004163,0.070926,-0.092256,0.000000,-0.064089,-0.112596,-0.000000
1.130000,-1.837982,-0.639540,-1.347861,0.535829,1.239723,-0.105392,0.956759,0.722390,-0.408630,0.909849,-0.833637,2.073233,-6.970091,-3.555147,3.278356,0.070270,-0.093357,0.000000,-0.067317,-0.106831,0.000000
1.140000,-1.832576,-0.627106,-1.348935,0.545441,1.246904,-0.109374,0.965501,0.713870,-0.387746,0.837862,-0.871142,2.102410,-7.426280,-3.945617,2.558128,0.069579,-0.094397,0.000000,-0.070997,-0.100533,-0.000000
1.150000,-1.827073,-0.614602,-1.350048,0.555137,1.253999,-0.113146,0.973501,0.704955,-0.366606,0.761348,-0.912546,2.124423,-7.875262,-4.335041,1.846072,0.068848,-0.095370,0.000000,-0.075131,-0.093701,0.000000
1.160000,-1.821473,-0.602027,-1.351197,0.564909,1.261002,-0.116705,0.980714,0.695608,-0.345283,0.680476,-0.957684,2.139162,-8.317811,-4.726611,1.149968,0.068075,-0.096273,0.000000,-0.079705,-0.086342,-0.000000
1.170000,-1.815775,-0.589382,-1.352381,0.574748,1.267909,-0.120051,0.987096,0.685788,-0.323845,0.595128,-1.006896,2.147233,-8.749872,-5.115333,0.466592,0.067253,-0.097100,0.000000,-0.084752,-0.078442,-0.000000
1.180000,-1.809978,-0.576669,-1.353598,0.584648,1.274716,-0.123182,0.992603,0.675457,-0.302361,0.505520,-1.059977,2.148543,-9.169663,-5.500068,-0.202098,0.066378,-0.097844,0.000000,-0.090254,-0.070015,0.000000
1.190000,-1.804081,-0.563888,-1.354844,0.594597,1.281417,-0.126098,0.997192,0.664576,-0.280897,0.411782,-1.116881,2.143247,-9.575407,-5.879678,-0.854142,0.065446,-0.098501,0.000000,-0.096208,-0.061068,0.000000
1.200000,-1.798086,-0.551041,-1.356119,0.604588,1.288006,-0.128800,1.000825,0.653107,-0.259518,0.314064,-1.177550,2.131522,-9.965321,-6.253024,-1.487580,0.064452,-0.099066,0.000000,-0.102611,-0.051611,-0.000000
1.210000,-1.791990,-0.538128,-1.357419,0.614611,1.294477,-0.131289,1.003461,0.641014,-0.238289,0.212561,-1.241791,2.113358,-10.338299,-6.622139,-2.095251,0.063393,-0.099534,0.000000,-0.109444,-0.041657,-0.000000
1.220000,-1.785793,-0.525152,-1.358744,0.624654,1.300824,-0.133567,1.005064,0.628259,-0.217270,0.107393,-1.309821,2.089458,-10.691806,-6.982326,-2.681033,0.062262,-0.099899,0.000000,-0.116726,-0.031222,-0.000000
1.230000,-1.779496,-0.512112,-1.360090,0.634708,1.307039,-0.135635,1.005598,0.614805,-0.196519,-0.001204,-1.381403,2.059814,-11.023982,-7.332059,-3.243605,0.061057,-0.100158,0.000000,-0.124434,-0.020323,-0.000000
1.240000,-1.773099,-0.499011,-1.361456,0.644762,1.313117,-0.137498,1.005029,0.600619,-0.176092,-0.113009,-1.456423,2.024667,-11.332965,-7.669812,-3.781643,0.059772,-0.100305,0.000000,-0.132558,-0.008981,0.000000
1.250000,-1.766601,-0.485850,-1.362839,0.654805,1.319049,-0.139159,1.003328,0.585666,-0.156043,-0.227780,-1.534754,1.984268,-11.616892,-7.994059,-4.293826,0.058404,-0.100337,0.000000,-0.141083,0.002778,0.000000
1.260000,-1.760003,-0.472631,-1.364238,0.664825,1.324828,-0.140620,1.000464,0.569914,-0.136425,-0.345316,-1.616203,1.938711,-11.872411,-8.304549,-4.774530,0.056949,-0.100248,0.000000,-0.149990,0.014936,-0.000000
1.270000,-1.753305,-0.459354,-1.365651,0.674810,1.330445,-0.141889,0.996413,0.553332,-0.117285,-0.465200,-1.700732,1.888678,-12.099335,-8.598323,-5.227260,0.055403,-0.100036,0.000000,-0.159268,0.027446,-0.000000
1.280000,-1.746507,-0.446023,-1.367076,0.684749,1.335892,-0.142968,0.991153,0.535890,-0.098666,-0.587202,-1.788108,1.834262,-12.295982,-8.873701,-5.651219,0.053763,-0.099697,0.000000,-0.168895,0.040282,-0.000000
1.290000,-1.739610,-0.432637,-1.368510,0.694629,1.341160,-0.143864,0.984663,0.517561,-0.080613,-0.711013,-1.878139,1.775753,-12.460674,-9.129000,-6.045612,0.052024,-0.099228,0.000000,-0.178846,0.053411,0.000000
1.300000,-1.732615,-0.419200,-1.369952,0.704438,1.346240,-0.144582,0.976928,0.498319,-0.063164,-0.836303,-1.970616,1.713451,-12.591732,-9.362538,-6.409643,0.050185,-0.098627,0.000000,-0.189097,0.066794,-0.000000
1.310000,-1.725522,-0.405713,-1.371401,0.714164,1.351123,-0.145129,0.967932,0.478140,-0.046357,-0.962880,-2.065363,1.647538,-12.683683,-9.571336,-6.739347,0.048241,-0.097890,0.000000,-0.199626,0.080406,-0.000000
1.320000,-1.718332,-0.392178,-1.372854,0.723793,1.355799,-0.145512,0.957668,0.457005,-0.030224,-1.090025,-2.162017,1.578628,-12.739106,-9.755166,-7.037484,0.046191,-0.097016,0.000000,-0.210390,0.094166,-0.000000
1.330000,-1.711046,-0.378598,-1.374311,0.733313,1.360260,-0.145736,0.946130,0.434894,-0.014794,-1.217536,-2.260378,1.506895,-12.756785,-9.912506,-7.303647,0.044033,-0.096004,0.000000,-0.221363,0.108047,0.000000
1.340000,-1.703666,-0.364974,-1.375768,0.742711,1.364494,-0.145810,0.933317,0.411793,-0.000094,-1.345030,-2.360174,1.432663,-12.735504,-10.041832,-7.537428,0.041763,-0.094853,0.000000,-0.232511,0.122001,0.000000
1.350000,-1.696192,-0.351309,-1.377226,0.751975,1.368492,-0.145740,0.919231,0.387687,0.013852,-1.472112,-2.461117,1.356256,-12.674050,-10.141619,-7.738418,0.039382,-0.093562,0.000000,-0.243797,0.135979,0.000000
1.360000,-1.688627,-0.337605,-1.378683,0.761092,1.372244,-0.145535,0.903875,0.362566,0.027024,-1.598607,-2.563061,1.277902,-12.565300,-10.206363,-7.903616,0.036887,-0.092131,0.000000,-0.255201,0.149955,0.000000
1.370000,-1.680971,-0.323865,-1.380137,0.770048,1.375740,-0.145203,0.887263,0.336424,0.039405,-1.723542,-2.665315,1.198179,-12.414668,-10.239009,-8.035525,0.034278,-0.090561,0.000000,-0.266642,0.163817,-0.000000
1.380000,-1.673226,-0.310091,-1.381586,0.778833,1.378970,-0.144750,0.869410,0.309259,0.050983,-1.846759,-2.767730,1.117303,-12.221664,-10.238522,-8.134054,0.031554,-0.088853,0.000000,-0.278098,0.177538,-0.000000
1.390000,-1.665395,-0.296286,-1.383031,0.787432,1.381922,-0.144186,0.850335,0.281070,0.061748,-1.967833,-2.869971,1.035609,-11.985796,-10.203866,-8.199113,0.028716,-0.087009,0.000000,-0.289526,0.191065,-0.000000
1.400000,-1.657478,-0.282453,-1.384470,0.795835,1.384588,-0.143518,0.830062,0.251861,0.071694,-2.086331,-2.971690,0.953433,-11.706571,-10.134004,-8.230611,0.025764,-0.085031,0.000000,-0.300880,0.204342,0.000000
1.410000,-1.649479,-0.268595,-1.385901,0.804030,1.386956,-0.142754,0.808615,0.221637,0.080815,-2.202117,-3.072782,0.870985,-11.375934,-10.021553,-8.225326,0.022698,-0.082922,0.000000,-0.312143,0.217343,0.000000
1.420000,-1.641399,-0.254715,-1.387325,0.812004,1.389017,-0.141904,0.786031,0.190410,0.089114,-2.314042,-3.172283,0.788898,-11.001884,-9.872602,-8.186683,0.019522,-0.080684,0.000000,-0.323204,0.229939,0.000000
1.430000,-1.633240,-0.240816,-1.388739,0.819747,1.390761,-0.140975,0.762347,0.158197,0.096595,-2.422012,-3.270111,0.707362,-10.584854,-9.686893,-8.114973,0.016235,-0.078324,0.000000,-0.334049,0.242108,0.000000
1.440000,-1.625005,-0.226901,-1.390144,0.827247,1.392178,-0.139975,0.737606,0.125015,0.103265,-2.525598,-3.365897,0.626707,-10.125280,-9.464166,-8.010490,0.012841,-0.075843,0.000000,-0.344628,0.253798,0.000000
1.450000,-1.616696,-0.212974,-1.391538,0.834496,1.393258,-0.138912,0.711851,0.090887,0.109133,-2.624377,-3.459270,0.547260,-9.623594,-9.204163,-7.873527,0.009344,-0.073249,0.000000,-0.354898,0.264952,0.000000
1.460000,-1.608315,-0.199037,-1.392922,0.841481,1.393992,-0.137795,0.685132,0.055835,0.114213,-2.718273,-3.550179,0.469154,-9.071575,-8.898456,-7.699572,0.005744,-0.070546,0.000000,-0.364844,0.275556,0.000000
1.470000,-1.599867,-0.185095,-1.394294,0.848195,1.394372,-0.136631,0.657505,0.019894,0.118523,-2.806061,-3.637481,0.393159,-8.479374,-8.555956,-7.494309,0.002048,-0.067740,0.000000,-0.374343,0.285472,-0.000000
1.480000,-1.591352,-0.171151,-1.395654,0.854629,1.394388,-0.135427,0.629031,-0.016903,0.122083,-2.887732,-3.721178,0.319369,-7.848485,-8.177404,-7.258621,-0.001741,-0.064838,0.000000,-0.383388,0.294692,0.000000
1.490000,-1.582775,-0.157209,-1.397003,0.860773,1.394031,-0.134191,0.599772,-0.054516,0.124918,-2.962907,-3.800912,0.248085,-7.180403,-7.763543,-6.993386,-0.005618,-0.061848,0.000000,-0.391937,0.303171,-0.000000
1.500000,-1.574138,-0.143272,-1.398338,0.866622,1.393295,-0.132931,0.569796,-0.092906,0.127054,-3.031221,-3.876334,0.179597,-6.476622,-7.315112,-6.699487,-0.009578,-0.058777,0.000000,-0.399951,0.310865,-0.000000
1.510000,-1.565444,-0.129344,-1.399661,0.872167,1.392171,-0.131652,0.539168,-0.132032,0.128518,-3.092684,-3.947461,0.113917,-5.729576,-6.823770,-6.370978,-0.013616,-0.055633,0.000000,-0.407428,0.317773,-0.000000
1.520000,-1.556696,-0.115429,-1.400971,0.877403,1.390652,-0.130362,0.507967,-0.171839,0.129344,-3.146112,-4.013108,0.051960,-4.950929,-6.300454,-6.016402,-0.017724,-0.052424,0.000000,-0.414246,0.323765,0.000000
1.530000,-1.547897,-0.101532,-1.402268,0.882325,1.388732,-0.129067,0.476272,-0.212276,0.129569,-3.191606,-4.073370,-0.006329,-4.143286,-5.747020,-5.637475,-0.021898,-0.049160,0.000000,-0.420414,0.328854,0.000000
1.540000,-1.539050,-0.087656,-1.403553,0.886927,1.386404,-0.127773,0.444163,-0.253287,0.129231,-3.228889,-4.127954,-0.060715,-3.309249,-5.165322,-5.235915,-0.026131,-0.045849,0.000000,-0.425904,0.333009,-0.000000
1.550000,-1.530159,-0.073805,-1.404824,0.891207,1.383664,-0.126485,0.411722,-0.294815,0.128369,-3.257712,-4.176588,-0.110978,-2.451422,-4.557213,-4.813438,-0.030414,-0.042501,0.000000,-0.430691,0.336207,0.000000
1.560000,-1.521227,-0.059984,-1.406082,0.895161,1.380507,-0.125207,0.379034,-0.336802,0.127022,-3.278136,-4.219321,-0.157206,-1.565113,-3.916873,-4.364531,-0.034742,-0.039124,0.000000,-0.434784,0.338459,0.000000
1.570000,-1.512257,-0.046197,-1.407328,0.898787,1.376927,-0.123945,0.346190,-0.379180,0.125240,-3.289281,-4.255196,-0.198536,-0.661115,-3.254771,-3.899026,-0.039107,-0.035731,0.000000,-0.438092,0.339673,-0.000000
1.580000,-1.503253,-0.032447,-1.408561,0.902085,1.372922,-0.122704,0.313279,-0.421883,0.123067,-3.291311,-4.284353,-0.235139,0.257074,-2.573701,-3.419525,-0.043502,-0.032329,0.000000,-0.440638,0.339876,0.000000
1.590000,-1.494217,-0.018740,-1.409782,0.905053,1.368489,-0.121485,0.280394,-0.464844,0.120553,-3.284103,-4.306616,-0.266889,1.185957,-1.876457,-2.928630,-0.047917,-0.028930,0.000000,-0.442411,0.339059,0.000000
1.600000,-1.485153,-0.005079,-1.410991,0.907693,1.363624,-0.120294,0.247628,-0.507992,0.117746,-3.267568,-4.321837,-0.293683,2.122036,-1.165833,-2.428943,-0.052347,-0.025544,0.000000,-0.443408,0.337223,0.000000
1.610000,-1.476064,0.008531,-1.412188,0.910006,1.358328,-0.119131,0.215073,-0.551258,0.114694,-3.241750,-4.330030,-0.315625,3.064329,-0.441272,-1.918565,-0.056783,-0.022180,0.000000,-0.443639,0.334380,0.000000
1.620000,-1.466954,0.022086,-1.413374,0.911995,1.352599,-0.118000,0.182824,-0.594568,0.111451,-3.206394,-4.330788,-0.332245,4.006517,0.290670,-1.405151,-0.061217,-0.018848,0.000000,-0.443079,0.330513,0.000000
1.630000,-1.457825,0.035582,-1.414548,0.913664,1.346437,-0.116903,0.150976,-0.637849,0.108066,-3.161633,-4.324203,-0.343729,4.944792,1.026790,-0.891854,-0.065642,-0.015560,0.000000,-0.441747,0.325646,0.000000
1.640000,-1.448681,0.049014,-1.415712,0.915017,1.339843,-0.115839,0.119623,-0.681028,0.104593,-3.107524,-4.310249,-0.350093,5.875351,1.763883,-0.381828,-0.070050,-0.012325,0.000000,-0.439656,0.319795,0.000000
1.650000,-1.439526,0.062377,-1.416865,0.916058,1.332817,-0.114811,0.088857,-0.724030,0.101082,-3.044164,-4.288932,-0.351386,6.794387,2.498744,0.121775,-0.074433,-0.009152,0.000000,-0.436820,0.312979,-0.000000
1.660000,-1.430361,0.075669,-1.418008,0.916796,1.325363,-0.113818,0.058771,-0.766781,0.097582,-2.971582,-4.260232,-0.347667,7.695444,3.226655,0.615241,-0.078784,-0.006051,0.000000,-0.433250,0.305213,-0.000000
1.670000,-1.421191,0.088883,-1.419142,0.917236,1.317483,-0.112859,0.029455,-0.809210,0.094144,-2.890200,-4.224360,-0.339099,8.577693,3.946111,1.096045,-0.083095,-0.003032,0.000000,-0.428981,0.296549,-0.000000
1.680000,-1.412017,0.102017,-1.420266,0.917388,1.309180,-0.111934,0.000996,-0.851245,0.090816,-2.800103,-4.181348,-0.325799,9.437653,4.654093,1.561101,-0.087361,-0.000103,0.000000,-0.424030,0.287005,0.000000
1.690000,-1.402844,0.115065,-1.421380,0.917259,1.300459,-0.111042,-0.026519,-0.892814,0.087644,-2.701532,-4.131326,-0.307940,10.271844,5.347582,2.007326,-0.091574,0.002728,0.000000,-0.418422,0.276616,0.000000
1.700000,-1.393673,0.128025,-1.422487,0.916861,1.291325,-0.110181,-0.053007,-0.933848,0.084672,-2.594763,-4.074455,-0.285725,11.076784,6.023559,2.431633,-0.095727,0.005450,0.000000,-0.412186,0.265416,0.000000
1.710000,-1.384508,0.140890,-1.423584,0.916203,1.281784,-0.109348,-0.078385,-0.974279,0.081946,-2.479871,-4.010727,-0.259141,11.843065,6.674032,2.824628,-0.099815,0.008057,0.000000,-0.405333,0.253421,0.000000
1.720000,-1.375350,0.153659,-1.424674,0.915297,1.271842,-0.108541,-0.102580,-1.014042,0.079502,-2.357756,-3.940829,-0.229042,12.573860,7.301564,3.190309,-0.103832,0.010542,0.000000,-0.397935,0.240727,-0.000000
1.730000,-1.366202,0.166326,-1.425755,0.914156,1.261506,-0.107757,-0.125517,-1.053075,0.077376,-2.228521,-3.864780,-0.195433,13.266416,7.903745,3.526363,-0.107772,0.012896,0.000000,-0.390006,0.227351,-0.000000
1.740000,-1.357068,0.178888,-1.426829,0.912791,1.250783,-0.106992,-0.147128,-1.091318,0.075604,-2.092564,-3.782846,-0.158621,13.917977,8.478164,3.830479,-0.111631,0.015113,0.000000,-0.381577,0.213334,0.000000
1.750000,-1.347947,0.191340,-1.427895,0.911218,1.239682,-0.106244,-0.167347,-1.128713,0.074214,-1.950308,-3.695317,-0.118938,14.525790,9.022412,4.100343,-0.115402,0.017187,0.000000,-0.372682,0.198724,-0.000000
1.760000,-1.338844,0.203680,-1.428954,0.909449,1.228212,-0.105507,-0.186111,-1.165203,0.073238,-1.801899,-3.602226,-0.076291,15.079422,9.527000,4.322387,-0.119083,0.019112,0.000000,-0.363332,0.183535,-0.000000
1.770000,-1.329759,0.215903,-1.430005,0.907500,1.216381,-0.104777,-0.203367,-1.200741,0.072695,-1.648538,-3.504575,-0.032112,15.584737,9.997462,4.506934,-0.122668,0.020882,0.000000,-0.353617,0.167887,-0.000000
1.780000,-1.320694,0.228007,-1.431049,0.905387,1.204200,-0.104051,-0.219066,-1.235280,0.072601,-1.490372,-3.402396,0.013720,16.039918,10.432256,4.653049,-0.126154,0.022494,0.000000,-0.343543,0.151795,-0.000000
1.790000,-1.311652,0.239986,-1.432086,0.903124,1.191679,-0.103324,-0.233160,-1.268775,0.072973,-1.327912,-3.296054,0.060817,16.443152,10.829839,4.759799,-0.129537,0.023941,0.000000,-0.333145,0.135306,-0.000000
1.800000,-1.302632,0.251839,-1.433116,0.900729,1.178828,-0.102590,-0.245611,-1.301188,0.073821,-1.161688,-3.185928,0.108782,16.792624,11.188667,4.826251,-0.132816,0.025221,0.000000,-0.322456,0.118470,-0.000000
1.810000,-1.293637,0.263562,-1.434138,0.898218,1.165659,-0.101846,-0.256380,-1.332479,0.075156,-0.991898,-3.072087,0.157751,17.077740,11.498923,4.837671,-0.135985,0.026330,0.000000,-0.311484,0.101303,0.000000
1.820000,-1.284668,0.275151,-1.435153,0.895607,1.152183,-0.101086,-0.265441,-1.362620,0.076975,-0.819929,-2.955717,0.206016,17.306540,11.768351,4.808614,-0.139045,0.027265,0.000000,-0.300323,0.083938,0.000000
1.830000,-1.275726,0.286604,-1.436160,0.892915,1.138411,-0.100305,-0.272772,-1.391585,0.079275,-0.645957,-2.836858,0.253791,17.478283,11.996420,4.739835,-0.141991,0.028025,0.000000,-0.288976,0.066387,0.000000
1.840000,-1.266810,0.297919,-1.437159,0.890158,1.124355,-0.099499,-0.278355,-1.419351,0.082048,-0.470556,-2.715928,0.300683,17.592229,12.182600,4.632090,-0.144824,0.028606,0.000000,-0.277474,0.048700,0.000000
1.850000,-1.257923,0.309091,-1.438149,0.887353,1.110028,-0.098662,-0.282180,-1.445898,0.085284,-0.294307,-2.593348,0.346306,17.647640,12.326359,4.486135,-0.147540,0.029009,0.000000,-0.265849,0.030931,0.000000
1.860000,-1.249063,0.320118,-1.439132,0.884520,1.095441,-0.097792,-0.284236,-1.471210,0.088974,-0.117420,-2.469197,0.390788,17.634151,12.418404,4.289909,-0.150140,0.029231,0.000000,-0.254105,0.013094,-0.000000
1.870000,-1.240232,0.330999,-1.440105,0.881674,1.080607,-0.096882,-0.284530,-1.495280,0.093093,0.058609,-2.344730,0.432559,17.561825,12.468041,4.058552,-0.152622,0.029274,0.000000,-0.242336,-0.004669,-0.000000
1.880000,-1.231430,0.341730,-1.441069,0.878835,1.065539,-0.095928,-0.283067,-1.518103,0.097617,0.233622,-2.219976,0.471850,17.431100,12.475814,3.794391,-0.154987,0.029137,0.000000,-0.230540,-0.022348,0.000000
1.890000,-1.222655,0.352309,-1.442024,0.876019,1.050249,-0.094928,-0.279863,-1.539680,0.102521,0.407038,-2.095351,0.508345,17.242414,12.442265,3.499750,-0.157233,0.028822,0.000000,-0.218748,-0.039889,-0.000000
1.900000,-1.213909,0.362734,-1.442968,0.873243,1.034750,-0.093877,-0.274934,-1.560012,0.107774,0.578279,-1.971266,0.541751,16.996207,12.367937,3.176954,-0.159362,0.028330,0.000000,-0.206987,-0.057239,0.000000
1.910000,-1.205190,0.373003,-1.443901,0.870526,1.019053,-0.092772,-0.268302,-1.579104,0.113348,0.747176,-1.847786,0.572126,16.682717,12.244784,2.820040,-0.161373,0.027662,0.000000,-0.195256,-0.074386,0.000000
1.920000,-1.196498,0.383114,-1.444823,0.867883,1.003172,-0.091609,-0.260002,-1.596973,0.119204,0.912204,-1.726116,0.598447,16.313831,12.082989,2.440636,-0.163267,0.026823,0.000000,-0.183653,-0.091179,0.000000
1.930000,-1.187832,0.393066,-1.445733,0.865331,0.987118,-0.090387,-0.250071,-1.613633,0.125304,1.073273,-1.606250,0.620875,15.891237,11.884148,2.042081,-0.165046,0.025816,0.000000,-0.172170,-0.107611,0.000000
1.940000,-1.179191,0.402856,-1.446630,0.862887,0.970903,-0.089102,-0.238551,-1.629105,0.131608,1.229855,-1.488551,0.639236,15.416623,11.649853,1.627716,-0.166711,0.024643,0.000000,-0.160835,-0.123630,0.000000
1.950000,-1.170574,0.412483,-1.447515,0.860565,0.954540,-0.087754,-0.225490,-1.643412,0.138075,1.381438,-1.373366,0.653388,14.891676,11.381701,1.200881,-0.168263,0.023310,0.000000,-0.149672,-0.139184,-0.000000
1.960000,-1.161980,0.421946,-1.448385,0.858382,0.938039,-0.086340,-0.210937,-1.656578,0.144662,1.527911,-1.260729,0.663279,14.308381,11.073809,0.763495,-0.169705,0.021821,0.000000,-0.138680,-0.154261,-0.000000
1.970000,-1.153406,0.431244,-1.449241,0.856351,0.921412,-0.084861,-0.194952,-1.668637,0.151326,1.667886,-1.151655,0.668702,13.679317,10.736163,0.320492,-0.171038,0.020181,0.000000,-0.127949,-0.168717,-0.000000
1.980000,-1.144852,0.440374,-1.450082,0.854487,0.904669,-0.083314,-0.177601,-1.679623,0.158021,1.801354,-1.046096,0.669682,13.007358,10.371274,-0.124614,-0.172265,0.018398,0.000000,-0.117472,-0.182549,0.000000
1.990000,-1.136316,0.449337,-1.450907,0.852803,0.887823,-0.081700,-0.158948,-1.689572,0.164704,1.927900,-0.944312,0.666215,12.295382,9.981652,-0.568309,-0.173388,0.016478,0.000000,-0.107271,-0.195708,-0.000000
2.000000,-1.127795,0.458130,-1.451716,0.851312,0.870881,-0.080020,-0.139067,-1.698523,0.171331,2.047138,-0.846537,0.658332,11.546263,9.569806,-1.007080,-0.174411,0.014427,0.000000,-0.097367,-0.208152,0.000000
2.010000,-1.119289,0.466754,-1.452508,0.850026,0.853855,-0.078274,-0.118028,-1.706515,0.177854,2.158992,-0.752791,0.645876,10.755777,9.133431,-1.431712,-0.175336,0.012253,0.000000,-0.087758,-0.219866,0.000000
2.020000,-1.110794,0.475207,-1.453281,0.848955,0.836754,-0.076463,-0.095914,-1.713593,0.184234,2.262469,-0.663709,0.629481,9.934770,8.680442,-1.845090,-0.176167,0.009964,0.000000,-0.078517,-0.230741,-0.000000
2.030000,-1.102309,0.483489,-1.454037,0.848111,0.819586,-0.074590,-0.072807,-1.719804,0.190430,2.357598,-0.579227,0.609021,9.086986,8.213939,-2.244398,-0.176908,0.007568,0.000000,-0.069635,-0.240773,0.000000
2.040000,-1.093831,0.491599,-1.454773,0.847502,0.802361,-0.072655,-0.048791,-1.725194,0.196402,2.444132,-0.499465,0.584649,8.216171,7.737022,-2.626822,-0.177561,0.005075,0.000000,-0.061129,-0.249929,0.000000
2.050000,-1.085358,0.499536,-1.455489,0.847138,0.785085,-0.070663,-0.023953,-1.729810,0.202111,2.521857,-0.424511,0.556550,7.326070,7.252791,-2.989545,-0.178132,0.002493,0.000000,-0.053012,-0.258181,-0.000000
2.060000,-1.076888,0.507300,-1.456186,0.847026,0.767767,-0.068614,0.001617,-1.733700,0.207516,2.590684,-0.354414,0.524505,6.418325,6.764116,-3.318932,-0.178623,-0.000168,0.000000,-0.045286,-0.265510,0.000000
2.070000,-1.068417,0.514891,-1.456862,0.847172,0.750413,-0.066513,0.027830,-1.736914,0.212590,2.650279,-0.289222,0.489768,5.499041,6.274353,-3.624312,-0.179039,-0.002900,0.000000,-0.037982,-0.271874,-0.000000
2.080000,-1.059943,0.522309,-1.457516,0.847584,0.733031,-0.064363,0.054592,-1.739501,0.217302,2.700640,-0.228920,0.452104,4.572221,5.786632,-3.904194,-0.179384,-0.005691,0.000000,-0.031097,-0.277268,0.000000
2.090000,-1.051464,0.529552,-1.458149,0.848266,0.715625,-0.062168,0.081812,-1.741509,0.221623,2.741712,-0.173472,0.411774,3.641866,5.304080,-4.157089,-0.179662,-0.008532,0.000000,-0.024635,-0.281679,0.000000
2.100000,-1.042977,0.536621,-1.458759,0.849221,0.698202,-0.059932,0.109395,-1.742986,0.225529,2.773479,-0.122811,0.369057,2.711981,4.829824,-4.381504,-0.179878,-0.011413,0.000000,-0.018598,-0.285099,0.000000
2.110000,-1.034479,0.543516,-1.459347,0.850455,0.680767,-0.057659,0.137249,-1.743983,0.228992,2.795805,-0.077033,0.323758,1.790637,4.371927,-4.563678,-0.180036,-0.014324,0.000000,-0.012997,-0.287508,0.000000
2.120000,-1.025967,0.550236,-1.459912,0.851967,0.663324,-0.055354,0.165281,-1.744542,0.231999,2.809137,-0.035546,0.277335,0.877268,3.927978,-4.715893,-0.180139,-0.017255,0.000000,-0.007802,-0.288950,0.000000
2.130000,-1.017439,0.556782,-1.460454,0.853760,0.645878,-0.053021,0.193401,-1.744708,0.234534,2.813389,0.001581,0.229540,-0.024621,3.500501,-4.838163,-0.180193,-0.020195,0.000000,-0.003019,-0.289413,-0.000000
2.140000,-1.008891,0.563154,-1.460973,0.855835,0.628431,-0.050665,0.221519,-1.744524,0.236586,2.808694,0.034527,0.180672,-0.911527,3.092019,-4.930499,-0.180201,-0.023135,0.000000,0.001360,-0.288909,-0.000000
2.150000,-1.000321,0.569351,-1.461467,0.858191,0.610988,-0.048291,0.249546,-1.744031,0.238145,2.795220,0.063493,0.131030,-1.779945,2.705056,-4.992912,-0.180167,-0.026065,0.000000,0.005348,-0.287454,-0.000000
2.160000,-0.991726,0.575374,-1.461938,0.860825,0.593552,-0.045903,0.277391,-1.743270,0.239201,2.772833,0.088386,0.080525,-2.617906,2.350288,-5.015616,-0.180096,-0.028975,0.000000,0.008932,-0.285033,0.000000
2.170000,-0.983104,0.581222,-1.462385,0.863738,0.576124,-0.043508,0.304975,-1.742275,0.239756,2.742565,0.110220,0.030376,-3.431409,2.021088,-5.009620,-0.179990,-0.031856,0.000000,0.012191,-0.281756,-0.000000
2.180000,-0.974450,0.586896,-1.462809,0.866924,0.558707,-0.041110,0.332216,-1.741077,0.239809,2.704295,0.128898,-0.019575,-4.217984,1.718981,-4.976138,-0.179853,-0.034700,0.000000,0.015114,-0.277613,-0.000000
2.190000,-0.965764,0.592396,-1.463208,0.870380,0.541303,-0.038714,0.359035,-1.739706,0.239366,2.658304,0.144696,-0.069059,-4.975166,1.445494,-4.916381,-0.179688,-0.037497,0.000000,0.017722,-0.272634,0.000000
2.200000,-0.957042,0.597722,-1.463583,0.874103,0.523913,-0.036324,0.385357,-1.738191,0.238431,2.604898,0.157908,-0.117819,-5.700485,1.202152,-4.831561,-0.179499,-0.040239,0.000000,0.020039,-0.266857,0.000000
2.210000,-0.948281,0.602875,-1.463934,0.878086,0.506539,-0.033947,0.411105,-1.736559,0.237010,2.544026,0.168500,-0.165808,-6.381805,0.999180,-4.717904,-0.179289,-0.042918,0.000000,0.022059,-0.260279,0.000000
2.220000,-0.939479,0.607853,-1.464262,0.882323,0.489182,-0.031586,0.436215,-1.734827,0.235119,2.476949,0.177610,-0.212327,-7.027512,0.828339,-4.582218,-0.179059,-0.045527,0.000000,0.023882,-0.253037,0.000000
2.230000,-0.930634,0.612658,-1.464566,0.886808,0.471843,-0.029246,0.460623,-1.733012,0.232769,2.403598,0.185175,-0.257385,-7.636323,0.690088,-4.426326,-0.178812,-0.048059,0.000000,0.025502,-0.245130,-0.000000
2.240000,-0.921742,0.617290,-1.464847,0.891533,0.454522,-0.026932,0.484268,-1.731128,0.229976,2.324350,0.191522,-0.300792,-8.206955,0.584888,-4.252049,-0.178550,-0.050507,0.000000,0.026948,-0.236601,0.000000
2.250000,-0.912803,0.621749,-1.465105,0.896490,0.437221,-0.024648,0.507092,-1.729185,0.226759,2.239591,0.196985,-0.342371,-8.738122,0.513198,-4.061210,-0.178273,-0.052865,0.000000,0.028251,-0.227497,0.000000
2.260000,-0.903812,0.626035,-1.465340,0.901672,0.419939,-0.022398,0.529039,-1.727193,0.223135,2.149373,0.201596,-0.381972,-9.219699,0.483143,-3.855501,-0.177985,-0.055128,0.000000,0.029409,-0.217831,0.000000
2.270000,-0.894768,0.630148,-1.465553,0.907068,0.402677,-0.020186,0.550064,-1.725153,0.219127,2.054938,0.206417,-0.419444,-9.660329,0.486580,-3.636890,-0.177685,-0.057290,0.000000,0.030530,-0.207734,0.000000
2.280000,-0.885670,0.634088,-1.465744,0.912670,0.385436,-0.018017,0.570123,-1.723064,0.214754,1.956303,0.211438,-0.454673,-10.059811,0.523031,-3.407217,-0.177375,-0.059348,0.000000,0.031609,-0.197216,-0.000000
2.290000,-0.876514,0.637856,-1.465913,0.918467,0.368216,-0.015892,0.589177,-1.720923,0.210041,1.853880,0.216986,-0.487558,-10.417945,0.592019,-3.168319,-0.177053,-0.061296,0.000000,0.032680,-0.186324,-0.000000
2.300000,-0.867300,0.641453,-1.466062,0.924450,0.351018,-0.013817,0.607190,-1.718722,0.205011,1.748083,0.223385,-0.518015,-10.734529,0.693064,-2.922036,-0.176721,-0.063132,0.000000,0.033773,-0.175107,-0.000000
2.310000,-0.858025,0.644877,-1.466190,0.930608,0.333842,-0.011793,0.624126,-1.716454,0.199690,1.639046,0.230715,-0.545852,-11.002237,0.831699,-2.673425,-0.176378,-0.064852,0.000000,0.034895,-0.163583,-0.000000
2.320000,-0.848687,0.648129,-1.466298,0.936929,0.316689,-0.009824,0.639962,-1.714102,0.194102,1.527857,0.239852,-0.571326,-11.228868,1.000700,-2.420711,-0.176023,-0.066455,0.000000,0.036139,-0.151868,0.000000
2.330000,-0.839286,0.651211,-1.466386,0.943403,0.299560,-0.007912,0.654676,-1.711651,0.188272,1.414604,0.250826,-0.594258,-11.415093,1.198852,-2.165339,-0.175655,-0.067937,0.000000,0.037506,-0.139974,0.000000
2.340000,-0.829819,0.654121,-1.466456,0.950019,0.282456,-0.006059,0.668249,-1.709079,0.182226,1.299687,0.263922,-0.614629,-11.561586,1.424943,-1.908751,-0.175272,-0.069297,0.000000,0.039025,-0.127946,0.000000
2.350000,-0.820285,0.656860,-1.466508,0.956764,0.265379,-0.004268,0.680666,-1.706364,0.175988,1.183502,0.279414,-0.632434,-11.669018,1.677757,-1.652394,-0.174874,-0.070535,0.000000,0.040726,-0.115827,0.000000
2.360000,-0.810683,0.659428,-1.466542,0.963628,0.248330,-0.002540,0.691915,-1.703483,0.169588,1.066291,0.297405,-0.647492,-11.734427,1.960038,-1.402520,-0.174457,-0.071649,0.000000,0.042616,-0.103646,-0.000000
2.370000,-0.801012,0.661827,-1.466559,0.970599,0.231310,-0.000877,0.701990,-1.700406,0.163047,0.948776,0.318517,-0.660278,-11.762565,2.266131,-1.155175,-0.174021,-0.072640,0.000000,0.044767,-0.091475,-0.000000
2.380000,-0.791271,0.664055,-1.466560,0.977664,0.214322,0.000720,0.710890,-1.697103,0.156390,0.831160,0.342802,-0.670606,-11.754549,2.594336,-0.911214,-0.173561,-0.073507,0.000000,0.047183,-0.079336,0.000000
2.390000,-0.781458,0.666113,-1.466545,0.984813,0.197369,0.002251,0.718614,-1.693539,0.149643,0.713801,0.370472,-0.678516,-11.711497,2.942955,-0.671493,-0.173076,-0.074251,0.000000,0.049887,-0.067267,-0.000000
2.400000,-0.771574,0.668002,-1.466515,0.992032,0.180453,0.003713,0.725168,-1.689681,0.142828,0.597044,0.401723,-0.684053,-11.634524,3.310288,-0.436867,-0.172562,-0.074873,0.000000,0.052899,-0.055302,0.000000
2.410000,-0.761617,0.669722,-1.466471,0.999312,0.163576,0.005107,0.730554,-1.685493,0.135971,0.480879,0.436605,-0.687156,-11.516124,3.697908,-0.211153,-0.172017,-0.075374,0.000000,0.056225,-0.043442,0.000000
2.420000,-0.751588,0.671274,-1.466413,1.006640,0.146744,0.006432,0.734790,-1.680936,0.129092,0.366438,0.475585,-0.688166,-11.367094,4.100445,0.008118,-0.171437,-0.075756,0.000000,0.059920,-0.031797,-0.000000
2.430000,-0.741485,0.672657,-1.466342,1.014004,0.129959,0.007689,0.737889,-1.675968,0.122214,0.253632,0.518657,-0.687017,-11.189610,4.515800,0.220454,-0.170817,-0.076020,0.000000,0.063983,-0.020359,-0.000000
2.440000,-0.731308,0.673873,-1.466259,1.021394,0.113226,0.008877,0.739869,-1.670549,0.115359,0.142733,0.565937,-0.683781,-10.985843,4.941873,0.425363,-0.170156,-0.076170,0.000000,0.068427,-0.009152,0.000000
2.450000,-0.721057,0.674922,-1.466165,1.028798,0.096550,0.009996,0.740751,-1.664635,0.108546,0.033995,0.617523,-0.678536,-10.757968,5.376566,0.622351,-0.169448,-0.076207,0.000000,0.073266,0.001799,0.000000
2.460000,-0.710732,0.675804,-1.466060,1.036205,0.079935,0.011048,0.740560,-1.658183,0.101797,-0.072009,0.673517,-0.671170,-10.516854,5.817099,0.806063,-0.168689,-0.076134,0.000000,0.078508,0.012438,-0.000000
2.470000,-0.700333,0.676521,-1.465944,1.043605,0.063388,0.012032,0.739319,-1.651150,0.095128,-0.175884,0.733910,-0.662225,-10.254914,6.262136,0.981466,-0.167876,-0.075955,0.000000,0.084164,0.022833,-0.000000
2.480000,-0.689860,0.677072,-1.465819,1.050988,0.046914,0.012951,0.737052,-1.643490,0.088558,-0.277041,0.798768,-0.651568,-9.973256,6.709662,1.148661,-0.167004,-0.075672,0.000000,0.090238,0.032923,-0.000000
2.490000,-0.679313,0.677460,-1.465685,1.058343,0.030520,0.013804,0.733788,-1.635160,0.082102,-0.375287,0.868105,-0.639279,-9.672990,7.157661,1.307753,-0.166070,-0.075289,0.000000,0.096736,0.042694,0.000000
2.500000,-0.668693,0.677683,-1.465543,1.065661,0.014213,0.014593,0.729556,-1.626113,0.075777,-0.470443,0.941916,-0.625439,-9.355224,7.604118,1.458843,-0.165068,-0.074808,0.000000,0.103660,0.052129,0.000000
2.510000,-0.658000,0.677744,-1.465394,1.072931,-0.001999,0.015320,0.724388,-1.616307,0.069598,-0.562512,1.020174,-0.610133,-9.016655,8.047064,1.602137,-0.163995,-0.074233,0.000000,0.111010,0.061233,0.000000
2.520000,-0.647234,0.677644,-1.465237,1.080145,-0.018110,0.015986,0.718318,-1.605695,0.063579,-0.650923,1.102837,-0.593427,-8.663345,8.484430,1.737624,-0.162847,-0.073568,0.000000,0.118786,0.069950,0.000000
2.530000,-0.636397,0.677382,-1.465074,1.087295,-0.034110,0.016592,0.711381,-1.594235,0.057734,-0.735735,1.189837,-0.575406,-8.296941,8.914194,1.865393,-0.161618,-0.072816,0.000000,0.126984,0.078291,0.000000
2.540000,-0.625489,0.676962,-1.464906,1.094370,-0.049992,0.017141,0.703615,-1.581884,0.052075,-0.816824,1.281088,-0.556145,-7.919094,9.334334,1.985535,-0.160306,-0.071982,0.000000,0.135599,0.086244,0.000000
2.550000,-0.614510,0.676383,-1.464732,1.101364,-0.065745,0.017634,0.695058,-1.568600,0.046615,-0.894084,1.376485,-0.535720,-7.531451,9.742830,2.098141,-0.158905,-0.071070,0.000000,0.144624,0.093803,-0.000000
2.560000,-0.603462,0.675647,-1.464553,1.108269,-0.081360,0.018074,0.685745,-1.554341,0.041364,-0.967565,1.475950,-0.514257,-7.132163,10.136392,2.204579,-0.157412,-0.070084,0.000000,0.154055,0.100976,0.000000
2.570000,-0.592345,0.674756,-1.464370,1.115077,-0.096828,0.018462,0.675720,-1.539068,0.036333,-1.036864,1.579217,-0.491711,-6.726806,10.514422,2.303505,-0.155822,-0.069027,0.000000,0.163869,0.107723,-0.000000
2.580000,-0.581161,0.673711,-1.464184,1.121781,-0.112138,0.018801,0.665022,-1.522744,0.031533,-1.102087,1.686180,-0.468213,-6.317458,10.875051,2.394852,-0.154133,-0.067904,0.000000,0.174059,0.114060,0.000000
2.590000,-0.569910,0.672514,-1.463994,1.128375,-0.127280,0.019094,0.653692,-1.505333,0.026972,-1.163206,1.796654,-0.443839,-5.906198,11.216415,2.478555,-0.152340,-0.066720,0.000000,0.184610,0.119984,0.000000
2.600000,-0.558593,0.671166,-1.463802,1.134853,-0.142241,0.019342,0.641771,-1.486800,0.022659,-1.220212,1.910438,-0.418667,-5.495101,11.536646,2.554547,-0.150440,-0.065478,0.000000,0.195507,0.125498,0.000000
2.610000,-0.547213,0.669670,-1.463608,1.141209,-0.157012,0.019548,0.629306,-1.467111,0.018602,-1.272646,2.027503,-0.392707,-5.098126,11.829020,2.621071,-0.148429,-0.064183,0.000000,0.206749,0.130557,0.000000
2.620000,-0.535770,0.668027,-1.463411,1.147437,-0.171580,0.019715,0.616331,-1.446240,0.014807,-1.321654,2.147154,-0.366196,-4.704015,12.097124,2.679959,-0.146304,-0.062839,0.000000,0.218274,0.135279,-0.000000
2.630000,-0.524265,0.666239,-1.463214,1.153534,-0.185933,0.019845,0.602886,-1.424160,0.011280,-1.366738,2.269360,-0.339133,-4.313393,12.339685,2.731351,-0.144062,-0.061450,0.000000,0.230080,0.139615,0.000000
2.640000,-0.512699,0.664309,-1.463015,1.159494,-0.200059,0.019941,0.589010,-1.400846,0.008026,-1.407935,2.393859,-0.311593,-3.926882,12.555433,2.775389,-0.141701,-0.060019,0.000000,0.242146,0.143571,0.000000
2.650000,-0.501075,0.662239,-1.462815,1.165313,-0.213945,0.020006,0.574740,-1.376276,0.005049,-1.445291,2.520375,-0.283649,-3.545105,12.743095,2.812214,-0.139218,-0.058550,0.000000,0.254448,0.147152,0.000000
2.660000,-0.489394,0.660031,-1.462615,1.170987,-0.227580,0.020043,0.560115,-1.350430,0.002353,-1.478975,2.648786,-0.255421,-3.165653,12.897270,2.843186,-0.136611,-0.057048,0.000000,0.266977,0.150376,-0.000000
2.670000,-0.477656,0.657688,-1.462414,1.176514,-0.240950,0.020054,0.545173,-1.323296,-0.000058,-1.508761,2.778404,-0.226864,-2.792552,13.021321,2.867077,-0.133878,-0.055516,0.000000,0.279668,0.153222,0.000000
2.680000,-0.465864,0.655213,-1.462214,1.181890,-0.254042,0.020043,0.529952,-1.294859,-0.002183,-1.534851,2.909110,-0.198103,-2.426798,13.114484,2.883879,-0.131017,-0.053957,0.000000,0.292511,0.155709,0.000000
2.690000,-0.454019,0.652608,-1.462013,1.187112,-0.266843,0.020012,0.514488,-1.265111,-0.004020,-1.557324,3.040589,-0.169210,-2.069385,13.175993,2.893583,-0.128028,-0.052376,0.000000,0.305479,0.157848,0.000000
2.700000,-0.442122,0.649877,-1.461813,1.192179,-0.279339,0.019963,0.498817,-1.234045,-0.005567,-1.576270,3.172521,-0.140255,-1.721308,13.205081,2.896181,-0.124908,-0.050775,0.000000,0.318542,0.159646,0.000000
2.710000,-0.430176,0.647022,-1.461614,1.197088,-0.291519,0.019901,0.482976,-1.201657,-0.006825,-1.591622,3.304849,-0.111267,-1.387677,13.194184,2.890575,-0.121656,-0.049159,0.000000,0.331696,0.161097,0.000000
2.720000,-0.418181,0.644048,-1.461415,1.201838,-0.303368,0.019828,0.466996,-1.167949,-0.007793,-1.603875,3.436598,-0.082418,-1.064867,13.150168,2.877979,-0.118274,-0.047530,0.000000,0.344847,0.162252,0.000000
2.730000,-0.406140,0.640956,-1.461218,1.206427,-0.314874,0.019746,0.450909,-1.132927,-0.008473,-1.612957,3.567742,-0.053730,-0.753368,13.073099,2.858520,-0.114759,-0.045892,0.000000,0.357993,0.163103,0.000000
2.740000,-0.394053,0.637751,-1.461020,1.210856,-0.326022,0.019659,0.434747,-1.096598,-0.008868,-1.618982,3.697950,-0.025270,-0.453670,12.963043,2.832322,-0.111114,-0.044248,0.000000,0.371102,0.163660,-0.000000
2.750000,-0.381923,0.634437,-1.460824,1.215122,-0.336801,0.019570,0.418539,-1.058972,-0.008980,-1.622071,3.826893,0.002895,-0.166262,12.820068,2.799511,-0.107338,-0.042600,0.000000,0.384142,0.163936,0.000000
2.760000,-0.369751,0.631016,-1.460629,1.219226,-0.347198,0.019481,0.402316,-1.020062,-0.008811,-1.622248,3.954522,0.030758,0.105799,12.637156,2.758718,-0.103431,-0.040951,0.000000,0.397107,0.163933,0.000000
2.770000,-0.357539,0.627494,-1.460435,1.223169,-0.357198,0.019395,0.386103,-0.979888,-0.008366,-1.619884,4.079846,0.058115,0.364901,12.422325,2.711746,-0.099396,-0.039304,0.000000,0.409899,0.163686,0.000000
2.780000,-0.345288,0.623874,-1.460241,1.226949,-0.366791,0.019314,0.369927,-0.938473,-0.007650,-1.614994,4.202866,0.084973,0.610870,12.176509,2.658901,-0.095234,-0.037662,0.000000,0.422517,0.163197,0.000000
2.790000,-0.333001,0.620160,-1.460048,1.230567,-0.375964,0.019242,0.353811,-0.895840,-0.006669,-1.607711,4.323276,0.111274,0.843528,11.900643,2.600493,-0.090946,-0.036026,0.000000,0.434928,0.162479,-0.000000
2.800000,-0.320677,0.616356,-1.459856,1.234025,-0.384704,0.019182,0.337780,-0.852017,-0.005427,-1.598169,4.440781,0.136965,1.062700,11.595659,2.536829,-0.086536,-0.034400,0.000000,0.447102,0.161543,0.000000
2.810000,-0.308321,0.612467,-1.459665,1.237323,-0.393000,0.019135,0.321856,-0.807033,-0.003931,-1.586424,4.555305,0.162045,1.266213,11.257186,2.466932,-0.082005,-0.032784,0.000000,0.459026,0.160395,0.000000
2.820000,-0.295932,0.608498,-1.459474,1.240463,-0.400841,0.019104,0.306058,-0.760923,-0.002188,-1.572801,4.666073,0.186346,1.456131,10.892114,2.392553,-0.077356,-0.031182,0.000000,0.470622,0.159066,-0.000000
2.830000,-0.283512,0.604452,-1.459283,1.243445,-0.408215,0.019092,0.290406,-0.713724,-0.000207,-1.557346,4.773064,0.209883,1.632523,10.502026,2.314157,-0.072594,-0.029594,0.000000,0.481883,0.157560,-0.000000
2.840000,-0.271063,0.600335,-1.459092,1.246271,-0.415112,0.019101,0.274917,-0.665475,0.002007,-1.540195,4.876036,0.232618,1.795455,10.088507,2.232210,-0.067720,-0.028023,0.000000,0.492782,0.155889,-0.000000
